{
  "fetched_at": "2026-07-24T08:40:15.397Z",
  "active_count": 815,
  "listings": [
    {
      "id": "sr_2950987852",
      "price": 22990,
      "lat": 49.2151888682068,
      "lng": 16.5242175525182,
      "sqm": 64,
      "rooms": 2,
      "property_type": "flat",
      "address": "Černého, Bystrc, Brno",
      "zone": "Bystrc",
      "url": "https://www.sreality.cz/detail/pronajem/byt/2+1/_/2950987852?noredirect=1",
      "listing_published_at": "2026-06-11",
      "listing_updated_at": "2026-07-24"
    },
    {
      "id": "sr_2982445132",
      "price": 24990,
      "lat": 49.2118207897,
      "lng": 16.6299797977,
      "sqm": 79,
      "rooms": 3,
      "property_type": "flat",
      "address": "Vranovská, Husovice, Brno",
      "zone": "Husovice",
      "url": "https://www.sreality.cz/detail/pronajem/byt/3+kk/_/2982445132?noredirect=1",
      "listing_published_at": "2026-06-11",
      "listing_updated_at": "2026-07-24"
    },
    {
      "id": "sr_4091469900",
      "price": 31990,
      "lat": 49.2145869926,
      "lng": 16.564652868,
      "sqm": 77,
      "rooms": 3,
      "property_type": "flat",
      "address": "Podveská, Komín, Brno",
      "zone": "Komín",
      "url": "https://www.sreality.cz/detail/pronajem/byt/3+kk/_/4091469900?noredirect=1",
      "listing_published_at": "2026-07-09",
      "listing_updated_at": "2026-07-24"
    },
    {
      "id": "sr_2086592588",
      "price": 27990,
      "lat": 49.171082665,
      "lng": 16.5628119024,
      "sqm": 67,
      "rooms": 3,
      "property_type": "flat",
      "address": "Vltavská, Starý Lískovec, Brno",
      "zone": "Starý Lískovec",
      "url": "https://www.sreality.cz/detail/pronajem/byt/3+1/_/2086592588?noredirect=1",
      "listing_published_at": "2026-07-08",
      "listing_updated_at": "2026-07-24"
    },
    {
      "id": "sr_684253260",
      "price": 24990,
      "lat": 49.1798241831,
      "lng": 16.5928987864,
      "sqm": 67,
      "rooms": 2,
      "property_type": "flat",
      "address": "Jílová, Štýřice, Brno",
      "zone": "Štýřice",
      "url": "https://www.sreality.cz/detail/pronajem/byt/2+1/_/684253260?noredirect=1",
      "listing_published_at": "2026-07-07",
      "listing_updated_at": "2026-07-24"
    },
    {
      "id": "sr_1392042060",
      "price": 26590,
      "lat": 49.2003911143,
      "lng": 16.6338786297,
      "sqm": 60,
      "rooms": 3,
      "property_type": "flat",
      "address": "Kuldova, Zábrdovice, Brno",
      "zone": "Zábrdovice",
      "url": "https://www.sreality.cz/detail/pronajem/byt/3+kk/_/1392042060?noredirect=1",
      "listing_published_at": "2026-07-07",
      "listing_updated_at": "2026-07-24"
    },
    {
      "id": "sr_3683307596",
      "price": 15900,
      "lat": 49.2165017018,
      "lng": 16.5849558085,
      "sqm": 42,
      "rooms": 1,
      "property_type": "flat",
      "address": "Voroněžská, Žabovřesky, Brno",
      "zone": "Žabovřesky",
      "url": "https://www.sreality.cz/detail/pronajem/byt/1+1/_/3683307596?noredirect=1",
      "listing_published_at": "2026-07-24",
      "listing_updated_at": "2026-07-24"
    },
    {
      "id": "sr_3419201612",
      "price": 22080,
      "lat": 49.22100100814267,
      "lng": 16.581561135731793,
      "sqm": 43,
      "rooms": 1,
      "property_type": "flat",
      "address": "Královopolská, Žabovřesky, Brno",
      "zone": "Žabovřesky",
      "url": "https://www.sreality.cz/detail/pronajem/byt/1+kk/_/3419201612?noredirect=1",
      "listing_published_at": "2026-07-12",
      "listing_updated_at": "2026-07-24"
    },
    {
      "id": "sr_3051151436",
      "price": 22730,
      "lat": 49.22100100814267,
      "lng": 16.581561135731793,
      "sqm": 43,
      "rooms": 2,
      "property_type": "flat",
      "address": "Královopolská, Žabovřesky, Brno",
      "zone": "Žabovřesky",
      "url": "https://www.sreality.cz/detail/pronajem/byt/2+kk/_/3051151436?noredirect=1",
      "listing_published_at": "2026-07-12",
      "listing_updated_at": "2026-07-24"
    },
    {
      "id": "sr_1904922700",
      "price": 24900,
      "lat": 49.2155305756,
      "lng": 16.5083716981,
      "sqm": 75,
      "rooms": 3,
      "property_type": "flat",
      "address": "Foltýnova, Bystrc, Brno",
      "zone": "Bystrc",
      "url": "https://www.sreality.cz/detail/pronajem/byt/3+1/_/1904922700?noredirect=1",
      "listing_published_at": "2026-07-24",
      "listing_updated_at": "2026-07-24"
    },
    {
      "id": "sr_898289740",
      "price": 16500,
      "lat": 49.1880615931422,
      "lng": 16.5992946539284,
      "sqm": 49,
      "rooms": 1,
      "property_type": "flat",
      "address": "Staré Brno, Brno",
      "zone": "Staré Brno",
      "url": "https://www.sreality.cz/detail/pronajem/byt/1+1/_/898289740?noredirect=1",
      "listing_published_at": "2026-07-24",
      "listing_updated_at": "2026-07-24"
    },
    {
      "id": "sr_4222910540",
      "price": 14000,
      "lat": 49.2002074894,
      "lng": 16.5716935904,
      "sqm": 30,
      "rooms": 1,
      "property_type": "flat",
      "address": "Kalvodova, Stránice, Brno",
      "zone": "Stránice",
      "url": "https://www.sreality.cz/detail/pronajem/byt/1+kk/_/4222910540?noredirect=1",
      "listing_published_at": "2026-06-11",
      "listing_updated_at": "2026-07-24"
    },
    {
      "id": "sr_1730442828",
      "price": 21000,
      "lat": 49.19948280258434,
      "lng": 16.618840613040234,
      "sqm": 50,
      "rooms": 2,
      "property_type": "flat",
      "address": "Bratislavská, Zábrdovice, Brno",
      "zone": "Zábrdovice",
      "url": "https://www.sreality.cz/detail/pronajem/byt/2+1/_/1730442828?noredirect=1",
      "listing_published_at": "2022-08-06",
      "listing_updated_at": "2026-07-24"
    },
    {
      "id": "sr_3919900748",
      "price": 21000,
      "lat": 49.19528941609127,
      "lng": 16.59347480783723,
      "sqm": 54,
      "rooms": 2,
      "property_type": "flat",
      "address": "Trýbova, Staré Brno, Brno",
      "zone": "Staré Brno",
      "url": "https://www.sreality.cz/detail/pronajem/byt/2+kk/_/3919900748?noredirect=1",
      "listing_published_at": "2026-07-01",
      "listing_updated_at": "2026-07-24"
    },
    {
      "id": "sr_814739532",
      "price": 18990,
      "lat": 49.2042414100603,
      "lng": 16.4992536810986,
      "sqm": 44,
      "rooms": 2,
      "property_type": "flat",
      "address": "Žebětín, Brno",
      "zone": "Žebětín",
      "url": "https://www.sreality.cz/detail/pronajem/byt/2+kk/_/814739532?noredirect=1",
      "listing_published_at": "2026-06-17",
      "listing_updated_at": "2026-07-24"
    },
    {
      "id": "sr_1606803532",
      "price": 23500,
      "lat": 49.1306115384912,
      "lng": 16.6506328101647,
      "sqm": 76,
      "rooms": 3,
      "property_type": "flat",
      "address": "Jánošíkova, Chrlice, Brno",
      "zone": "Chrlice",
      "url": "https://www.sreality.cz/detail/pronajem/byt/3+kk/_/1606803532?noredirect=1",
      "listing_published_at": "2026-07-21",
      "listing_updated_at": "2026-07-24"
    },
    {
      "id": "sr_3169247308",
      "price": 20990,
      "lat": 49.2215463796894,
      "lng": 16.5264408923236,
      "sqm": 50,
      "rooms": 2,
      "property_type": "flat",
      "address": "Vondrákova, Bystrc, Brno",
      "zone": "Bystrc",
      "url": "https://www.sreality.cz/detail/pronajem/byt/2+kk/_/3169247308?noredirect=1",
      "listing_published_at": "2026-07-20",
      "listing_updated_at": "2026-07-24"
    },
    {
      "id": "sr_3585511500",
      "price": 25600,
      "lat": 49.1904805556,
      "lng": 16.6266472222,
      "sqm": 59,
      "rooms": 2,
      "property_type": "flat",
      "address": "Křenová, Brno",
      "zone": "Křenová",
      "url": "https://www.sreality.cz/detail/pronajem/byt/2+kk/_/3585511500?noredirect=1",
      "listing_published_at": "2026-05-23",
      "listing_updated_at": "2026-07-24"
    },
    {
      "id": "sr_472506444",
      "price": 29000,
      "lat": 49.1904805556,
      "lng": 16.6266472222,
      "sqm": 100,
      "rooms": 3,
      "property_type": "flat",
      "address": "Křenová, Brno",
      "zone": "Křenová",
      "url": "https://www.sreality.cz/detail/pronajem/byt/3+kk/_/472506444?noredirect=1",
      "listing_published_at": "2026-07-04",
      "listing_updated_at": "2026-07-24"
    },
    {
      "id": "sr_3751141452",
      "price": 13900,
      "lat": 49.2213279119848,
      "lng": 16.5345003054378,
      "sqm": 23,
      "rooms": 1,
      "property_type": "flat",
      "address": "Pod Horkou, Bystrc, Brno",
      "zone": "Bystrc",
      "url": "https://www.sreality.cz/detail/pronajem/byt/1+kk/_/3751141452?noredirect=1",
      "listing_published_at": "2026-07-21",
      "listing_updated_at": "2026-07-24"
    },
    {
      "id": "sr_2973639500",
      "price": 49990,
      "lat": 49.1668941738225,
      "lng": 16.602345239933,
      "sqm": 166,
      "rooms": 4,
      "property_type": "flat",
      "address": "Pražákova, Štýřice, Brno",
      "zone": "Štýřice",
      "url": "https://www.sreality.cz/detail/pronajem/byt/4+kk/_/2973639500?noredirect=1",
      "listing_published_at": "2025-11-18",
      "listing_updated_at": "2026-07-24"
    },
    {
      "id": "sr_2957369420",
      "price": 29000,
      "lat": 49.20075700634733,
      "lng": 16.583340256513313,
      "sqm": 65,
      "rooms": 3,
      "property_type": "flat",
      "address": "Údolní, Stránice, Brno",
      "zone": "Stránice",
      "url": "https://www.sreality.cz/detail/pronajem/byt/3+kk/_/2957369420?noredirect=1",
      "listing_published_at": "2026-07-20",
      "listing_updated_at": "2026-07-24"
    },
    {
      "id": "sr_400216140",
      "price": 28000,
      "lat": 49.19619588669259,
      "lng": 16.60614757288162,
      "sqm": 65,
      "rooms": 2,
      "property_type": "flat",
      "address": "Česká, Brno-město, Brno",
      "zone": "Brno-město",
      "url": "https://www.sreality.cz/detail/pronajem/byt/2+kk/_/400216140?noredirect=1",
      "listing_published_at": "2026-07-23",
      "listing_updated_at": "2026-07-24"
    },
    {
      "id": "sr_2328547404",
      "price": 30000,
      "lat": 49.19526698975834,
      "lng": 16.607318297707486,
      "sqm": 90,
      "rooms": 2,
      "property_type": "flat",
      "address": "náměstí Svobody, Brno-město, Brno",
      "zone": "Brno-město",
      "url": "https://www.sreality.cz/detail/pronajem/byt/2+1/_/2328547404?noredirect=1",
      "listing_published_at": "2026-07-23",
      "listing_updated_at": "2026-07-24"
    },
    {
      "id": "sr_4174041164",
      "price": 15000,
      "lat": 49.215192,
      "lng": 16.601271,
      "sqm": 29,
      "rooms": 1,
      "property_type": "flat",
      "address": "Poděbradova, Ponava, Brno",
      "zone": "Ponava",
      "url": "https://www.sreality.cz/detail/pronajem/byt/1+kk/_/4174041164?noredirect=1",
      "listing_published_at": "2026-07-23",
      "listing_updated_at": "2026-07-23"
    },
    {
      "id": "sr_1401716812",
      "price": 21000,
      "lat": 49.2038809761901,
      "lng": 16.6261770591189,
      "sqm": 47,
      "rooms": 2,
      "property_type": "flat",
      "address": "Auerswaldova, Zábrdovice, Brno",
      "zone": "Zábrdovice",
      "url": "https://www.sreality.cz/detail/pronajem/byt/2+kk/_/1401716812?noredirect=1",
      "listing_published_at": "2026-06-03",
      "listing_updated_at": "2026-07-23"
    },
    {
      "id": "sr_868081740",
      "price": 18900,
      "lat": 49.1878355545543,
      "lng": 16.6176102868398,
      "sqm": 45,
      "rooms": 2,
      "property_type": "flat",
      "address": "Dornych, Komárov, Brno",
      "zone": "Komárov",
      "url": "https://www.sreality.cz/detail/pronajem/byt/2+kk/_/868081740?noredirect=1",
      "listing_published_at": "2026-07-10",
      "listing_updated_at": "2026-07-23"
    },
    {
      "id": "sr_2140438604",
      "price": 24000,
      "lat": 49.1994622358815,
      "lng": 16.5961294846446,
      "sqm": 100,
      "rooms": 2,
      "property_type": "flat",
      "address": "Gorkého, Veveří, Brno",
      "zone": "Veveří",
      "url": "https://www.sreality.cz/detail/pronajem/byt/2+kk/_/2140438604?noredirect=1",
      "listing_published_at": "2026-06-11",
      "listing_updated_at": "2026-07-23"
    },
    {
      "id": "sr_2600788044",
      "price": 22000,
      "lat": 49.2221631019018,
      "lng": 16.5876527764916,
      "sqm": 50,
      "rooms": 2,
      "property_type": "flat",
      "address": "Skácelova, Královo Pole, Brno",
      "zone": "Královo Pole",
      "url": "https://www.sreality.cz/detail/pronajem/byt/2+kk/_/2600788044?noredirect=1",
      "listing_published_at": "2026-07-21",
      "listing_updated_at": "2026-07-23"
    },
    {
      "id": "sr_2631065676",
      "price": 28500,
      "lat": 49.2063857479124,
      "lng": 16.6223170128152,
      "sqm": 91,
      "rooms": 3,
      "property_type": "flat",
      "address": "Jugoslávská, Černá Pole, Brno",
      "zone": "Černá Pole",
      "url": "https://www.sreality.cz/detail/pronajem/byt/3+kk/_/2631065676?noredirect=1",
      "listing_published_at": "2026-07-14",
      "listing_updated_at": "2026-07-23"
    },
    {
      "id": "sr_2046480460",
      "price": 17500,
      "lat": 49.2235298432769,
      "lng": 16.5994345592362,
      "sqm": 48,
      "rooms": 1,
      "property_type": "flat",
      "address": "Košinova, Královo Pole, Brno",
      "zone": "Královo Pole",
      "url": "https://www.sreality.cz/detail/pronajem/byt/1+kk/_/2046480460?noredirect=1",
      "listing_published_at": "2026-07-23",
      "listing_updated_at": "2026-07-23"
    },
    {
      "id": "sr_923660364",
      "price": 14690,
      "lat": 49.1913239189,
      "lng": 16.6170086441,
      "sqm": 34,
      "rooms": 1,
      "property_type": "flat",
      "address": "Rumiště, Trnitá, Brno",
      "zone": "Trnitá",
      "url": "https://www.sreality.cz/detail/pronajem/byt/1+kk/_/923660364?noredirect=1",
      "listing_published_at": "2026-06-19",
      "listing_updated_at": "2026-07-24"
    },
    {
      "id": "sr_4261072972",
      "price": 14490,
      "lat": 49.1837052761122,
      "lng": 16.59912844473494,
      "sqm": 34,
      "rooms": 1,
      "property_type": "flat",
      "address": "Polní, Štýřice, Brno",
      "zone": "Štýřice",
      "url": "https://www.sreality.cz/detail/pronajem/byt/1+kk/_/4261072972?noredirect=1",
      "listing_published_at": "2026-07-23",
      "listing_updated_at": "2026-07-23"
    },
    {
      "id": "sr_3455766604",
      "price": 24900,
      "lat": 49.2043818908771,
      "lng": 16.6124581148541,
      "sqm": 73,
      "rooms": 2,
      "property_type": "flat",
      "address": "Vrchlického sad, Černá Pole, Brno",
      "zone": "Černá Pole",
      "url": "https://www.sreality.cz/detail/pronajem/byt/2+kk/_/3455766604?noredirect=1",
      "listing_published_at": "2026-07-23",
      "listing_updated_at": "2026-07-23"
    },
    {
      "id": "sr_2763690060",
      "price": 16500,
      "lat": 49.1866463363184,
      "lng": 16.6142929485257,
      "sqm": 32,
      "rooms": 1,
      "property_type": "flat",
      "address": "Trnitá, Trnitá, Brno",
      "zone": "Trnitá",
      "url": "https://www.sreality.cz/detail/pronajem/byt/1+kk/_/2763690060?noredirect=1",
      "listing_published_at": "2026-05-11",
      "listing_updated_at": "2026-07-23"
    },
    {
      "id": "sr_2180698188",
      "price": 16000,
      "lat": 49.20450071234355,
      "lng": 16.67392770908243,
      "sqm": 62,
      "rooms": 2,
      "property_type": "flat",
      "address": "Houbalova, Líšeň, Brno",
      "zone": "Líšeň",
      "url": "https://www.sreality.cz/detail/pronajem/byt/2+kk/_/2180698188?noredirect=1",
      "listing_published_at": "2026-07-23",
      "listing_updated_at": "2026-07-23"
    },
    {
      "id": "sr_64348236",
      "price": 20000,
      "lat": 49.200562,
      "lng": 16.596067,
      "sqm": 44,
      "rooms": 2,
      "property_type": "flat",
      "address": "Grohova, Veveří, Brno",
      "zone": "Veveří",
      "url": "https://www.sreality.cz/detail/pronajem/byt/2+kk/_/64348236?noredirect=1",
      "listing_published_at": "2026-07-21",
      "listing_updated_at": "2026-07-23"
    },
    {
      "id": "sr_725872716",
      "price": 15900,
      "lat": 49.2179759805829,
      "lng": 16.5047409039323,
      "sqm": 40,
      "rooms": 1,
      "property_type": "flat",
      "address": "Lýskova, Bystrc, Brno",
      "zone": "Bystrc",
      "url": "https://www.sreality.cz/detail/pronajem/byt/1+1/_/725872716?noredirect=1",
      "listing_published_at": "2026-06-22",
      "listing_updated_at": "2026-07-23"
    },
    {
      "id": "sr_1881010252",
      "price": 29500,
      "lat": 49.2301197896217,
      "lng": 16.6076557117481,
      "sqm": 84,
      "rooms": 3,
      "property_type": "flat",
      "address": "Kumpoštova, Brno",
      "zone": "Kumpoštova",
      "url": "https://www.sreality.cz/detail/pronajem/byt/3+kk/_/1881010252?noredirect=1",
      "listing_published_at": "2026-06-19",
      "listing_updated_at": "2026-07-23"
    },
    {
      "id": "sr_1580658764",
      "price": 19500,
      "lat": 49.1891993770649,
      "lng": 16.6043899898101,
      "sqm": 39,
      "rooms": 1,
      "property_type": "flat",
      "address": "Hybešova, Staré Brno, Brno",
      "zone": "Staré Brno",
      "url": "https://www.sreality.cz/detail/pronajem/byt/1+kk/_/1580658764?noredirect=1",
      "listing_published_at": "2026-06-29",
      "listing_updated_at": "2026-07-23"
    },
    {
      "id": "sr_535228492",
      "price": 18000,
      "lat": 49.2211447406661,
      "lng": 16.5937376472595,
      "sqm": 45,
      "rooms": 1,
      "property_type": "flat",
      "address": "Slovinská, Královo Pole, Brno",
      "zone": "Královo Pole",
      "url": "https://www.sreality.cz/detail/pronajem/byt/1+1/_/535228492?noredirect=1",
      "listing_published_at": "2026-06-29",
      "listing_updated_at": "2026-07-23"
    },
    {
      "id": "sr_2670256204",
      "price": 16000,
      "lat": 49.2452277712054,
      "lng": 16.5736348802219,
      "sqm": 38,
      "rooms": 1,
      "property_type": "flat",
      "address": "Hrázka, Medlánky, Brno",
      "zone": "Medlánky",
      "url": "https://www.sreality.cz/detail/pronajem/byt/1+kk/_/2670256204?noredirect=1",
      "listing_published_at": "2026-07-06",
      "listing_updated_at": "2026-07-23"
    },
    {
      "id": "sr_2243551308",
      "price": 19900,
      "lat": 49.1996388883815,
      "lng": 16.6200073575448,
      "sqm": 35,
      "rooms": 1,
      "property_type": "flat",
      "address": "Bratislavská, Zábrdovice, Brno",
      "zone": "Zábrdovice",
      "url": "https://www.sreality.cz/detail/pronajem/byt/1+kk/_/2243551308?noredirect=1",
      "listing_published_at": "2026-07-05",
      "listing_updated_at": "2026-07-23"
    },
    {
      "id": "sr_1520230476",
      "price": 16000,
      "lat": 49.1874390434064,
      "lng": 16.6656115258181,
      "sqm": 38,
      "rooms": 1,
      "property_type": "flat",
      "address": "Bělohorská, Židenice, Brno",
      "zone": "Židenice",
      "url": "https://www.sreality.cz/detail/pronajem/byt/1+kk/_/1520230476?noredirect=1",
      "listing_published_at": "2026-07-13",
      "listing_updated_at": "2026-07-23"
    },
    {
      "id": "sr_1366196300",
      "price": 12500,
      "lat": 49.2148992214662,
      "lng": 16.4938063165672,
      "sqm": 22,
      "rooms": 1,
      "property_type": "flat",
      "address": "Hostislavova, Žebětín, Brno",
      "zone": "Žebětín",
      "url": "https://www.sreality.cz/detail/pronajem/byt/1+kk/_/1366196300?noredirect=1",
      "listing_published_at": "2026-06-01",
      "listing_updated_at": "2026-07-23"
    },
    {
      "id": "sr_2877222988",
      "price": 14500,
      "lat": 49.2007815332433,
      "lng": 16.6057294172003,
      "sqm": 38,
      "rooms": 1,
      "property_type": "flat",
      "address": "Mášova, Veveří, Brno",
      "zone": "Veveří",
      "url": "https://www.sreality.cz/detail/pronajem/byt/1+1/_/2877222988?noredirect=1",
      "listing_published_at": "2026-06-18",
      "listing_updated_at": "2026-07-23"
    },
    {
      "id": "sr_1919873100",
      "price": 21500,
      "lat": 49.1874390434064,
      "lng": 16.6656115258181,
      "sqm": 64,
      "rooms": 2,
      "property_type": "flat",
      "address": "Bělohorská, Židenice, Brno",
      "zone": "Židenice",
      "url": "https://www.sreality.cz/detail/pronajem/byt/2+kk/_/1919873100?noredirect=1",
      "listing_published_at": "2026-06-18",
      "listing_updated_at": "2026-07-23"
    },
    {
      "id": "sr_1540194380",
      "price": 17500,
      "lat": 49.1926065071363,
      "lng": 16.5915444939749,
      "sqm": 50,
      "rooms": 1,
      "property_type": "flat",
      "address": "Schovaná, Staré Brno, Brno",
      "zone": "Staré Brno",
      "url": "https://www.sreality.cz/detail/pronajem/byt/1+1/_/1540194380?noredirect=1",
      "listing_published_at": "2026-06-02",
      "listing_updated_at": "2026-07-23"
    },
    {
      "id": "sr_4255809612",
      "price": 19800,
      "lat": 49.1806439778804,
      "lng": 16.670572831903,
      "sqm": 42,
      "rooms": 2,
      "property_type": "flat",
      "address": "Kigginsova, Slatina, Brno",
      "zone": "Slatina",
      "url": "https://www.sreality.cz/detail/pronajem/byt/2+kk/_/4255809612?noredirect=1",
      "listing_published_at": "2026-05-27",
      "listing_updated_at": "2026-07-23"
    },
    {
      "id": "sr_568238156",
      "price": 14000,
      "lat": 49.207835597826,
      "lng": 16.628488812226,
      "sqm": 29,
      "rooms": 1,
      "property_type": "flat",
      "address": "Svitavská, Brno-sever, Brno",
      "zone": "Brno-sever",
      "url": "https://www.sreality.cz/detail/pronajem/byt/1+kk/_/568238156?noredirect=1",
      "listing_published_at": "2026-04-27",
      "listing_updated_at": "2026-07-23"
    },
    {
      "id": "sr_2835276",
      "price": 14900,
      "lat": 49.1996388883815,
      "lng": 16.6200073575448,
      "sqm": 34,
      "rooms": 1,
      "property_type": "flat",
      "address": "Bratislavská, Zábrdovice, Brno",
      "zone": "Zábrdovice",
      "url": "https://www.sreality.cz/detail/pronajem/byt/1+kk/_/2835276?noredirect=1",
      "listing_published_at": "2026-03-18",
      "listing_updated_at": "2026-07-23"
    },
    {
      "id": "sr_641855564",
      "price": 15900,
      "lat": 49.1990325355159,
      "lng": 16.6455583676198,
      "sqm": 34,
      "rooms": 1,
      "property_type": "flat",
      "address": "Gajdošova, Židenice, Brno",
      "zone": "Židenice",
      "url": "https://www.sreality.cz/detail/pronajem/byt/1+kk/_/641855564?noredirect=1",
      "listing_published_at": "2026-06-24",
      "listing_updated_at": "2026-07-23"
    },
    {
      "id": "sr_3034767436",
      "price": 29000,
      "lat": 49.2123847301658,
      "lng": 16.6016021684346,
      "sqm": 73,
      "rooms": 3,
      "property_type": "flat",
      "address": "Štefánikova, Ponava, Brno",
      "zone": "Ponava",
      "url": "https://www.sreality.cz/detail/pronajem/byt/3+1/_/3034767436?noredirect=1",
      "listing_published_at": "2026-07-14",
      "listing_updated_at": "2026-07-23"
    },
    {
      "id": "sr_3207782476",
      "price": 15990,
      "lat": 49.200316136,
      "lng": 16.6082252796,
      "sqm": 30,
      "rooms": 1,
      "property_type": "flat",
      "address": "Koliště, Černá Pole, Brno",
      "zone": "Černá Pole",
      "url": "https://www.sreality.cz/detail/pronajem/byt/1+kk/_/3207782476?noredirect=1",
      "listing_published_at": "2026-07-14",
      "listing_updated_at": "2026-07-23"
    },
    {
      "id": "sr_2417676364",
      "price": 18900,
      "lat": 49.1540310668996,
      "lng": 16.6242062731531,
      "sqm": 45,
      "rooms": 2,
      "property_type": "flat",
      "address": "Bernáčkova, Dolní Heršpice, Brno",
      "zone": "Dolní Heršpice",
      "url": "https://www.sreality.cz/detail/pronajem/byt/2+kk/_/2417676364?noredirect=1",
      "listing_published_at": "2026-07-23",
      "listing_updated_at": "2026-07-23"
    },
    {
      "id": "sr_3239759948",
      "price": 25500,
      "lat": 49.1996592,
      "lng": 16.5961612,
      "sqm": 108,
      "rooms": 4,
      "property_type": "flat",
      "address": "Gorkého, Veveří, Brno",
      "zone": "Veveří",
      "url": "https://www.sreality.cz/detail/pronajem/byt/4+1/_/3239759948?noredirect=1",
      "listing_published_at": "2026-07-23",
      "listing_updated_at": "2026-07-23"
    },
    {
      "id": "sr_3188445260",
      "price": 12000,
      "lat": 49.166423379348,
      "lng": 16.622650621075,
      "sqm": 23,
      "rooms": 1,
      "property_type": "flat",
      "address": "Sokolova, Horní Heršpice, Brno",
      "zone": "Horní Heršpice",
      "url": "https://www.sreality.cz/detail/pronajem/byt/1+kk/_/3188445260?noredirect=1",
      "listing_published_at": "2026-07-22",
      "listing_updated_at": "2026-07-24"
    },
    {
      "id": "sr_939389004",
      "price": 19900,
      "lat": 49.2161073825868,
      "lng": 16.625253376028,
      "sqm": 70,
      "rooms": 2,
      "property_type": "flat",
      "address": "Hansmannova, Černá Pole, Brno",
      "zone": "Černá Pole",
      "url": "https://www.sreality.cz/detail/pronajem/byt/2+1/_/939389004?noredirect=1",
      "listing_published_at": "2026-06-19",
      "listing_updated_at": "2026-07-23"
    },
    {
      "id": "sr_3187732556",
      "price": 23900,
      "lat": 49.206015,
      "lng": 16.5968861111,
      "sqm": 63,
      "rooms": 2,
      "property_type": "flat",
      "address": "Kounicova, Veveří, Brno",
      "zone": "Veveří",
      "url": "https://www.sreality.cz/detail/pronajem/byt/2+1/_/3187732556?noredirect=1",
      "listing_published_at": "2026-06-25",
      "listing_updated_at": "2026-07-23"
    },
    {
      "id": "sr_1928196172",
      "price": 12990,
      "lat": 49.2063261754,
      "lng": 16.6284286556,
      "sqm": 23,
      "rooms": 1,
      "property_type": "flat",
      "address": "Husovická, Husovice, Brno",
      "zone": "Husovice",
      "url": "https://www.sreality.cz/detail/pronajem/byt/1+kk/_/1928196172?noredirect=1",
      "listing_published_at": "2026-06-19",
      "listing_updated_at": "2026-07-24"
    },
    {
      "id": "sr_1640685644",
      "price": 16000,
      "lat": 49.1796661474,
      "lng": 16.6714393983,
      "sqm": 42,
      "rooms": 1,
      "property_type": "flat",
      "address": "Kigginsova, Slatina, Brno",
      "zone": "Slatina",
      "url": "https://www.sreality.cz/detail/pronajem/byt/1+kk/_/1640685644?noredirect=1",
      "listing_published_at": "2026-07-03",
      "listing_updated_at": "2026-07-24"
    },
    {
      "id": "sr_1015078988",
      "price": 14990,
      "lat": 49.199921168918,
      "lng": 16.6150173025915,
      "sqm": 24,
      "rooms": 1,
      "property_type": "flat",
      "address": "Zábrdovice, Brno",
      "zone": "Zábrdovice",
      "url": "https://www.sreality.cz/detail/pronajem/byt/1+kk/_/1015078988?noredirect=1",
      "listing_published_at": "2026-07-16",
      "listing_updated_at": "2026-07-23"
    },
    {
      "id": "sr_3141193804",
      "price": 19000,
      "lat": 49.20990979637613,
      "lng": 16.677294805756098,
      "sqm": 70,
      "rooms": 3,
      "property_type": "flat",
      "address": "Elplova, Líšeň, Brno",
      "zone": "Líšeň",
      "url": "https://www.sreality.cz/detail/pronajem/byt/3+1/_/3141193804?noredirect=1",
      "listing_published_at": "2026-07-23",
      "listing_updated_at": "2026-07-23"
    },
    {
      "id": "sr_3189235788",
      "price": 20000,
      "lat": 49.1880120618853,
      "lng": 16.5956547426069,
      "sqm": 39,
      "rooms": 2,
      "property_type": "flat",
      "address": "Ypsilantiho, Staré Brno, Brno",
      "zone": "Staré Brno",
      "url": "https://www.sreality.cz/detail/pronajem/byt/2+kk/_/3189235788?noredirect=1",
      "listing_published_at": "2026-07-17",
      "listing_updated_at": "2026-07-23"
    },
    {
      "id": "sr_3357274188",
      "price": 22000,
      "lat": 49.228868872266,
      "lng": 16.6396019881226,
      "sqm": 53,
      "rooms": 2,
      "property_type": "flat",
      "address": "Brno-Maloměřice a Obřany, Brno",
      "zone": "Brno-Maloměřice a Obřany",
      "url": "https://www.sreality.cz/detail/pronajem/byt/2+kk/_/3357274188?noredirect=1",
      "listing_published_at": "2026-06-12",
      "listing_updated_at": "2026-07-23"
    },
    {
      "id": "sr_2268778572",
      "price": 23000,
      "lat": 49.2275528021448,
      "lng": 16.5893057664206,
      "sqm": 55,
      "rooms": 2,
      "property_type": "flat",
      "address": "Hlaváčkova, Královo Pole, Brno",
      "zone": "Královo Pole",
      "url": "https://www.sreality.cz/detail/pronajem/byt/2+1/_/2268778572?noredirect=1",
      "listing_published_at": "2026-07-23",
      "listing_updated_at": "2026-07-23"
    },
    {
      "id": "sr_3475689548",
      "price": 26900,
      "lat": 49.170908414528924,
      "lng": 16.56353789492539,
      "sqm": 70,
      "rooms": 3,
      "property_type": "flat",
      "address": "Vltavská, Starý Lískovec, Brno",
      "zone": "Starý Lískovec",
      "url": "https://www.sreality.cz/detail/pronajem/byt/3+1/_/3475689548?noredirect=1",
      "listing_published_at": "2026-07-23",
      "listing_updated_at": "2026-07-23"
    },
    {
      "id": "sr_860541004",
      "price": 17000,
      "lat": 49.2116305491838,
      "lng": 16.6255805961393,
      "sqm": 43,
      "rooms": 1,
      "property_type": "flat",
      "address": "Černá Pole, Brno",
      "zone": "Černá Pole",
      "url": "https://www.sreality.cz/detail/pronajem/byt/1+1/_/860541004?noredirect=1",
      "listing_published_at": "2026-07-23",
      "listing_updated_at": "2026-07-23"
    },
    {
      "id": "sr_4132098124",
      "price": 17500,
      "lat": 49.2123847301658,
      "lng": 16.6016021684346,
      "sqm": 63,
      "rooms": 2,
      "property_type": "flat",
      "address": "Štefánikova, Ponava, Brno",
      "zone": "Ponava",
      "url": "https://www.sreality.cz/detail/pronajem/byt/2+kk/_/4132098124?noredirect=1",
      "listing_published_at": "2026-07-23",
      "listing_updated_at": "2026-07-23"
    },
    {
      "id": "sr_3075133516",
      "price": 28000,
      "lat": 49.20688,
      "lng": 16.601512,
      "sqm": 93,
      "rooms": 3,
      "property_type": "flat",
      "address": "Kotlářská, Veveří, Brno",
      "zone": "Veveří",
      "url": "https://www.sreality.cz/detail/pronajem/byt/3+kk/_/3075133516?noredirect=1",
      "listing_published_at": "2026-07-23",
      "listing_updated_at": "2026-07-23"
    },
    {
      "id": "sr_1044897868",
      "price": 19000,
      "lat": 49.1808653415896,
      "lng": 16.6699452969052,
      "sqm": 52,
      "rooms": 1,
      "property_type": "flat",
      "address": "Kigginsova, Slatina, Brno",
      "zone": "Slatina",
      "url": "https://www.sreality.cz/detail/pronajem/byt/1+kk/_/1044897868?noredirect=1",
      "listing_published_at": "2026-07-17",
      "listing_updated_at": "2026-07-23"
    },
    {
      "id": "sr_1707405388",
      "price": 14000,
      "lat": 49.1904805556,
      "lng": 16.6266472222,
      "sqm": 28,
      "rooms": 1,
      "property_type": "flat",
      "address": "Křenová, Trnitá, Brno",
      "zone": "Trnitá",
      "url": "https://www.sreality.cz/detail/pronajem/byt/1+kk/_/1707405388?noredirect=1",
      "listing_published_at": "2026-07-01",
      "listing_updated_at": "2026-07-23"
    },
    {
      "id": "sr_3446329420",
      "price": 32500,
      "lat": 49.2348299731792,
      "lng": 16.6272980120173,
      "sqm": 115,
      "rooms": 4,
      "property_type": "flat",
      "address": "Majdalenky, Lesná, Brno",
      "zone": "Lesná",
      "url": "https://www.sreality.cz/detail/pronajem/byt/4+kk/_/3446329420?noredirect=1",
      "listing_published_at": "2026-07-23",
      "listing_updated_at": "2026-07-23"
    },
    {
      "id": "sr_1466617932",
      "price": 32000,
      "lat": 49.2019060534629,
      "lng": 16.607594003324,
      "sqm": 110,
      "rooms": 4,
      "property_type": "flat",
      "address": "Lidická, Černá Pole, Brno",
      "zone": "Černá Pole",
      "url": "https://www.sreality.cz/detail/pronajem/byt/4+kk/_/1466617932?noredirect=1",
      "listing_published_at": "2026-07-23",
      "listing_updated_at": "2026-07-23"
    },
    {
      "id": "sr_342544460",
      "price": 16000,
      "lat": 49.21981612298255,
      "lng": 16.49563652676235,
      "sqm": 49,
      "rooms": 2,
      "property_type": "flat",
      "address": "Lišejníková, Brno",
      "zone": "Lišejníková",
      "url": "https://www.sreality.cz/detail/pronajem/byt/2+kk/_/342544460?noredirect=1",
      "listing_published_at": "2026-07-23",
      "listing_updated_at": "2026-07-23"
    },
    {
      "id": "sr_3563769932",
      "price": 17000,
      "lat": 49.1712370122447,
      "lng": 16.5802942400875,
      "sqm": 49,
      "rooms": 2,
      "property_type": "flat",
      "address": "Uzbecká, Bohunice, Brno",
      "zone": "Bohunice",
      "url": "https://www.sreality.cz/detail/pronajem/byt/2+kk/_/3563769932?noredirect=1",
      "listing_published_at": "2026-07-23",
      "listing_updated_at": "2026-07-23"
    },
    {
      "id": "sr_2196627532",
      "price": 21900,
      "lat": 49.23067372009193,
      "lng": 16.648657524750856,
      "sqm": 67,
      "rooms": 3,
      "property_type": "flat",
      "address": "Fryčajova, Obřany, Brno",
      "zone": "Obřany",
      "url": "https://www.sreality.cz/detail/pronajem/byt/3+kk/_/2196627532?noredirect=1",
      "listing_published_at": "2026-07-10",
      "listing_updated_at": "2026-07-23"
    },
    {
      "id": "sr_2895892556",
      "price": 24900,
      "lat": 49.211525,
      "lng": 16.677286,
      "sqm": 74,
      "rooms": 3,
      "property_type": "flat",
      "address": "Horníkova, Líšeň, Brno",
      "zone": "Líšeň",
      "url": "https://www.sreality.cz/detail/pronajem/byt/3+1/_/2895892556?noredirect=1",
      "listing_published_at": "2026-07-23",
      "listing_updated_at": "2026-07-23"
    },
    {
      "id": "sr_2202460236",
      "price": 26500,
      "lat": 49.1982562774606,
      "lng": 16.5931376459635,
      "sqm": 72,
      "rooms": 2,
      "property_type": "flat",
      "address": "Údolní, Veveří, Brno",
      "zone": "Veveří",
      "url": "https://www.sreality.cz/detail/pronajem/byt/2+kk/_/2202460236?noredirect=1",
      "listing_published_at": "2026-07-18",
      "listing_updated_at": "2026-07-23"
    },
    {
      "id": "sr_3642089548",
      "price": 21000,
      "lat": 49.2321904630594,
      "lng": 16.5875613657434,
      "sqm": 57,
      "rooms": 2,
      "property_type": "flat",
      "address": "Mánesova, Královo Pole, Brno",
      "zone": "Královo Pole",
      "url": "https://www.sreality.cz/detail/pronajem/byt/2+1/_/3642089548?noredirect=1",
      "listing_published_at": "2026-07-20",
      "listing_updated_at": "2026-07-23"
    },
    {
      "id": "sr_3681275980",
      "price": 13900,
      "lat": 49.1908706042832,
      "lng": 16.6194670620117,
      "sqm": 37,
      "rooms": 1,
      "property_type": "flat",
      "address": "Štěpánská, Trnitá, Brno",
      "zone": "Trnitá",
      "url": "https://www.sreality.cz/detail/pronajem/byt/1+1/_/3681275980?noredirect=1",
      "listing_published_at": "2026-07-22",
      "listing_updated_at": "2026-07-23"
    },
    {
      "id": "sr_2339098700",
      "price": 13800,
      "lat": 49.1988604569044,
      "lng": 16.6225320438874,
      "sqm": 39,
      "rooms": 1,
      "property_type": "flat",
      "address": "Cejl, Zábrdovice, Brno",
      "zone": "Zábrdovice",
      "url": "https://www.sreality.cz/detail/pronajem/byt/1+kk/_/2339098700?noredirect=1",
      "listing_published_at": "2026-07-22",
      "listing_updated_at": "2026-07-23"
    },
    {
      "id": "sr_2979389516",
      "price": 18000,
      "lat": 49.2195509300798,
      "lng": 16.5597277316781,
      "sqm": 48,
      "rooms": 1,
      "property_type": "flat",
      "address": "Pastviny, Komín, Brno",
      "zone": "Komín",
      "url": "https://www.sreality.cz/detail/pronajem/byt/1+kk/_/2979389516?noredirect=1",
      "listing_published_at": "2026-07-21",
      "listing_updated_at": "2026-07-23"
    },
    {
      "id": "sr_3623718988",
      "price": 36000,
      "lat": 49.2028244554,
      "lng": 16.5955117829,
      "sqm": 136,
      "rooms": 3,
      "property_type": "flat",
      "address": "Jiráskova, Veveří, Brno",
      "zone": "Veveří",
      "url": "https://www.sreality.cz/detail/pronajem/byt/3+1/_/3623718988?noredirect=1",
      "listing_published_at": "2026-05-15",
      "listing_updated_at": "2026-07-23"
    },
    {
      "id": "sr_481488972",
      "price": 20580,
      "lat": 49.1964560726579,
      "lng": 16.6090721833642,
      "sqm": 51,
      "rooms": 2,
      "property_type": "flat",
      "address": "Běhounská, Brno-město, Brno",
      "zone": "Brno-město",
      "url": "https://www.sreality.cz/detail/pronajem/byt/2+kk/_/481488972?noredirect=1",
      "listing_published_at": "2026-06-24",
      "listing_updated_at": "2026-07-23"
    },
    {
      "id": "sr_3047678028",
      "price": 14000,
      "lat": 49.2116841,
      "lng": 16.6951853,
      "sqm": 32,
      "rooms": 1,
      "property_type": "flat",
      "address": "Markovičova, Líšeň, Brno",
      "zone": "Líšeň",
      "url": "https://www.sreality.cz/detail/pronajem/byt/1+kk/_/3047678028?noredirect=1",
      "listing_published_at": "2026-07-17",
      "listing_updated_at": "2026-07-23"
    },
    {
      "id": "sr_4138455116",
      "price": 22000,
      "lat": 49.2280606182,
      "lng": 16.6047731969,
      "sqm": 69,
      "rooms": 2,
      "property_type": "flat",
      "address": "Zaječí hora, Sadová, Brno",
      "zone": "Sadová",
      "url": "https://www.sreality.cz/detail/pronajem/byt/2+kk/_/4138455116?noredirect=1",
      "listing_published_at": "2026-07-22",
      "listing_updated_at": "2026-07-22"
    },
    {
      "id": "sr_1152110668",
      "price": 22900,
      "lat": 49.2019962502676,
      "lng": 16.5960483680706,
      "sqm": 56,
      "rooms": 2,
      "property_type": "flat",
      "address": "Jiráskova, Veveří, Brno",
      "zone": "Veveří",
      "url": "https://www.sreality.cz/detail/pronajem/byt/2+1/_/1152110668?noredirect=1",
      "listing_published_at": "2026-07-22",
      "listing_updated_at": "2026-07-22"
    },
    {
      "id": "sr_2665205836",
      "price": 18000,
      "lat": 49.20802613449828,
      "lng": 16.62381453029264,
      "sqm": 62,
      "rooms": 2,
      "property_type": "flat",
      "address": "Merhautova, Brno",
      "zone": "Merhautova",
      "url": "https://www.sreality.cz/detail/pronajem/byt/2+1/_/2665205836?noredirect=1",
      "listing_published_at": "2026-07-22",
      "listing_updated_at": "2026-07-22"
    },
    {
      "id": "sr_1260253260",
      "price": 15990,
      "lat": 49.1842469995,
      "lng": 16.5946848257,
      "sqm": 41,
      "rooms": 1,
      "property_type": "flat",
      "address": "Vídeňská, Štýřice, Brno",
      "zone": "Štýřice",
      "url": "https://www.sreality.cz/detail/pronajem/byt/1+kk/_/1260253260?noredirect=1",
      "listing_published_at": "2026-06-19",
      "listing_updated_at": "2026-07-24"
    },
    {
      "id": "sr_3990605900",
      "price": 14900,
      "lat": 49.1908,
      "lng": 16.6207008,
      "sqm": 44,
      "rooms": 1,
      "property_type": "flat",
      "address": "Cyrilská, Trnitá, Brno",
      "zone": "Trnitá",
      "url": "https://www.sreality.cz/detail/pronajem/byt/1+1/_/3990605900?noredirect=1",
      "listing_published_at": "2026-07-22",
      "listing_updated_at": "2026-07-23"
    },
    {
      "id": "sr_853266508",
      "price": 13490,
      "lat": 49.1901083313506,
      "lng": 16.6201570794641,
      "sqm": 47,
      "rooms": 1,
      "property_type": "flat",
      "address": "Cyrilská, Trnitá, Brno",
      "zone": "Trnitá",
      "url": "https://www.sreality.cz/detail/pronajem/byt/1+kk/_/853266508?noredirect=1",
      "listing_published_at": "2026-07-22",
      "listing_updated_at": "2026-07-23"
    },
    {
      "id": "sr_3604729932",
      "price": 17900,
      "lat": 49.20947222552576,
      "lng": 16.579060065071296,
      "sqm": 30,
      "rooms": 1,
      "property_type": "flat",
      "address": "Eliášova, Žabovřesky, Brno",
      "zone": "Žabovřesky",
      "url": "https://www.sreality.cz/detail/pronajem/byt/1+kk/_/3604729932?noredirect=1",
      "listing_published_at": "2026-07-22",
      "listing_updated_at": "2026-07-23"
    },
    {
      "id": "sr_2689593420",
      "price": 35000,
      "lat": 49.2019808404834,
      "lng": 16.5957850036572,
      "sqm": 148,
      "rooms": 4,
      "property_type": "flat",
      "address": "Jiráskova, Veveří, Brno",
      "zone": "Veveří",
      "url": "https://www.sreality.cz/detail/pronajem/byt/4+1/_/2689593420?noredirect=1",
      "listing_published_at": "2026-06-17",
      "listing_updated_at": "2026-07-22"
    },
    {
      "id": "sr_366727244",
      "price": 14863,
      "lat": 49.2002387225111,
      "lng": 16.6175195637268,
      "sqm": 35,
      "rooms": 1,
      "property_type": "flat",
      "address": "Stará, Zábrdovice, Brno",
      "zone": "Zábrdovice",
      "url": "https://www.sreality.cz/detail/pronajem/byt/1+kk/_/366727244?noredirect=1",
      "listing_published_at": "2026-07-22",
      "listing_updated_at": "2026-07-22"
    },
    {
      "id": "sr_1254871116",
      "price": 27500,
      "lat": 49.2002387225111,
      "lng": 16.6175195637268,
      "sqm": 71,
      "rooms": 3,
      "property_type": "flat",
      "address": "Stará, Zábrdovice, Brno",
      "zone": "Zábrdovice",
      "url": "https://www.sreality.cz/detail/pronajem/byt/3+kk/_/1254871116?noredirect=1",
      "listing_published_at": "2026-07-22",
      "listing_updated_at": "2026-07-22"
    },
    {
      "id": "sr_2597048396",
      "price": 15530,
      "lat": 49.1996388883815,
      "lng": 16.6200073575448,
      "sqm": 33,
      "rooms": 1,
      "property_type": "flat",
      "address": "Bratislavská, Zábrdovice, Brno",
      "zone": "Zábrdovice",
      "url": "https://www.sreality.cz/detail/pronajem/byt/1+1/_/2597048396?noredirect=1",
      "listing_published_at": "2026-07-22",
      "listing_updated_at": "2026-07-22"
    },
    {
      "id": "sr_4224438348",
      "price": 6000,
      "lat": 49.20161,
      "lng": 16.59876,
      "sqm": 49,
      "rooms": 1,
      "property_type": "room",
      "address": "Veveří, Veveří, Brno",
      "zone": "Veveří",
      "url": "https://www.sreality.cz/detail/pronajem/byt/Pokoj/_/4224438348?noredirect=1",
      "listing_published_at": "2026-07-22",
      "listing_updated_at": "2026-07-22"
    },
    {
      "id": "sr_3783516236",
      "price": 27000,
      "lat": 49.270479948826,
      "lng": 16.5941168382103,
      "sqm": 74,
      "rooms": 3,
      "property_type": "flat",
      "address": "Kleštínek, Jehnice, Brno",
      "zone": "Jehnice",
      "url": "https://www.sreality.cz/detail/pronajem/byt/3+kk/_/3783516236?noredirect=1",
      "listing_published_at": "2026-07-13",
      "listing_updated_at": "2026-07-22"
    },
    {
      "id": "sr_4257992780",
      "price": 22000,
      "lat": 49.2067105097419,
      "lng": 16.5815648610398,
      "sqm": 62,
      "rooms": 2,
      "property_type": "flat",
      "address": "Eleonory Voračické, Žabovřesky, Brno",
      "zone": "Žabovřesky",
      "url": "https://www.sreality.cz/detail/pronajem/byt/2+kk/_/4257992780?noredirect=1",
      "listing_published_at": "2026-07-22",
      "listing_updated_at": "2026-07-22"
    },
    {
      "id": "sr_1645380428",
      "price": 23000,
      "lat": 49.1953636605,
      "lng": 16.6107141987,
      "sqm": 35,
      "rooms": 2,
      "property_type": "flat",
      "address": "Kobližná, Brno-město, Brno",
      "zone": "Brno-město",
      "url": "https://www.sreality.cz/detail/pronajem/byt/2+kk/_/1645380428?noredirect=1",
      "listing_published_at": "2025-08-01",
      "listing_updated_at": "2026-07-22"
    },
    {
      "id": "sr_1774592844",
      "price": 36500,
      "lat": 49.196758,
      "lng": 16.613623,
      "sqm": 94,
      "rooms": 4,
      "property_type": "flat",
      "address": "Za Divadlem, Brno-město, Brno",
      "zone": "Brno-město",
      "url": "https://www.sreality.cz/detail/pronajem/byt/4+kk/_/1774592844?noredirect=1",
      "listing_published_at": "2025-11-28",
      "listing_updated_at": "2026-07-22"
    },
    {
      "id": "sr_312038220",
      "price": 22000,
      "lat": 49.1953636605,
      "lng": 16.6107141987,
      "sqm": 54,
      "rooms": 1,
      "property_type": "flat",
      "address": "Kobližná, Brno-město, Brno",
      "zone": "Brno-město",
      "url": "https://www.sreality.cz/detail/pronajem/byt/1+kk/_/312038220?noredirect=1",
      "listing_published_at": "2026-03-04",
      "listing_updated_at": "2026-07-22"
    },
    {
      "id": "sr_252203852",
      "price": 36000,
      "lat": 49.1909753647357,
      "lng": 16.6040129280014,
      "sqm": 94,
      "rooms": 3,
      "property_type": "flat",
      "address": "Kopečná, Staré Brno, Brno",
      "zone": "Staré Brno",
      "url": "https://www.sreality.cz/detail/pronajem/byt/3+kk/_/252203852?noredirect=1",
      "listing_published_at": "2026-03-04",
      "listing_updated_at": "2026-07-22"
    },
    {
      "id": "sr_937078860",
      "price": 38000,
      "lat": 49.2076419399123,
      "lng": 16.6132996208114,
      "sqm": 143,
      "rooms": 3,
      "property_type": "flat",
      "address": "Schodová, Černá Pole, Brno",
      "zone": "Černá Pole",
      "url": "https://www.sreality.cz/detail/pronajem/byt/3+1/_/937078860?noredirect=1",
      "listing_published_at": "2026-04-07",
      "listing_updated_at": "2026-07-22"
    },
    {
      "id": "sr_1874178124",
      "price": 20750,
      "lat": 49.2194558111724,
      "lng": 16.5768045828564,
      "sqm": 38,
      "rooms": 1,
      "property_type": "flat",
      "address": "Královopolská, Žabovřesky, Brno",
      "zone": "Žabovřesky",
      "url": "https://www.sreality.cz/detail/pronajem/byt/1+kk/_/1874178124?noredirect=1",
      "listing_published_at": "2026-04-20",
      "listing_updated_at": "2026-07-22"
    },
    {
      "id": "sr_934654028",
      "price": 21380,
      "lat": 49.2194558111724,
      "lng": 16.5768045828564,
      "sqm": 35,
      "rooms": 1,
      "property_type": "flat",
      "address": "Královopolská, Žabovřesky, Brno",
      "zone": "Žabovřesky",
      "url": "https://www.sreality.cz/detail/pronajem/byt/1+kk/_/934654028?noredirect=1",
      "listing_published_at": "2026-04-20",
      "listing_updated_at": "2026-07-22"
    },
    {
      "id": "sr_699773004",
      "price": 21920,
      "lat": 49.2194558111724,
      "lng": 16.5768045828564,
      "sqm": 42,
      "rooms": 1,
      "property_type": "flat",
      "address": "Královopolská, Žabovřesky, Brno",
      "zone": "Žabovřesky",
      "url": "https://www.sreality.cz/detail/pronajem/byt/1+kk/_/699773004?noredirect=1",
      "listing_published_at": "2026-04-20",
      "listing_updated_at": "2026-07-22"
    },
    {
      "id": "sr_716550220",
      "price": 21920,
      "lat": 49.2194558111724,
      "lng": 16.5768045828564,
      "sqm": 43,
      "rooms": 2,
      "property_type": "flat",
      "address": "Královopolská, Žabovřesky, Brno",
      "zone": "Žabovřesky",
      "url": "https://www.sreality.cz/detail/pronajem/byt/2+kk/_/716550220?noredirect=1",
      "listing_published_at": "2026-04-20",
      "listing_updated_at": "2026-07-22"
    },
    {
      "id": "sr_3150684236",
      "price": 26500,
      "lat": 49.1909753647357,
      "lng": 16.6040129280014,
      "sqm": 87,
      "rooms": 2,
      "property_type": "flat",
      "address": "Kopečná, Staré Brno, Brno",
      "zone": "Staré Brno",
      "url": "https://www.sreality.cz/detail/pronajem/byt/2+kk/_/3150684236?noredirect=1",
      "listing_published_at": "2026-04-22",
      "listing_updated_at": "2026-07-22"
    },
    {
      "id": "sr_1191354444",
      "price": 18500,
      "lat": 49.1957711807264,
      "lng": 16.5769440556813,
      "sqm": 31,
      "rooms": 1,
      "property_type": "flat",
      "address": "Neumannova, Brno-střed, Brno",
      "zone": "Brno-střed",
      "url": "https://www.sreality.cz/detail/pronajem/byt/1+kk/_/1191354444?noredirect=1",
      "listing_published_at": "2026-04-30",
      "listing_updated_at": "2026-07-22"
    },
    {
      "id": "sr_2974388300",
      "price": 28000,
      "lat": 49.1953636605,
      "lng": 16.6107141987,
      "sqm": 53,
      "rooms": 1,
      "property_type": "flat",
      "address": "Kobližná, Brno-město, Brno",
      "zone": "Brno-město",
      "url": "https://www.sreality.cz/detail/pronajem/byt/1+kk/_/2974388300?noredirect=1",
      "listing_published_at": "2026-05-11",
      "listing_updated_at": "2026-07-22"
    },
    {
      "id": "sr_578719820",
      "price": 18700,
      "lat": 49.2160361148471,
      "lng": 16.6020928256553,
      "sqm": 36,
      "rooms": 1,
      "property_type": "flat",
      "address": "Reissigova, Ponava, Brno",
      "zone": "Ponava",
      "url": "https://www.sreality.cz/detail/pronajem/byt/1+kk/_/578719820?noredirect=1",
      "listing_published_at": "2026-05-13",
      "listing_updated_at": "2026-07-22"
    },
    {
      "id": "sr_3226046540",
      "price": 20000,
      "lat": 49.1946199775826,
      "lng": 16.6109122360726,
      "sqm": 28,
      "rooms": 1,
      "property_type": "flat",
      "address": "Jánská, Brno-město, Brno",
      "zone": "Brno-město",
      "url": "https://www.sreality.cz/detail/pronajem/byt/1+kk/_/3226046540?noredirect=1",
      "listing_published_at": "2026-05-11",
      "listing_updated_at": "2026-07-22"
    },
    {
      "id": "sr_1223327820",
      "price": 31640,
      "lat": 49.2194558111724,
      "lng": 16.5768045828564,
      "sqm": 43,
      "rooms": 2,
      "property_type": "flat",
      "address": "Královopolská, Žabovřesky, Brno",
      "zone": "Žabovřesky",
      "url": "https://www.sreality.cz/detail/pronajem/byt/2+kk/_/1223327820?noredirect=1",
      "listing_published_at": "2026-05-27",
      "listing_updated_at": "2026-07-22"
    },
    {
      "id": "sr_2565505100",
      "price": 32720,
      "lat": 49.2194558111724,
      "lng": 16.5768045828564,
      "sqm": 48,
      "rooms": 2,
      "property_type": "flat",
      "address": "Královopolská, Žabovřesky, Brno",
      "zone": "Žabovřesky",
      "url": "https://www.sreality.cz/detail/pronajem/byt/2+kk/_/2565505100?noredirect=1",
      "listing_published_at": "2026-05-27",
      "listing_updated_at": "2026-07-22"
    },
    {
      "id": "sr_3466518604",
      "price": 28000,
      "lat": 49.1962951776602,
      "lng": 16.6070934536301,
      "sqm": 69,
      "rooms": 2,
      "property_type": "flat",
      "address": "Jakubská, Brno-město, Brno",
      "zone": "Brno-město",
      "url": "https://www.sreality.cz/detail/pronajem/byt/2+kk/_/3466518604?noredirect=1",
      "listing_published_at": "2026-07-09",
      "listing_updated_at": "2026-07-22"
    },
    {
      "id": "sr_4157329484",
      "price": 35000,
      "lat": 49.2022774664,
      "lng": 16.5951236805,
      "sqm": 136,
      "rooms": 3,
      "property_type": "flat",
      "address": "Jana Uhra, Veveří, Brno",
      "zone": "Veveří",
      "url": "https://www.sreality.cz/detail/pronajem/byt/3+kk/_/4157329484?noredirect=1",
      "listing_published_at": "2026-07-22",
      "listing_updated_at": "2026-07-23"
    },
    {
      "id": "sr_3543105612",
      "price": 16915,
      "lat": 49.1993009182,
      "lng": 16.6240661139,
      "sqm": 38,
      "rooms": 1,
      "property_type": "flat",
      "address": "Cejl, Zábrdovice, Brno",
      "zone": "Zábrdovice",
      "url": "https://www.sreality.cz/detail/pronajem/byt/1+kk/_/3543105612?noredirect=1",
      "listing_published_at": "2026-05-30",
      "listing_updated_at": "2026-07-22"
    },
    {
      "id": "sr_3244810316",
      "price": 17700,
      "lat": 49.1730586608,
      "lng": 16.5947421332,
      "sqm": 30,
      "rooms": 1,
      "property_type": "flat",
      "address": "Sovinec, Štýřice, Brno",
      "zone": "Štýřice",
      "url": "https://www.sreality.cz/detail/pronajem/byt/1+kk/_/3244810316?noredirect=1",
      "listing_published_at": "2026-07-16",
      "listing_updated_at": "2026-07-22"
    },
    {
      "id": "sr_2583027788",
      "price": 15990,
      "lat": 49.2132487002,
      "lng": 16.6253360888,
      "sqm": 39,
      "rooms": 1,
      "property_type": "flat",
      "address": "Merhautova, Černá Pole, Brno",
      "zone": "Černá Pole",
      "url": "https://www.sreality.cz/detail/pronajem/byt/1+1/_/2583027788?noredirect=1",
      "listing_published_at": "2026-07-20",
      "listing_updated_at": "2026-07-22"
    },
    {
      "id": "sr_3227153228",
      "price": 8000,
      "lat": 49.19391058179043,
      "lng": 16.606284550262618,
      "sqm": 15,
      "rooms": 1,
      "property_type": "room",
      "address": "Dominikánské náměstí, Brno-město, Brno",
      "zone": "Brno-město",
      "url": "https://www.sreality.cz/detail/pronajem/byt/Pokoj/_/3227153228?noredirect=1",
      "listing_published_at": "2026-01-24",
      "listing_updated_at": "2026-07-23"
    },
    {
      "id": "sr_2755702860",
      "price": 25000,
      "lat": 49.2126014112,
      "lng": 16.6050952513,
      "sqm": 40,
      "rooms": 2,
      "property_type": "flat",
      "address": "Střední, Ponava, Brno",
      "zone": "Ponava",
      "url": "https://www.sreality.cz/detail/pronajem/byt/2+kk/_/2755702860?noredirect=1",
      "listing_published_at": "2026-04-16",
      "listing_updated_at": "2026-07-23"
    },
    {
      "id": "sr_1818116940",
      "price": 48000,
      "lat": 49.2301197896217,
      "lng": 16.6076557117481,
      "sqm": 120,
      "rooms": 4,
      "property_type": "flat",
      "address": "Kumpoštova, Sadová, Brno",
      "zone": "Sadová",
      "url": "https://www.sreality.cz/detail/pronajem/byt/4+kk/_/1818116940?noredirect=1",
      "listing_published_at": "2026-03-23",
      "listing_updated_at": "2026-07-22"
    },
    {
      "id": "sr_1594315596",
      "price": 37000,
      "lat": 49.1917750457794,
      "lng": 16.6059799327915,
      "sqm": 102,
      "rooms": 3,
      "property_type": "flat",
      "address": "Biskupská, Brno-město, Brno",
      "zone": "Brno-město",
      "url": "https://www.sreality.cz/detail/pronajem/byt/3+1/_/1594315596?noredirect=1",
      "listing_published_at": "2026-03-13",
      "listing_updated_at": "2026-07-22"
    },
    {
      "id": "sr_2182840396",
      "price": 49000,
      "lat": 49.1756520597669,
      "lng": 16.5670232754165,
      "sqm": 100,
      "rooms": 4,
      "property_type": "flat",
      "address": "Netroufalky, Bohunice, Brno",
      "zone": "Bohunice",
      "url": "https://www.sreality.cz/detail/pronajem/byt/4+kk/_/2182840396?noredirect=1",
      "listing_published_at": "2026-05-26",
      "listing_updated_at": "2026-07-22"
    },
    {
      "id": "sr_4216954956",
      "price": 37500,
      "lat": 49.2198014116911,
      "lng": 16.5385623884176,
      "sqm": 51,
      "rooms": 2,
      "property_type": "flat",
      "address": "Bystrcká, Komín, Brno",
      "zone": "Komín",
      "url": "https://www.sreality.cz/detail/pronajem/byt/2+kk/_/4216954956?noredirect=1",
      "listing_published_at": "2026-04-23",
      "listing_updated_at": "2026-07-22"
    },
    {
      "id": "sr_3308449868",
      "price": 28000,
      "lat": 49.2040540612208,
      "lng": 16.616026782352,
      "sqm": 57,
      "rooms": 2,
      "property_type": "flat",
      "address": "Kunzova, Černá Pole, Brno",
      "zone": "Černá Pole",
      "url": "https://www.sreality.cz/detail/pronajem/byt/2+kk/_/3308449868?noredirect=1",
      "listing_published_at": "2026-06-23",
      "listing_updated_at": "2026-07-22"
    },
    {
      "id": "sr_3528126540",
      "price": 33500,
      "lat": 49.2029988645,
      "lng": 16.6070015281,
      "sqm": 54,
      "rooms": 2,
      "property_type": "flat",
      "address": "Lidická, Veveří, Brno",
      "zone": "Veveří",
      "url": "https://www.sreality.cz/detail/pronajem/byt/2+kk/_/3528126540?noredirect=1",
      "listing_published_at": "2026-06-13",
      "listing_updated_at": "2026-07-22"
    },
    {
      "id": "sr_837537868",
      "price": 14500,
      "lat": 49.19495513434686,
      "lng": 16.617496765206763,
      "sqm": 51,
      "rooms": 1,
      "property_type": "flat",
      "address": "Vlhká, Zábrdovice, Brno",
      "zone": "Zábrdovice",
      "url": "https://www.sreality.cz/detail/pronajem/byt/1+1/_/837537868?noredirect=1",
      "listing_published_at": "2026-07-22",
      "listing_updated_at": "2026-07-22"
    },
    {
      "id": "sr_567664716",
      "price": 22000,
      "lat": 49.2165449957217,
      "lng": 16.4966613840206,
      "sqm": 55,
      "rooms": 2,
      "property_type": "flat",
      "address": "Chudčická, Žebětín, Brno",
      "zone": "Žebětín",
      "url": "https://www.sreality.cz/detail/pronajem/byt/2+kk/_/567664716?noredirect=1",
      "listing_published_at": "2026-07-21",
      "listing_updated_at": "2026-07-22"
    },
    {
      "id": "sr_1054007372",
      "price": 16900,
      "lat": 49.1659301,
      "lng": 16.6213202,
      "sqm": 38,
      "rooms": 1,
      "property_type": "flat",
      "address": "Jižní, Horní Heršpice, Brno",
      "zone": "Horní Heršpice",
      "url": "https://www.sreality.cz/detail/pronajem/byt/1+kk/_/1054007372?noredirect=1",
      "listing_published_at": "2026-07-14",
      "listing_updated_at": "2026-07-22"
    },
    {
      "id": "sr_1520099404",
      "price": 39900,
      "lat": 49.1992635,
      "lng": 16.6463747,
      "sqm": 194,
      "rooms": 3,
      "property_type": "flat",
      "address": "Hrozňatova, Židenice, Brno",
      "zone": "Židenice",
      "url": "https://www.sreality.cz/detail/pronajem/byt/3+kk/_/1520099404?noredirect=1",
      "listing_published_at": "2026-07-03",
      "listing_updated_at": "2026-07-22"
    },
    {
      "id": "sr_2550911052",
      "price": 22000,
      "lat": 49.2064263745797,
      "lng": 16.6003899377335,
      "sqm": 43,
      "rooms": 2,
      "property_type": "flat",
      "address": "Botanická, Veveří, Brno",
      "zone": "Veveří",
      "url": "https://www.sreality.cz/detail/pronajem/byt/2+kk/_/2550911052?noredirect=1",
      "listing_published_at": "2026-07-22",
      "listing_updated_at": "2026-07-23"
    },
    {
      "id": "sr_151769164",
      "price": 14500,
      "lat": 49.2002000053941,
      "lng": 16.6160565846595,
      "sqm": 42,
      "rooms": 1,
      "property_type": "flat",
      "address": "Příční, Zábrdovice, Brno",
      "zone": "Zábrdovice",
      "url": "https://www.sreality.cz/detail/pronajem/byt/1+kk/_/151769164?noredirect=1",
      "listing_published_at": "2026-07-22",
      "listing_updated_at": "2026-07-22"
    },
    {
      "id": "sr_1393283148",
      "price": 13000,
      "lat": 49.2102784646,
      "lng": 16.6594823851,
      "sqm": 32,
      "rooms": 1,
      "property_type": "flat",
      "address": "Vlčnovská, Židenice, Brno",
      "zone": "Židenice",
      "url": "https://www.sreality.cz/detail/pronajem/byt/1+kk/_/1393283148?noredirect=1",
      "listing_published_at": "2026-07-22",
      "listing_updated_at": "2026-07-22"
    },
    {
      "id": "sr_1896599628",
      "price": 22000,
      "lat": 49.1693739353396,
      "lng": 16.5593102110981,
      "sqm": 64,
      "rooms": 3,
      "property_type": "flat",
      "address": "Dunajská, Starý Lískovec, Brno",
      "zone": "Starý Lískovec",
      "url": "https://www.sreality.cz/detail/pronajem/byt/3+1/_/1896599628?noredirect=1",
      "listing_published_at": "2026-07-22",
      "listing_updated_at": "2026-07-22"
    },
    {
      "id": "sr_3009933900",
      "price": 28000,
      "lat": 49.2065607038458,
      "lng": 16.5996006101615,
      "sqm": 41,
      "rooms": 1,
      "property_type": "flat",
      "address": "Kotlářská, Veveří, Brno",
      "zone": "Veveří",
      "url": "https://www.sreality.cz/detail/pronajem/byt/1+1/_/3009933900?noredirect=1",
      "listing_published_at": "2024-10-09",
      "listing_updated_at": "2026-07-22"
    },
    {
      "id": "sr_3595006796",
      "price": 24000,
      "lat": 49.1988604569044,
      "lng": 16.6225320438874,
      "sqm": 50,
      "rooms": 2,
      "property_type": "flat",
      "address": "Cejl, Zábrdovice, Brno",
      "zone": "Zábrdovice",
      "url": "https://www.sreality.cz/detail/pronajem/byt/2+kk/_/3595006796?noredirect=1",
      "listing_published_at": "2026-02-06",
      "listing_updated_at": "2026-07-22"
    },
    {
      "id": "sr_1104842828",
      "price": 28000,
      "lat": 49.1988604569044,
      "lng": 16.6225320438874,
      "sqm": 57,
      "rooms": 2,
      "property_type": "flat",
      "address": "Cejl, Zábrdovice, Brno",
      "zone": "Zábrdovice",
      "url": "https://www.sreality.cz/detail/pronajem/byt/2+kk/_/1104842828?noredirect=1",
      "listing_published_at": "2026-05-11",
      "listing_updated_at": "2026-07-22"
    },
    {
      "id": "sr_756125772",
      "price": 36000,
      "lat": 49.1909753647357,
      "lng": 16.6040129280014,
      "sqm": 94,
      "rooms": 3,
      "property_type": "flat",
      "address": "Kopečná, Staré Brno, Brno",
      "zone": "Staré Brno",
      "url": "https://www.sreality.cz/detail/pronajem/byt/3+kk/_/756125772?noredirect=1",
      "listing_published_at": "2026-05-19",
      "listing_updated_at": "2026-07-22"
    },
    {
      "id": "sr_80605260",
      "price": 33000,
      "lat": 49.1944617580186,
      "lng": 16.6180512451794,
      "sqm": 83,
      "rooms": 2,
      "property_type": "flat",
      "address": "Vlhká, Brno-střed, Brno",
      "zone": "Brno-střed",
      "url": "https://www.sreality.cz/detail/pronajem/byt/2+1/_/80605260?noredirect=1",
      "listing_published_at": "2026-06-19",
      "listing_updated_at": "2026-07-22"
    },
    {
      "id": "sr_1204678732",
      "price": 28000,
      "lat": 49.1944617580186,
      "lng": 16.6180512451794,
      "sqm": 46,
      "rooms": 1,
      "property_type": "flat",
      "address": "Vlhká, Brno-střed, Brno",
      "zone": "Brno-střed",
      "url": "https://www.sreality.cz/detail/pronajem/byt/1+kk/_/1204678732?noredirect=1",
      "listing_published_at": "2026-06-19",
      "listing_updated_at": "2026-07-22"
    },
    {
      "id": "sr_30273612",
      "price": 24000,
      "lat": 49.1944617580186,
      "lng": 16.6180512451794,
      "sqm": 30,
      "rooms": 1,
      "property_type": "flat",
      "address": "Vlhká, Brno-střed, Brno",
      "zone": "Brno-střed",
      "url": "https://www.sreality.cz/detail/pronajem/byt/1+kk/_/30273612?noredirect=1",
      "listing_published_at": "2026-06-19",
      "listing_updated_at": "2026-07-22"
    },
    {
      "id": "sr_47050828",
      "price": 29000,
      "lat": 49.1988604569044,
      "lng": 16.6225320438874,
      "sqm": 29,
      "rooms": 1,
      "property_type": "flat",
      "address": "Cejl, Zábrdovice, Brno",
      "zone": "Zábrdovice",
      "url": "https://www.sreality.cz/detail/pronajem/byt/1+kk/_/47050828?noredirect=1",
      "listing_published_at": "2026-06-19",
      "listing_updated_at": "2026-07-22"
    },
    {
      "id": "sr_2110648396",
      "price": 27000,
      "lat": 49.1988604569044,
      "lng": 16.6225320438874,
      "sqm": 38,
      "rooms": 1,
      "property_type": "flat",
      "address": "Cejl, Zábrdovice, Brno",
      "zone": "Zábrdovice",
      "url": "https://www.sreality.cz/detail/pronajem/byt/1+kk/_/2110648396?noredirect=1",
      "listing_published_at": "2026-06-19",
      "listing_updated_at": "2026-07-22"
    },
    {
      "id": "sr_2009325644",
      "price": 28000,
      "lat": 49.1962951776602,
      "lng": 16.6070934536301,
      "sqm": 67,
      "rooms": 2,
      "property_type": "flat",
      "address": "Jakubská, Brno-město, Brno",
      "zone": "Brno-město",
      "url": "https://www.sreality.cz/detail/pronajem/byt/2+kk/_/2009325644?noredirect=1",
      "listing_published_at": "2026-07-13",
      "listing_updated_at": "2026-07-22"
    },
    {
      "id": "sr_4056145996",
      "price": 28000,
      "lat": 49.1962951776602,
      "lng": 16.6070934536301,
      "sqm": 69,
      "rooms": 2,
      "property_type": "flat",
      "address": "Jakubská, Brno-město, Brno",
      "zone": "Brno-město",
      "url": "https://www.sreality.cz/detail/pronajem/byt/2+kk/_/4056145996?noredirect=1",
      "listing_published_at": "2026-07-13",
      "listing_updated_at": "2026-07-22"
    },
    {
      "id": "sr_2210652236",
      "price": 31900,
      "lat": 49.1962951776602,
      "lng": 16.6070934536301,
      "sqm": 82,
      "rooms": 3,
      "property_type": "flat",
      "address": "Jakubská, Brno-město, Brno",
      "zone": "Brno-město",
      "url": "https://www.sreality.cz/detail/pronajem/byt/3+kk/_/2210652236?noredirect=1",
      "listing_published_at": "2026-07-13",
      "listing_updated_at": "2026-07-22"
    },
    {
      "id": "sr_3162628172",
      "price": 28000,
      "lat": 49.1962951776602,
      "lng": 16.6070934536301,
      "sqm": 69,
      "rooms": 2,
      "property_type": "flat",
      "address": "Jakubská, Brno-město, Brno",
      "zone": "Brno-město",
      "url": "https://www.sreality.cz/detail/pronajem/byt/2+kk/_/3162628172?noredirect=1",
      "listing_published_at": "2026-07-15",
      "listing_updated_at": "2026-07-22"
    },
    {
      "id": "sr_2418704460",
      "price": 25000,
      "lat": 49.1931823805684,
      "lng": 16.6087800874346,
      "sqm": 83,
      "rooms": 2,
      "property_type": "flat",
      "address": "Radnická, Brno-město, Brno",
      "zone": "Brno-město",
      "url": "https://www.sreality.cz/detail/pronajem/byt/2+kk/_/2418704460?noredirect=1",
      "listing_published_at": "2026-05-27",
      "listing_updated_at": "2026-07-22"
    },
    {
      "id": "sr_1675067468",
      "price": 21000,
      "lat": 49.1969048252,
      "lng": 16.6153288829,
      "sqm": 43,
      "rooms": 1,
      "property_type": "flat",
      "address": "Koliště, Zábrdovice, Brno",
      "zone": "Zábrdovice",
      "url": "https://www.sreality.cz/detail/pronajem/byt/1+kk/_/1675067468?noredirect=1",
      "listing_published_at": "2026-06-09",
      "listing_updated_at": "2026-07-22"
    },
    {
      "id": "sr_1258479692",
      "price": 23100,
      "lat": 49.1967878654066,
      "lng": 16.608378845051,
      "sqm": 36,
      "rooms": 2,
      "property_type": "flat",
      "address": "Jakubské náměstí, Brno-město, Brno",
      "zone": "Brno-město",
      "url": "https://www.sreality.cz/detail/pronajem/byt/2+kk/_/1258479692?noredirect=1",
      "listing_published_at": "2026-07-14",
      "listing_updated_at": "2026-07-22"
    },
    {
      "id": "sr_640122956",
      "price": 18664,
      "lat": 49.1967878654066,
      "lng": 16.608378845051,
      "sqm": 28,
      "rooms": 1,
      "property_type": "flat",
      "address": "Jakubské náměstí, Brno-město, Brno",
      "zone": "Brno-město",
      "url": "https://www.sreality.cz/detail/pronajem/byt/1+kk/_/640122956?noredirect=1",
      "listing_published_at": "2026-06-08",
      "listing_updated_at": "2026-07-22"
    },
    {
      "id": "sr_3996897356",
      "price": 12990,
      "lat": 49.1904805556,
      "lng": 16.6266472222,
      "sqm": 20,
      "rooms": 1,
      "property_type": "flat",
      "address": "Křenová, Brno",
      "zone": "Křenová",
      "url": "https://www.sreality.cz/detail/pronajem/byt/1+kk/_/3996897356?noredirect=1",
      "listing_published_at": "2026-07-22",
      "listing_updated_at": "2026-07-22"
    },
    {
      "id": "sr_693130060",
      "price": 15100,
      "lat": 49.1802214815,
      "lng": 16.6192313044,
      "sqm": 33,
      "rooms": 1,
      "property_type": "flat",
      "address": "Komárovská, Komárov, Brno",
      "zone": "Komárov",
      "url": "https://www.sreality.cz/detail/pronajem/byt/1+kk/_/693130060?noredirect=1",
      "listing_published_at": "2026-03-12",
      "listing_updated_at": "2026-07-22"
    },
    {
      "id": "sr_371581004",
      "price": 19000,
      "lat": 49.1806772845313,
      "lng": 16.5968222894741,
      "sqm": 47,
      "rooms": 2,
      "property_type": "flat",
      "address": "Gallašova, Štýřice, Brno",
      "zone": "Štýřice",
      "url": "https://www.sreality.cz/detail/pronajem/byt/2+kk/_/371581004?noredirect=1",
      "listing_published_at": "2026-07-20",
      "listing_updated_at": "2026-07-22"
    },
    {
      "id": "sr_2090004556",
      "price": 22000,
      "lat": 49.1996,
      "lng": 16.619606,
      "sqm": 40,
      "rooms": 2,
      "property_type": "flat",
      "address": "Bratislavská, Zábrdovice, Brno",
      "zone": "Zábrdovice",
      "url": "https://www.sreality.cz/detail/pronajem/byt/2+kk/_/2090004556?noredirect=1",
      "listing_published_at": "2026-06-24",
      "listing_updated_at": "2026-07-22"
    },
    {
      "id": "sr_1397678156",
      "price": 27990,
      "lat": 49.2126014112,
      "lng": 16.6050952513,
      "sqm": 56,
      "rooms": 2,
      "property_type": "flat",
      "address": "Střední, Ponava, Brno",
      "zone": "Ponava",
      "url": "https://www.sreality.cz/detail/pronajem/byt/2+kk/_/1397678156?noredirect=1",
      "listing_published_at": "2026-07-08",
      "listing_updated_at": "2026-07-22"
    },
    {
      "id": "sr_2796216396",
      "price": 26000,
      "lat": 49.1512319129435,
      "lng": 16.6622972369893,
      "sqm": 62,
      "rooms": 2,
      "property_type": "flat",
      "address": "Měšťanská, Brněnské Ivanovice, Brno",
      "zone": "Brněnské Ivanovice",
      "url": "https://www.sreality.cz/detail/pronajem/byt/2+kk/_/2796216396?noredirect=1",
      "listing_published_at": "2026-07-03",
      "listing_updated_at": "2026-07-22"
    },
    {
      "id": "sr_2935287884",
      "price": 20000,
      "lat": 49.2614621729596,
      "lng": 16.586354916315,
      "sqm": 55,
      "rooms": 2,
      "property_type": "flat",
      "address": "Brigádnická, Mokrá Hora, Brno",
      "zone": "Mokrá Hora",
      "url": "https://www.sreality.cz/detail/pronajem/byt/2+1/_/2935287884?noredirect=1",
      "listing_published_at": "2026-07-01",
      "listing_updated_at": "2026-07-22"
    },
    {
      "id": "sr_2153500748",
      "price": 20000,
      "lat": 49.2476820015,
      "lng": 16.572380043,
      "sqm": 60,
      "rooms": 2,
      "property_type": "flat",
      "address": "Duhová, Řečkovice, Brno",
      "zone": "Řečkovice",
      "url": "https://www.sreality.cz/detail/pronajem/byt/2+kk/_/2153500748?noredirect=1",
      "listing_published_at": "2026-07-22",
      "listing_updated_at": "2026-07-22"
    },
    {
      "id": "sr_2692976716",
      "price": 13900,
      "lat": 49.19447159848402,
      "lng": 16.61780732376833,
      "sqm": 22,
      "rooms": 1,
      "property_type": "flat",
      "address": "Vlhká, Zábrdovice, Brno",
      "zone": "Zábrdovice",
      "url": "https://www.sreality.cz/detail/pronajem/byt/1+kk/_/2692976716?noredirect=1",
      "listing_published_at": "2026-05-18",
      "listing_updated_at": "2026-07-22"
    },
    {
      "id": "sr_3473272908",
      "price": 28000,
      "lat": 49.2228173516396,
      "lng": 16.5979607475829,
      "sqm": 48,
      "rooms": 2,
      "property_type": "flat",
      "address": "Rostislavovo náměstí, Královo Pole, Brno",
      "zone": "Královo Pole",
      "url": "https://www.sreality.cz/detail/pronajem/byt/2+kk/_/3473272908?noredirect=1",
      "listing_published_at": "2026-06-30",
      "listing_updated_at": "2026-07-22"
    },
    {
      "id": "sr_2163273804",
      "price": 23900,
      "lat": 49.206015,
      "lng": 16.5968861111,
      "sqm": 63,
      "rooms": 2,
      "property_type": "flat",
      "address": "Kounicova, Veveří, Brno",
      "zone": "Veveří",
      "url": "https://www.sreality.cz/detail/pronajem/byt/2+1/_/2163273804?noredirect=1",
      "listing_published_at": "2026-06-25",
      "listing_updated_at": "2026-07-22"
    },
    {
      "id": "sr_2698833996",
      "price": 26000,
      "lat": 49.2116122581,
      "lng": 16.692062375,
      "sqm": 61,
      "rooms": 3,
      "property_type": "flat",
      "address": "Chmelnice, Líšeň, Brno",
      "zone": "Líšeň",
      "url": "https://www.sreality.cz/detail/pronajem/byt/3+kk/_/2698833996?noredirect=1",
      "listing_published_at": "2026-06-22",
      "listing_updated_at": "2026-07-23"
    },
    {
      "id": "sr_1467732044",
      "price": 12800,
      "lat": 49.22168957468279,
      "lng": 16.53073120883126,
      "sqm": 28,
      "rooms": 1,
      "property_type": "flat",
      "address": "Opálkova, Bystrc, Brno",
      "zone": "Bystrc",
      "url": "https://www.sreality.cz/detail/pronajem/byt/1+kk/_/1467732044?noredirect=1",
      "listing_published_at": "2026-07-22",
      "listing_updated_at": "2026-07-22"
    },
    {
      "id": "sr_2959855692",
      "price": 15000,
      "lat": 49.2355217125,
      "lng": 16.6434369083,
      "sqm": 52,
      "rooms": 2,
      "property_type": "flat",
      "address": "Fryčajova, Obřany, Brno",
      "zone": "Obřany",
      "url": "https://www.sreality.cz/detail/pronajem/byt/2+1/_/2959855692?noredirect=1",
      "listing_published_at": "2026-07-22",
      "listing_updated_at": "2026-07-22"
    },
    {
      "id": "sr_1147134028",
      "price": 26000,
      "lat": 49.1933654900962,
      "lng": 16.6489376559493,
      "sqm": 54,
      "rooms": 2,
      "property_type": "flat",
      "address": "Dykova, Židenice, Brno",
      "zone": "Židenice",
      "url": "https://www.sreality.cz/detail/pronajem/byt/2+kk/_/1147134028?noredirect=1",
      "listing_published_at": "2026-07-07",
      "listing_updated_at": "2026-07-22"
    },
    {
      "id": "sr_3482640460",
      "price": 21000,
      "lat": 49.212227,
      "lng": 16.634899,
      "sqm": 51,
      "rooms": 2,
      "property_type": "flat",
      "address": "Dukelská třída, Husovice, Brno",
      "zone": "Husovice",
      "url": "https://www.sreality.cz/detail/pronajem/byt/2+kk/_/3482640460?noredirect=1",
      "listing_published_at": "2026-07-22",
      "listing_updated_at": "2026-07-22"
    },
    {
      "id": "sr_3985956940",
      "price": 16000,
      "lat": 49.1765559183085,
      "lng": 16.5547108944527,
      "sqm": 47,
      "rooms": 2,
      "property_type": "flat",
      "address": "Oblá, Nový Lískovec, Brno",
      "zone": "Nový Lískovec",
      "url": "https://www.sreality.cz/detail/pronajem/byt/2+kk/_/3985956940?noredirect=1",
      "listing_published_at": "2026-07-22",
      "listing_updated_at": "2026-07-22"
    },
    {
      "id": "sr_2425675852",
      "price": 24500,
      "lat": 49.21705638888,
      "lng": 16.60274888888,
      "sqm": 67,
      "rooms": 2,
      "property_type": "flat",
      "address": "Střední, Ponava, Brno",
      "zone": "Ponava",
      "url": "https://www.sreality.cz/detail/pronajem/byt/2+kk/_/2425675852?noredirect=1",
      "listing_published_at": "2026-07-22",
      "listing_updated_at": "2026-07-22"
    },
    {
      "id": "sr_2248663116",
      "price": 18500,
      "lat": 49.2124873423162,
      "lng": 16.6313069312054,
      "sqm": 40,
      "rooms": 2,
      "property_type": "flat",
      "address": "Husovice, Brno",
      "zone": "Husovice",
      "url": "https://www.sreality.cz/detail/pronajem/byt/2+kk/_/2248663116?noredirect=1",
      "listing_published_at": "2026-07-17",
      "listing_updated_at": "2026-07-22"
    },
    {
      "id": "sr_3559710796",
      "price": 15000,
      "lat": 49.23781108240705,
      "lng": 16.57931444878018,
      "sqm": 42,
      "rooms": 2,
      "property_type": "flat",
      "address": "Hudcova, Brno",
      "zone": "Hudcova",
      "url": "https://www.sreality.cz/detail/pronajem/byt/2+kk/_/3559710796?noredirect=1",
      "listing_published_at": "2026-07-11",
      "listing_updated_at": "2026-07-22"
    },
    {
      "id": "sr_2576453708",
      "price": 16500,
      "lat": 49.1909753647357,
      "lng": 16.6040129280014,
      "sqm": 30,
      "rooms": 1,
      "property_type": "flat",
      "address": "Kopečná, Staré Brno, Brno",
      "zone": "Staré Brno",
      "url": "https://www.sreality.cz/detail/pronajem/byt/1+kk/_/2576453708?noredirect=1",
      "listing_published_at": "2026-05-20",
      "listing_updated_at": "2026-07-22"
    },
    {
      "id": "sr_1271849036",
      "price": 39000,
      "lat": 49.1837728291329,
      "lng": 16.59480014749417,
      "sqm": 81,
      "rooms": 2,
      "property_type": "flat",
      "address": "Vídeňská, Štýřice, Brno",
      "zone": "Štýřice",
      "url": "https://www.sreality.cz/detail/pronajem/byt/2+kk/_/1271849036?noredirect=1",
      "listing_published_at": "2026-07-09",
      "listing_updated_at": "2026-07-22"
    },
    {
      "id": "sr_1549554508",
      "price": 16100,
      "lat": 49.1898694444,
      "lng": 16.5847916667,
      "sqm": 39,
      "rooms": 1,
      "property_type": "flat",
      "address": "Hlinky, Staré Brno, Brno",
      "zone": "Staré Brno",
      "url": "https://www.sreality.cz/detail/pronajem/byt/1+kk/_/1549554508?noredirect=1",
      "listing_published_at": "2026-03-09",
      "listing_updated_at": "2026-07-22"
    },
    {
      "id": "sr_2780094540",
      "price": 29200,
      "lat": 49.205868828302,
      "lng": 16.6172279538585,
      "sqm": 87,
      "rooms": 3,
      "property_type": "flat",
      "address": "Černopolní, Černá Pole, Brno",
      "zone": "Černá Pole",
      "url": "https://www.sreality.cz/detail/pronajem/byt/3+kk/_/2780094540?noredirect=1",
      "listing_published_at": "2026-07-22",
      "listing_updated_at": "2026-07-22"
    },
    {
      "id": "sr_2070667340",
      "price": 24000,
      "lat": 49.226867191056,
      "lng": 16.6473909610324,
      "sqm": 66,
      "rooms": 2,
      "property_type": "flat",
      "address": "Obřanská, Maloměřice, Brno",
      "zone": "Maloměřice",
      "url": "https://www.sreality.cz/detail/pronajem/byt/2+kk/_/2070667340?noredirect=1",
      "listing_published_at": "2026-07-01",
      "listing_updated_at": "2026-07-22"
    },
    {
      "id": "sr_397729868",
      "price": 13500,
      "lat": 49.2126014112,
      "lng": 16.6050952513,
      "sqm": 45,
      "rooms": 1,
      "property_type": "flat",
      "address": "Střední, Ponava, Brno",
      "zone": "Ponava",
      "url": "https://www.sreality.cz/detail/pronajem/byt/1+1/_/397729868?noredirect=1",
      "listing_published_at": "2026-07-22",
      "listing_updated_at": "2026-07-22"
    },
    {
      "id": "sr_1455743052",
      "price": 17900,
      "lat": 49.2171413794,
      "lng": 16.495232923,
      "sqm": 50,
      "rooms": 2,
      "property_type": "flat",
      "address": "Přírodní, Žebětín, Brno",
      "zone": "Žebětín",
      "url": "https://www.sreality.cz/detail/pronajem/byt/2+kk/_/1455743052?noredirect=1",
      "listing_published_at": "2026-07-21",
      "listing_updated_at": "2026-07-21"
    },
    {
      "id": "sr_2989002828",
      "price": 24000,
      "lat": 49.219218908,
      "lng": 16.5015369715,
      "sqm": 75,
      "rooms": 3,
      "property_type": "flat",
      "address": "Teyschlova, Bystrc, Brno",
      "zone": "Bystrc",
      "url": "https://www.sreality.cz/detail/pronajem/byt/3+1/_/2989002828?noredirect=1",
      "listing_published_at": "2026-05-12",
      "listing_updated_at": "2026-07-21"
    },
    {
      "id": "sr_2716852300",
      "price": 16500,
      "lat": 49.1696277,
      "lng": 16.5580827,
      "sqm": 44,
      "rooms": 2,
      "property_type": "flat",
      "address": "Dunajská, Starý Lískovec, Brno",
      "zone": "Starý Lískovec",
      "url": "https://www.sreality.cz/detail/pronajem/byt/2+kk/_/2716852300?noredirect=1",
      "listing_published_at": "2026-07-08",
      "listing_updated_at": "2026-07-21"
    },
    {
      "id": "sr_3708633932",
      "price": 17000,
      "lat": 49.1802856660602,
      "lng": 16.6214777788629,
      "sqm": 34,
      "rooms": 1,
      "property_type": "flat",
      "address": "Svatopetrská, Komárov, Brno",
      "zone": "Komárov",
      "url": "https://www.sreality.cz/detail/pronajem/byt/1+kk/_/3708633932?noredirect=1",
      "listing_published_at": "2026-03-24",
      "listing_updated_at": "2026-07-21"
    },
    {
      "id": "sr_3323256908",
      "price": 28000,
      "lat": 49.1988165681745,
      "lng": 16.5835703763985,
      "sqm": 60,
      "rooms": 3,
      "property_type": "flat",
      "address": "Lerchova, Stránice, Brno",
      "zone": "Stránice",
      "url": "https://www.sreality.cz/detail/pronajem/byt/3+kk/_/3323256908?noredirect=1",
      "listing_published_at": "2026-07-21",
      "listing_updated_at": "2026-07-21"
    },
    {
      "id": "sr_1473871948",
      "price": 23000,
      "lat": 49.19934023624731,
      "lng": 16.592252464673475,
      "sqm": 65,
      "rooms": 2,
      "property_type": "flat",
      "address": "Stojanova, Veveří, Brno",
      "zone": "Veveří",
      "url": "https://www.sreality.cz/detail/pronajem/byt/2+1/_/1473871948?noredirect=1",
      "listing_published_at": "2026-05-28",
      "listing_updated_at": "2026-07-21"
    },
    {
      "id": "sr_2349129804",
      "price": 16500,
      "lat": 49.2132727,
      "lng": 16.5785595,
      "sqm": 45,
      "rooms": 2,
      "property_type": "flat",
      "address": "Doležalova, Žabovřesky, Brno",
      "zone": "Žabovřesky",
      "url": "https://www.sreality.cz/detail/pronajem/byt/2+kk/_/2349129804?noredirect=1",
      "listing_published_at": "2026-07-21",
      "listing_updated_at": "2026-07-21"
    },
    {
      "id": "sr_2718228556",
      "price": 11400,
      "lat": 49.1924205826241,
      "lng": 16.6500543271574,
      "sqm": 23,
      "rooms": 1,
      "property_type": "flat",
      "address": "Škroupova, Židenice, Brno",
      "zone": "Židenice",
      "url": "https://www.sreality.cz/detail/pronajem/byt/1+kk/_/2718228556?noredirect=1",
      "listing_published_at": "2026-07-21",
      "listing_updated_at": "2026-07-21"
    },
    {
      "id": "sr_3758415948",
      "price": 15000,
      "lat": 49.2159198392,
      "lng": 16.5002403895,
      "sqm": 40,
      "rooms": 1,
      "property_type": "flat",
      "address": "Hvozdecká, Bystrc, Brno",
      "zone": "Bystrc",
      "url": "https://www.sreality.cz/detail/pronajem/byt/1+kk/_/3758415948?noredirect=1",
      "listing_published_at": "2026-07-21",
      "listing_updated_at": "2026-07-21"
    },
    {
      "id": "sr_1668145228",
      "price": 31900,
      "lat": 49.1962951776602,
      "lng": 16.6070934536301,
      "sqm": 82,
      "rooms": 3,
      "property_type": "flat",
      "address": "Jakubská, Brno-město, Brno",
      "zone": "Brno-město",
      "url": "https://www.sreality.cz/detail/pronajem/byt/3+kk/_/1668145228?noredirect=1",
      "listing_published_at": "2026-07-09",
      "listing_updated_at": "2026-07-21"
    },
    {
      "id": "sr_4012171340",
      "price": 22000,
      "lat": 49.2135901251551,
      "lng": 16.6271363236712,
      "sqm": 70,
      "rooms": 3,
      "property_type": "flat",
      "address": "Maškova, Černá Pole, Brno",
      "zone": "Černá Pole",
      "url": "https://www.sreality.cz/detail/pronajem/byt/3+1/_/4012171340?noredirect=1",
      "listing_published_at": "2026-07-21",
      "listing_updated_at": "2026-07-23"
    },
    {
      "id": "sr_3831947340",
      "price": 14500,
      "lat": 49.21125017523388,
      "lng": 16.633938331350656,
      "sqm": 37,
      "rooms": 1,
      "property_type": "flat",
      "address": "Dukelská třída, Husovice, Brno",
      "zone": "Husovice",
      "url": "https://www.sreality.cz/detail/pronajem/byt/1+kk/_/3831947340?noredirect=1",
      "listing_published_at": "2026-07-18",
      "listing_updated_at": "2026-07-24"
    },
    {
      "id": "sr_517005388",
      "price": 25000,
      "lat": 49.2020864584833,
      "lng": 16.6209502382757,
      "sqm": 40,
      "rooms": 2,
      "property_type": "flat",
      "address": "Francouzská, Zábrdovice, Brno",
      "zone": "Zábrdovice",
      "url": "https://www.sreality.cz/detail/pronajem/byt/2+kk/_/517005388?noredirect=1",
      "listing_published_at": "2026-07-16",
      "listing_updated_at": "2026-07-21"
    },
    {
      "id": "sr_1381294156",
      "price": 13990,
      "lat": 49.19399729241996,
      "lng": 16.560523169124625,
      "sqm": 14,
      "rooms": 4,
      "property_type": "flat",
      "address": "Antonína Procházky, Brno",
      "zone": "Antonína Procházky",
      "url": "https://www.sreality.cz/detail/pronajem/byt/4+kk/_/1381294156?noredirect=1",
      "listing_published_at": "2026-07-21",
      "listing_updated_at": "2026-07-21"
    },
    {
      "id": "sr_3091521612",
      "price": 15000,
      "lat": 49.17322500226991,
      "lng": 16.682844854802035,
      "sqm": 53,
      "rooms": 2,
      "property_type": "flat",
      "address": "Tuřanka, Slatina, Brno",
      "zone": "Slatina",
      "url": "https://www.sreality.cz/detail/pronajem/byt/2+kk/_/3091521612?noredirect=1",
      "listing_published_at": "2026-07-21",
      "listing_updated_at": "2026-07-22"
    },
    {
      "id": "sr_2403655756",
      "price": 14000,
      "lat": 49.17322500226991,
      "lng": 16.682844854802035,
      "sqm": 40,
      "rooms": 2,
      "property_type": "flat",
      "address": "Tuřanka, Slatina, Brno",
      "zone": "Slatina",
      "url": "https://www.sreality.cz/detail/pronajem/byt/2+kk/_/2403655756?noredirect=1",
      "listing_published_at": "2026-07-21",
      "listing_updated_at": "2026-07-22"
    },
    {
      "id": "sr_2817384524",
      "price": 23900,
      "lat": 49.23067372009193,
      "lng": 16.648657524750856,
      "sqm": 64,
      "rooms": 3,
      "property_type": "flat",
      "address": "Fryčajova, Obřany, Brno",
      "zone": "Obřany",
      "url": "https://www.sreality.cz/detail/pronajem/byt/3+kk/_/2817384524?noredirect=1",
      "listing_published_at": "2026-07-10",
      "listing_updated_at": "2026-07-21"
    },
    {
      "id": "sr_2180964428",
      "price": 16500,
      "lat": 49.2051778631579,
      "lng": 16.6035658376364,
      "sqm": 56,
      "rooms": 1,
      "property_type": "flat",
      "address": "Burešova, Veveří, Brno",
      "zone": "Veveří",
      "url": "https://www.sreality.cz/detail/pronajem/byt/1+1/_/2180964428?noredirect=1",
      "listing_published_at": "2026-07-09",
      "listing_updated_at": "2026-07-21"
    },
    {
      "id": "sr_4017414220",
      "price": 52000,
      "lat": 49.1969780625597,
      "lng": 16.5943585187803,
      "sqm": 128,
      "rooms": 4,
      "property_type": "flat",
      "address": "Gorazdova, Staré Brno, Brno",
      "zone": "Staré Brno",
      "url": "https://www.sreality.cz/detail/pronajem/byt/4+1/_/4017414220?noredirect=1",
      "listing_published_at": "2026-07-21",
      "listing_updated_at": "2026-07-22"
    },
    {
      "id": "sr_3664044108",
      "price": 18500,
      "lat": 49.191846,
      "lng": 16.60032,
      "sqm": 49,
      "rooms": 1,
      "property_type": "flat",
      "address": "Pekařská, Staré Brno, Brno",
      "zone": "Staré Brno",
      "url": "https://www.sreality.cz/detail/pronajem/byt/1+1/_/3664044108?noredirect=1",
      "listing_published_at": "2026-07-21",
      "listing_updated_at": "2026-07-21"
    },
    {
      "id": "sr_3023081548",
      "price": 22000,
      "lat": 49.1985659571469,
      "lng": 16.629933504184,
      "sqm": 63,
      "rooms": 3,
      "property_type": "flat",
      "address": "Pastrnkova, Zábrdovice, Brno",
      "zone": "Zábrdovice",
      "url": "https://www.sreality.cz/detail/pronajem/byt/3+kk/_/3023081548?noredirect=1",
      "listing_published_at": "2026-05-20",
      "listing_updated_at": "2026-07-21"
    },
    {
      "id": "sr_117370956",
      "price": 22000,
      "lat": 49.1985659571469,
      "lng": 16.629933504184,
      "sqm": 74,
      "rooms": 3,
      "property_type": "flat",
      "address": "Pastrnkova, Zábrdovice, Brno",
      "zone": "Zábrdovice",
      "url": "https://www.sreality.cz/detail/pronajem/byt/3+kk/_/117370956?noredirect=1",
      "listing_published_at": "2026-06-18",
      "listing_updated_at": "2026-07-21"
    },
    {
      "id": "sr_543481932",
      "price": 12500,
      "lat": 49.22017155849371,
      "lng": 16.65858278788277,
      "sqm": 21,
      "rooms": 1,
      "property_type": "flat",
      "address": "Hády, Maloměřice, Brno",
      "zone": "Maloměřice",
      "url": "https://www.sreality.cz/detail/pronajem/byt/1+kk/_/543481932?noredirect=1",
      "listing_published_at": "2026-07-21",
      "listing_updated_at": "2026-07-21"
    },
    {
      "id": "sr_2003099724",
      "price": 15000,
      "lat": 49.19658527254138,
      "lng": 16.646564901453033,
      "sqm": 32,
      "rooms": 2,
      "property_type": "flat",
      "address": "Jílkova, Židenice, Brno",
      "zone": "Židenice",
      "url": "https://www.sreality.cz/detail/pronajem/byt/2+kk/_/2003099724?noredirect=1",
      "listing_published_at": "2026-07-21",
      "listing_updated_at": "2026-07-21"
    },
    {
      "id": "sr_2090197068",
      "price": 16000,
      "lat": 49.202905,
      "lng": 16.625614,
      "sqm": 40,
      "rooms": 1,
      "property_type": "flat",
      "address": "Vranovská, Zábrdovice, Brno",
      "zone": "Zábrdovice",
      "url": "https://www.sreality.cz/detail/pronajem/byt/1+kk/_/2090197068?noredirect=1",
      "listing_published_at": "2026-07-21",
      "listing_updated_at": "2026-07-23"
    },
    {
      "id": "sr_1576378444",
      "price": 20990,
      "lat": 49.1970810612,
      "lng": 16.6487349244,
      "sqm": 50,
      "rooms": 2,
      "property_type": "flat",
      "address": "Škrochova, Židenice, Brno",
      "zone": "Židenice",
      "url": "https://www.sreality.cz/detail/pronajem/byt/2+kk/_/1576378444?noredirect=1",
      "listing_published_at": "2026-05-06",
      "listing_updated_at": "2026-07-22"
    },
    {
      "id": "sr_2680877132",
      "price": 17700,
      "lat": 49.20487927366908,
      "lng": 16.58171604930349,
      "sqm": 42,
      "rooms": 1,
      "property_type": "flat",
      "address": "Březinova, Brno",
      "zone": "Březinova",
      "url": "https://www.sreality.cz/detail/pronajem/byt/1+kk/_/2680877132?noredirect=1",
      "listing_published_at": "2026-06-15",
      "listing_updated_at": "2026-07-21"
    },
    {
      "id": "sr_2004742220",
      "price": 25000,
      "lat": 49.2039264997395,
      "lng": 16.613155814461155,
      "sqm": 73,
      "rooms": 2,
      "property_type": "flat",
      "address": "náměstí 28. října, Brno",
      "zone": "náměstí 28. října",
      "url": "https://www.sreality.cz/detail/pronajem/byt/2+kk/_/2004742220?noredirect=1",
      "listing_published_at": "2026-06-19",
      "listing_updated_at": "2026-07-21"
    },
    {
      "id": "sr_3518816332",
      "price": 14000,
      "lat": 49.18625525731381,
      "lng": 16.652932562778698,
      "sqm": 35,
      "rooms": 1,
      "property_type": "flat",
      "address": "Olomoucká, Brno",
      "zone": "Olomoucká",
      "url": "https://www.sreality.cz/detail/pronajem/byt/1+1/_/3518816332?noredirect=1",
      "listing_published_at": "2026-07-13",
      "listing_updated_at": "2026-07-21"
    },
    {
      "id": "sr_3669352524",
      "price": 15500,
      "lat": 49.2021624099271,
      "lng": 16.6248134356056,
      "sqm": 28,
      "rooms": 1,
      "property_type": "flat",
      "address": "Přadlácká, Zábrdovice, Brno",
      "zone": "Zábrdovice",
      "url": "https://www.sreality.cz/detail/pronajem/byt/1+kk/_/3669352524?noredirect=1",
      "listing_published_at": "2026-07-21",
      "listing_updated_at": "2026-07-21"
    },
    {
      "id": "sr_1203101772",
      "price": 18000,
      "lat": 49.1996388883815,
      "lng": 16.6200073575448,
      "sqm": 37,
      "rooms": 1,
      "property_type": "flat",
      "address": "Bratislavská, Zábrdovice, Brno",
      "zone": "Zábrdovice",
      "url": "https://www.sreality.cz/detail/pronajem/byt/1+kk/_/1203101772?noredirect=1",
      "listing_published_at": "2026-07-21",
      "listing_updated_at": "2026-07-21"
    },
    {
      "id": "sr_4221952076",
      "price": 30000,
      "lat": 49.1630082788149,
      "lng": 16.5646678574327,
      "sqm": 78,
      "rooms": 3,
      "property_type": "flat",
      "address": "Čermákova, Starý Lískovec, Brno",
      "zone": "Starý Lískovec",
      "url": "https://www.sreality.cz/detail/pronajem/byt/3+1/_/4221952076?noredirect=1",
      "listing_published_at": "2026-07-21",
      "listing_updated_at": "2026-07-21"
    },
    {
      "id": "sr_2026799180",
      "price": 12900,
      "lat": 49.2231199849023,
      "lng": 16.5138032337026,
      "sqm": 25,
      "rooms": 1,
      "property_type": "flat",
      "address": "Nad Přehradou, Bystrc, Brno",
      "zone": "Bystrc",
      "url": "https://www.sreality.cz/detail/pronajem/byt/1+kk/_/2026799180?noredirect=1",
      "listing_published_at": "2026-06-01",
      "listing_updated_at": "2026-07-23"
    },
    {
      "id": "sr_735113292",
      "price": 21900,
      "lat": 49.1868360303039,
      "lng": 16.6129113210732,
      "sqm": 70,
      "rooms": 2,
      "property_type": "flat",
      "address": "Placzkova, Trnitá, Brno",
      "zone": "Trnitá",
      "url": "https://www.sreality.cz/detail/pronajem/byt/2+kk/_/735113292?noredirect=1",
      "listing_published_at": "2026-06-25",
      "listing_updated_at": "2026-07-23"
    },
    {
      "id": "sr_3906330700",
      "price": 20000,
      "lat": 49.191169,
      "lng": 16.657302,
      "sqm": 56,
      "rooms": 2,
      "property_type": "flat",
      "address": "Souběžná, Židenice, Brno",
      "zone": "Židenice",
      "url": "https://www.sreality.cz/detail/pronajem/byt/2+1/_/3906330700?noredirect=1",
      "listing_published_at": "2026-07-21",
      "listing_updated_at": "2026-07-23"
    },
    {
      "id": "sr_2140594252",
      "price": 17800,
      "lat": 49.19929988564558,
      "lng": 16.624067946252282,
      "sqm": 33,
      "rooms": 1,
      "property_type": "flat",
      "address": "Cejl, Zábrdovice, Brno",
      "zone": "Zábrdovice",
      "url": "https://www.sreality.cz/detail/pronajem/byt/1+kk/_/2140594252?noredirect=1",
      "listing_published_at": "2026-07-20",
      "listing_updated_at": "2026-07-21"
    },
    {
      "id": "sr_1104535628",
      "price": 22500,
      "lat": 49.20965471631354,
      "lng": 16.60671696419772,
      "sqm": 45,
      "rooms": 2,
      "property_type": "flat",
      "address": "Střední, Ponava, Brno",
      "zone": "Ponava",
      "url": "https://www.sreality.cz/detail/pronajem/byt/2+kk/_/1104535628?noredirect=1",
      "listing_published_at": "2026-07-21",
      "listing_updated_at": "2026-07-21"
    },
    {
      "id": "sr_2590408780",
      "price": 33000,
      "lat": 49.1916839,
      "lng": 16.5989471,
      "sqm": 126,
      "rooms": 3,
      "property_type": "flat",
      "address": "Pekařská, Staré Brno, Brno",
      "zone": "Staré Brno",
      "url": "https://www.sreality.cz/detail/pronajem/byt/3+1/_/2590408780?noredirect=1",
      "listing_published_at": "2026-06-09",
      "listing_updated_at": "2026-07-21"
    },
    {
      "id": "sr_2832130124",
      "price": 27990,
      "lat": 49.1892109,
      "lng": 16.6040398,
      "sqm": 71,
      "rooms": 3,
      "property_type": "flat",
      "address": "Hybešova, Staré Brno, Brno",
      "zone": "Staré Brno",
      "url": "https://www.sreality.cz/detail/pronajem/byt/3+kk/_/2832130124?noredirect=1",
      "listing_published_at": "2026-07-09",
      "listing_updated_at": "2026-07-21"
    },
    {
      "id": "sr_255254604",
      "price": 22490,
      "lat": 49.1877220568835,
      "lng": 16.5895590539082,
      "sqm": 69,
      "rooms": 2,
      "property_type": "flat",
      "address": "Rybářská, Staré Brno, Brno",
      "zone": "Staré Brno",
      "url": "https://www.sreality.cz/detail/pronajem/byt/2+1/_/255254604?noredirect=1",
      "listing_published_at": "2026-07-19",
      "listing_updated_at": "2026-07-21"
    },
    {
      "id": "sr_2101051468",
      "price": 22900,
      "lat": 49.214254,
      "lng": 16.686438,
      "sqm": 86,
      "rooms": 2,
      "property_type": "flat",
      "address": "Podbělová, Líšeň, Brno",
      "zone": "Líšeň",
      "url": "https://www.sreality.cz/detail/pronajem/byt/2+kk/_/2101051468?noredirect=1",
      "listing_published_at": "2026-05-26",
      "listing_updated_at": "2026-07-21"
    },
    {
      "id": "sr_2055725132",
      "price": 23000,
      "lat": 49.23917,
      "lng": 16.581866,
      "sqm": 76,
      "rooms": 3,
      "property_type": "flat",
      "address": "Suzova, Medlánky, Brno",
      "zone": "Medlánky",
      "url": "https://www.sreality.cz/detail/pronajem/byt/3+1/_/2055725132?noredirect=1",
      "listing_published_at": "2026-07-18",
      "listing_updated_at": "2026-07-21"
    },
    {
      "id": "sr_3301302348",
      "price": 25900,
      "lat": 49.1891993770649,
      "lng": 16.6043899898101,
      "sqm": 32,
      "rooms": 2,
      "property_type": "flat",
      "address": "Hybešova, Staré Brno, Brno",
      "zone": "Staré Brno",
      "url": "https://www.sreality.cz/detail/pronajem/byt/2+1/_/3301302348?noredirect=1",
      "listing_published_at": "2026-07-21",
      "listing_updated_at": "2026-07-21"
    },
    {
      "id": "sr_2244337740",
      "price": 22500,
      "lat": 49.181839333700765,
      "lng": 16.599640596409582,
      "sqm": 80,
      "rooms": 2,
      "property_type": "flat",
      "address": "Renneská třída, Štýřice, Brno",
      "zone": "Štýřice",
      "url": "https://www.sreality.cz/detail/pronajem/byt/2+1/_/2244337740?noredirect=1",
      "listing_published_at": "2026-07-20",
      "listing_updated_at": "2026-07-21"
    },
    {
      "id": "sr_2800672844",
      "price": 16500,
      "lat": 49.1769174921,
      "lng": 16.6362276029,
      "sqm": 32,
      "rooms": 1,
      "property_type": "flat",
      "address": "Mírová, Černovice, Brno",
      "zone": "Černovice",
      "url": "https://www.sreality.cz/detail/pronajem/byt/1+kk/_/2800672844?noredirect=1",
      "listing_published_at": "2026-07-09",
      "listing_updated_at": "2026-07-20"
    },
    {
      "id": "sr_3036012620",
      "price": 23400,
      "lat": 49.1850693,
      "lng": 16.6028969,
      "sqm": 52,
      "rooms": 2,
      "property_type": "flat",
      "address": "Nové sady, Staré Brno, Brno",
      "zone": "Staré Brno",
      "url": "https://www.sreality.cz/detail/pronajem/byt/2+1/_/3036012620?noredirect=1",
      "listing_published_at": "2026-07-20",
      "listing_updated_at": "2026-07-20"
    },
    {
      "id": "sr_940957772",
      "price": 26000,
      "lat": 49.17338908408944,
      "lng": 16.68706106068099,
      "sqm": 98,
      "rooms": 3,
      "property_type": "flat",
      "address": "Šmahova, Slatina, Brno",
      "zone": "Slatina",
      "url": "https://www.sreality.cz/detail/pronajem/byt/3+kk/_/940957772?noredirect=1",
      "listing_published_at": "2026-07-20",
      "listing_updated_at": "2026-07-20"
    },
    {
      "id": "sr_3763044428",
      "price": 21000,
      "lat": 49.1858527526456,
      "lng": 16.6436498750807,
      "sqm": 74,
      "rooms": 3,
      "property_type": "flat",
      "address": "Kneslova, Černovice, Brno",
      "zone": "Černovice",
      "url": "https://www.sreality.cz/detail/pronajem/byt/3+kk/_/3763044428?noredirect=1",
      "listing_published_at": "2026-05-26",
      "listing_updated_at": "2026-07-20"
    },