{
  "fetched_at": "2026-07-23T22:28:02.998Z",
  "active_count": 2033,
  "listings": [
    {
      "id": "sr_2608132172",
      "price": 40000,
      "lat": 50.0901137715244,
      "lng": 14.4042982594899,
      "sqm": 85,
      "rooms": 3,
      "property_type": "flat",
      "address": "Sněmovní, Malá Strana, Praha",
      "zone": "Malá Strana",
      "url": "https://www.sreality.cz/detail/pronajem/byt/3+1/praha-mala-strana-snemovni/2608132172",
      "listing_published_at": "2026-06-30",
      "listing_updated_at": "2026-07-23"
    },
    {
      "id": "sr_734822476",
      "price": 23000,
      "lat": 50.071961,
      "lng": 14.441465,
      "sqm": 40,
      "rooms": 1,
      "property_type": "flat",
      "address": "Máchova, Vinohrady, Praha",
      "zone": "Vinohrady",
      "url": "https://www.sreality.cz/detail/pronajem/byt/1+1/praha-vinohrady-machova/734822476",
      "listing_published_at": "2026-06-03",
      "listing_updated_at": "2026-07-23"
    },
    {
      "id": "sr_3673293644",
      "price": 32000,
      "lat": 50.071961,
      "lng": 14.441465,
      "sqm": 59,
      "rooms": 3,
      "property_type": "flat",
      "address": "Máchova, Vinohrady, Praha",
      "zone": "Vinohrady",
      "url": "https://www.sreality.cz/detail/pronajem/byt/3+kk/praha-vinohrady-machova/3673293644",
      "listing_published_at": "2026-01-14",
      "listing_updated_at": "2026-07-23"
    },
    {
      "id": "sr_925601868",
      "price": 28000,
      "lat": 50.096852788285766,
      "lng": 14.467175453644858,
      "sqm": 56,
      "rooms": 3,
      "property_type": "flat",
      "address": "Nekvasilova, Karlín, Praha",
      "zone": "Karlín",
      "url": "https://www.sreality.cz/detail/pronajem/byt/3+kk/praha-karlin-nekvasilova/925601868",
      "listing_published_at": "2026-05-08",
      "listing_updated_at": "2026-07-23"
    },
    {
      "id": "sr_2952912972",
      "price": 40000,
      "lat": 50.0893816983278,
      "lng": 14.4034646584334,
      "sqm": 85,
      "rooms": 3,
      "property_type": "flat",
      "address": "Sněmovní, Malá Strana, Praha",
      "zone": "Malá Strana",
      "url": "https://www.sreality.cz/detail/pronajem/byt/3+1/praha-mala-strana-snemovni/2952912972",
      "listing_published_at": "2026-07-15",
      "listing_updated_at": "2026-07-23"
    },
    {
      "id": "sr_2615199052",
      "price": 23000,
      "lat": 50.0717739611438,
      "lng": 14.4412958907114,
      "sqm": 40,
      "rooms": 1,
      "property_type": "flat",
      "address": "Máchova, Vinohrady, Praha",
      "zone": "Vinohrady",
      "url": "https://www.sreality.cz/detail/pronajem/byt/1+1/praha-vinohrady-machova/2615199052",
      "listing_published_at": "2024-01-26",
      "listing_updated_at": "2026-07-23"
    },
    {
      "id": "sr_2535710796",
      "price": 32000,
      "lat": 50.0717739611438,
      "lng": 14.4412958907114,
      "sqm": 66,
      "rooms": 3,
      "property_type": "flat",
      "address": "Máchova, Vinohrady, Praha",
      "zone": "Vinohrady",
      "url": "https://www.sreality.cz/detail/pronajem/byt/3+kk/praha-vinohrady-machova/2535710796",
      "listing_published_at": "2026-07-13",
      "listing_updated_at": "2026-07-23"
    },
    {
      "id": "sr_584765516",
      "price": 16500,
      "lat": 50.10375386106056,
      "lng": 14.401853997793854,
      "sqm": 26,
      "rooms": 1,
      "property_type": "flat",
      "address": "U zeměpisného ústavu, Bubeneč, Praha",
      "zone": "Bubeneč",
      "url": "https://www.sreality.cz/detail/pronajem/byt/1+kk/praha-bubenec-u-zemepisneho-ustavu/584765516",
      "listing_published_at": "2026-07-23",
      "listing_updated_at": "2026-07-23"
    },
    {
      "id": "sr_1070657612",
      "price": 18000,
      "lat": 50.047802,
      "lng": 14.48411,
      "sqm": 47,
      "rooms": 2,
      "property_type": "flat",
      "address": "Hrusická, Záběhlice, Praha",
      "zone": "Záběhlice",
      "url": "https://www.sreality.cz/detail/pronajem/byt/2+kk/praha-zabehlice-hrusicka/1070657612",
      "listing_published_at": "2026-06-25",
      "listing_updated_at": "2026-07-23"
    },
    {
      "id": "sr_374571084",
      "price": 20900,
      "lat": 50.0467338889,
      "lng": 14.4154202778,
      "sqm": 43,
      "rooms": 2,
      "property_type": "flat",
      "address": "Dvorecké náměstí, Podolí, Praha",
      "zone": "Podolí",
      "url": "https://www.sreality.cz/detail/pronajem/byt/2+kk/praha-podoli-dvorecke-namesti/374571084",
      "listing_published_at": "2026-06-03",
      "listing_updated_at": "2026-07-23"
    },
    {
      "id": "sr_3805990988",
      "price": 42000,
      "lat": 50.040115,
      "lng": 14.436738,
      "sqm": 100,
      "rooms": 3,
      "property_type": "flat",
      "address": "Na Dvorcích, Krč, Praha",
      "zone": "Krč",
      "url": "https://www.sreality.cz/detail/pronajem/byt/3+kk/praha-krc-na-dvorcich/3805990988",
      "listing_published_at": "2026-07-23",
      "listing_updated_at": "2026-07-23"
    },
    {
      "id": "sr_1697767500",
      "price": 23000,
      "lat": 50.083367,
      "lng": 14.362022,
      "sqm": 52,
      "rooms": 2,
      "property_type": "flat",
      "address": "Bělohorská, Břevnov, Praha",
      "zone": "Břevnov",
      "url": "https://www.sreality.cz/detail/pronajem/byt/2+kk/praha-brevnov-belohorska/1697767500",
      "listing_published_at": "2026-07-15",
      "listing_updated_at": "2026-07-23"
    },
    {
      "id": "sr_3249004620",
      "price": 20000,
      "lat": 50.0573925149,
      "lng": 14.467893563,
      "sqm": 54,
      "rooms": 2,
      "property_type": "flat",
      "address": "V Dolině, Michle, Praha",
      "zone": "Michle",
      "url": "https://www.sreality.cz/detail/pronajem/byt/2+kk/praha-michle-v-doline/3249004620",
      "listing_published_at": "2026-07-17",
      "listing_updated_at": "2026-07-23"
    },
    {
      "id": "sr_3577733196",
      "price": 13500,
      "lat": 50.0207497222,
      "lng": 14.4643502778,
      "sqm": 30,
      "rooms": 1,
      "property_type": "flat",
      "address": "Pod Haltýřem, Kunratice, Praha",
      "zone": "Kunratice",
      "url": "https://www.sreality.cz/detail/pronajem/byt/1+kk/praha-kunratice-pod-haltyrem/3577733196",
      "listing_published_at": "2026-07-07",
      "listing_updated_at": "2026-07-23"
    },
    {
      "id": "sr_2578747468",
      "price": 20000,
      "lat": 50.0210494460877,
      "lng": 14.4109135683779,
      "sqm": 41,
      "rooms": 2,
      "property_type": "flat",
      "address": "Pod Lysinami, Hodkovičky, Praha",
      "zone": "Hodkovičky",
      "url": "https://www.sreality.cz/detail/pronajem/byt/2+kk/praha-hodkovicky-pod-lysinami/2578747468",
      "listing_published_at": "2026-05-26",
      "listing_updated_at": "2026-07-23"
    },
    {
      "id": "sr_115003468",
      "price": 28500,
      "lat": 50.0923552874569,
      "lng": 14.4829571031277,
      "sqm": 64,
      "rooms": 2,
      "property_type": "flat",
      "address": "Hartigova, Žižkov, Praha",
      "zone": "Žižkov",
      "url": "https://www.sreality.cz/detail/pronajem/byt/2+kk/praha-zizkov-hartigova/115003468",
      "listing_published_at": "2026-07-23",
      "listing_updated_at": "2026-07-23"
    },
    {
      "id": "sr_1155190860",
      "price": 35000,
      "lat": 50.0715306991829,
      "lng": 14.410381348482,
      "sqm": 117,
      "rooms": 2,
      "property_type": "flat",
      "address": "Hořejší nábřeží, Smíchov, Praha",
      "zone": "Smíchov",
      "url": "https://www.sreality.cz/detail/pronajem/byt/2+1/praha-smichov-horejsi-nabrezi/1155190860",
      "listing_published_at": "2026-07-23",
      "listing_updated_at": "2026-07-23"
    },
    {
      "id": "sr_51699788",
      "price": 21000,
      "lat": 50.072714,
      "lng": 14.493758,
      "sqm": 52,
      "rooms": 2,
      "property_type": "flat",
      "address": "V olšinách, Praha",
      "zone": "V olšinách",
      "url": "https://www.sreality.cz/detail/pronajem/byt/2+1/praha-v-olsinach/51699788",
      "listing_published_at": "2026-07-21",
      "listing_updated_at": "2026-07-23"
    },
    {
      "id": "sr_150265932",
      "price": 22500,
      "lat": 50.072714,
      "lng": 14.493758,
      "sqm": 41,
      "rooms": 2,
      "property_type": "flat",
      "address": "V olšinách, Praha",
      "zone": "V olšinách",
      "url": "https://www.sreality.cz/detail/pronajem/byt/2+1/praha-v-olsinach/150265932",
      "listing_published_at": "2026-07-21",
      "listing_updated_at": "2026-07-23"
    },
    {
      "id": "sr_422871116",
      "price": 18500,
      "lat": 50.1513649112796,
      "lng": 14.528182724223512,
      "sqm": 54,
      "rooms": 2,
      "property_type": "flat",
      "address": "Cukrovarská, Čakovice, Praha",
      "zone": "Čakovice",
      "url": "https://www.sreality.cz/detail/pronajem/byt/2+kk/praha-cakovice-cukrovarska/422871116",
      "listing_published_at": "2026-06-11",
      "listing_updated_at": "2026-07-24"
    },
    {
      "id": "sr_2613760076",
      "price": 23000,
      "lat": 50.112000555354825,
      "lng": 14.390911322969139,
      "sqm": 51,
      "rooms": 2,
      "property_type": "flat",
      "address": "Lindleyova, Dejvice, Praha",
      "zone": "Dejvice",
      "url": "https://www.sreality.cz/detail/pronajem/byt/2+kk/praha-dejvice-lindleyova/2613760076",
      "listing_published_at": "2026-07-23",
      "listing_updated_at": "2026-07-24"
    },
    {
      "id": "sr_3955937356",
      "price": 32000,
      "lat": 50.0729743977496,
      "lng": 14.4396814395006,
      "sqm": 84,
      "rooms": 2,
      "property_type": "flat",
      "address": "Záhřebská, Vinohrady, Praha",
      "zone": "Vinohrady",
      "url": "https://www.sreality.cz/detail/pronajem/byt/2+kk/praha-vinohrady-zahrebska/3955937356",
      "listing_published_at": "2026-07-23",
      "listing_updated_at": "2026-07-23"
    },
    {
      "id": "sr_147509324",
      "price": 29000,
      "lat": 50.069215032119,
      "lng": 14.455205918696,
      "sqm": 74,
      "rooms": 2,
      "property_type": "flat",
      "address": "Moskevská, Vršovice, Praha",
      "zone": "Vršovice",
      "url": "https://www.sreality.cz/detail/pronajem/byt/2+1/praha-vrsovice-moskevska/147509324",
      "listing_published_at": "2026-07-23",
      "listing_updated_at": "2026-07-23"
    },
    {
      "id": "sr_2052120652",
      "price": 19900,
      "lat": 50.141134,
      "lng": 14.449454,
      "sqm": 36,
      "rooms": 1,
      "property_type": "flat",
      "address": "Za Pískovnou, Dolní Chabry, Praha",
      "zone": "Dolní Chabry",
      "url": "https://www.sreality.cz/detail/pronajem/byt/1+kk/praha-dolni-chabry-za-piskovnou/2052120652",
      "listing_published_at": "2026-07-16",
      "listing_updated_at": "2026-07-23"
    },
    {
      "id": "sr_3267334220",
      "price": 60000,
      "lat": 50.07077,
      "lng": 14.444149,
      "sqm": 170,
      "rooms": 4,
      "property_type": "flat",
      "address": "Havlíčkovy sady, Vinohrady, Praha",
      "zone": "Vinohrady",
      "url": "https://www.sreality.cz/detail/pronajem/byt/4+kk/praha-vinohrady-havlickovy-sady/3267334220",
      "listing_published_at": "2026-05-13",
      "listing_updated_at": "2026-07-23"
    },
    {
      "id": "sr_4157595724",
      "price": 21000,
      "lat": 50.0631604205863,
      "lng": 14.4467970604368,
      "sqm": 30,
      "rooms": 1,
      "property_type": "flat",
      "address": "U Pernštejnských, Nusle, Praha",
      "zone": "Nusle",
      "url": "https://www.sreality.cz/detail/pronajem/byt/1+kk/praha-nusle-u-pernstejnskych/4157595724",
      "listing_published_at": "2026-07-08",
      "listing_updated_at": "2026-07-23"
    },
    {
      "id": "sr_4176470092",
      "price": 20000,
      "lat": 50.0577769363056,
      "lng": 14.4697731734423,
      "sqm": 30,
      "rooms": 1,
      "property_type": "flat",
      "address": "Brtnická, Michle, Praha",
      "zone": "Michle",
      "url": "https://www.sreality.cz/detail/pronajem/byt/1+kk/praha-michle-brtnicka/4176470092",
      "listing_published_at": "2026-07-08",
      "listing_updated_at": "2026-07-23"
    },
    {
      "id": "sr_3749896268",
      "price": 11500,
      "lat": 50.08370610363827,
      "lng": 14.446953562622888,
      "sqm": 13,
      "rooms": 1,
      "property_type": "room",
      "address": "Krásova, Žižkov, Praha",
      "zone": "Žižkov",
      "url": "https://www.sreality.cz/detail/pronajem/byt/Pokoj/praha-zizkov-krasova/3749896268",
      "listing_published_at": "2026-07-14",
      "listing_updated_at": "2026-07-23"
    },
    {
      "id": "sr_2040393804",
      "price": 13000,
      "lat": 50.042665581822796,
      "lng": 14.457544219437507,
      "sqm": 13,
      "rooms": 1,
      "property_type": "room",
      "address": "Budějovická, Praha",
      "zone": "Budějovická",
      "url": "https://www.sreality.cz/detail/pronajem/byt/Pokoj/praha-budejovicka/2040393804",
      "listing_published_at": "2026-06-20",
      "listing_updated_at": "2026-07-23"
    },
    {
      "id": "sr_262918988",
      "price": 12500,
      "lat": 50.09792762708286,
      "lng": 14.401043872605527,
      "sqm": 14,
      "rooms": 1,
      "property_type": "room",
      "address": "Dejvická, Praha",
      "zone": "Dejvická",
      "url": "https://www.sreality.cz/detail/pronajem/byt/Pokoj/praha-dejvicka/262918988",
      "listing_published_at": "2025-09-18",
      "listing_updated_at": "2026-07-23"
    },
    {
      "id": "sr_1786798924",
      "price": 12500,
      "lat": 50.102941493397594,
      "lng": 14.41278459060049,
      "sqm": 12,
      "rooms": 1,
      "property_type": "room",
      "address": "náměstí Borise Němcova, Bubeneč, Praha",
      "zone": "Bubeneč",
      "url": "https://www.sreality.cz/detail/pronajem/byt/Pokoj/praha-bubenec-namesti-borise-nemcova/1786798924",
      "listing_published_at": "2026-02-24",
      "listing_updated_at": "2026-07-23"
    },
    {
      "id": "sr_1684336716",
      "price": 18500,
      "lat": 50.0538145763823,
      "lng": 14.4363444817884,
      "sqm": 39,
      "rooms": 1,
      "property_type": "flat",
      "address": "Kotorská, Nusle, Praha",
      "zone": "Nusle",
      "url": "https://www.sreality.cz/detail/pronajem/byt/1+1/praha-nusle-kotorska/1684336716",
      "listing_published_at": "2026-06-30",
      "listing_updated_at": "2026-07-23"
    },
    {
      "id": "sr_2187063372",
      "price": 16400,
      "lat": 50.095673,
      "lng": 14.35065,
      "sqm": 31,
      "rooms": 1,
      "property_type": "flat",
      "address": "Africká, Vokovice, Praha",
      "zone": "Vokovice",
      "url": "https://www.sreality.cz/detail/pronajem/byt/1+kk/praha-vokovice-africka/2187063372",
      "listing_published_at": "2026-06-12",
      "listing_updated_at": "2026-07-23"
    },
    {
      "id": "sr_1835130956",
      "price": 30950,
      "lat": 50.0790174,
      "lng": 14.451608,
      "sqm": 72,
      "rooms": 2,
      "property_type": "flat",
      "address": "Milešovská, Vinohrady, Praha",
      "zone": "Vinohrady",
      "url": "https://www.sreality.cz/detail/pronajem/byt/2+1/praha-vinohrady-milesovska/1835130956",
      "listing_published_at": "2026-07-15",
      "listing_updated_at": "2026-07-23"
    },
    {
      "id": "sr_2362101836",
      "price": 27000,
      "lat": 50.0440116387,
      "lng": 14.5016627725,
      "sqm": 56,
      "rooms": 2,
      "property_type": "flat",
      "address": "Drahňovická, Chodov, Praha",
      "zone": "Chodov",
      "url": "https://www.sreality.cz/detail/pronajem/byt/2+kk/praha-chodov-drahnovicka/2362101836",
      "listing_published_at": "2026-07-23",
      "listing_updated_at": "2026-07-23"
    },
    {
      "id": "sr_3704279116",
      "price": 25000,
      "lat": 50.06039992041618,
      "lng": 14.421160642875236,
      "sqm": 45,
      "rooms": 2,
      "property_type": "flat",
      "address": "Pod Vyšehradem, Podolí, Praha",
      "zone": "Podolí",
      "url": "https://www.sreality.cz/detail/pronajem/byt/2+1/praha-podoli-pod-vysehradem/3704279116",
      "listing_published_at": "2026-07-23",
      "listing_updated_at": "2026-07-23"
    },
    {
      "id": "sr_1305137228",
      "price": 21000,
      "lat": 50.04097442028712,
      "lng": 14.43660686059747,
      "sqm": 45,
      "rooms": 1,
      "property_type": "flat",
      "address": "Panuškova, Krč, Praha",
      "zone": "Krč",
      "url": "https://www.sreality.cz/detail/pronajem/byt/1+kk/praha-krc-panuskova/1305137228",
      "listing_published_at": "2026-07-23",
      "listing_updated_at": "2026-07-23"
    },
    {
      "id": "sr_2844651596",
      "price": 24500,
      "lat": 50.07278546529155,
      "lng": 14.393012557895005,
      "sqm": 46,
      "rooms": 2,
      "property_type": "flat",
      "address": "Grafická, Smíchov, Praha",
      "zone": "Smíchov",
      "url": "https://www.sreality.cz/detail/pronajem/byt/2+kk/praha-smichov-graficka/2844651596",
      "listing_published_at": "2026-06-20",
      "listing_updated_at": "2026-07-23"
    },
    {
      "id": "sr_2559438924",
      "price": 25000,
      "lat": 50.06491942538304,
      "lng": 14.428226440125215,
      "sqm": 43,
      "rooms": 2,
      "property_type": "flat",
      "address": "Jaromírova, Nusle, Praha",
      "zone": "Nusle",
      "url": "https://www.sreality.cz/detail/pronajem/byt/2+kk/praha-nusle-jaromirova/2559438924",
      "listing_published_at": "2026-06-20",
      "listing_updated_at": "2026-07-23"
    },
    {
      "id": "sr_4186828876",
      "price": 21000,
      "lat": 50.08602288986637,
      "lng": 14.450561243538786,
      "sqm": 29,
      "rooms": 1,
      "property_type": "flat",
      "address": "Cimburkova, Žižkov, Praha",
      "zone": "Žižkov",
      "url": "https://www.sreality.cz/detail/pronajem/byt/1+kk/praha-zizkov-cimburkova/4186828876",
      "listing_published_at": "2026-06-20",
      "listing_updated_at": "2026-07-23"
    },
    {
      "id": "sr_966234188",
      "price": 50000,
      "lat": 50.0163877739,
      "lng": 14.4035965558,
      "sqm": 56,
      "rooms": 2,
      "property_type": "flat",
      "address": "Československého exilu, Modřany, Praha",
      "zone": "Modřany",
      "url": "https://www.sreality.cz/detail/pronajem/byt/2+kk/praha-modrany-ceskoslovenskeho-exilu/966234188",
      "listing_published_at": "2026-05-22",
      "listing_updated_at": "2026-07-23"
    },
    {
      "id": "sr_3368939596",
      "price": 45000,
      "lat": 50.0703015892,
      "lng": 14.4352605461,
      "sqm": 83,
      "rooms": 3,
      "property_type": "flat",
      "address": "Šafaříkova, Vinohrady, Praha",
      "zone": "Vinohrady",
      "url": "https://www.sreality.cz/detail/pronajem/byt/3+1/praha-vinohrady-safarikova/3368939596",
      "listing_published_at": "2026-06-19",
      "listing_updated_at": "2026-07-23"
    },
    {
      "id": "sr_4000178252",
      "price": 22900,
      "lat": 50.0830220562,
      "lng": 14.4153219261,
      "sqm": 30,
      "rooms": 1,
      "property_type": "flat",
      "address": "Konviktská, Staré Město, Praha",
      "zone": "Staré Město",
      "url": "https://www.sreality.cz/detail/pronajem/byt/1+1/praha-stare-mesto-konviktska/4000178252",
      "listing_published_at": "2026-07-09",
      "listing_updated_at": "2026-07-23"
    },
    {
      "id": "sr_2910249036",
      "price": 29500,
      "lat": 50.08355772116061,
      "lng": 14.451042982724136,
      "sqm": 62,
      "rooms": 2,
      "property_type": "flat",
      "address": "Bořivojova, Praha",
      "zone": "Bořivojova",
      "url": "https://www.sreality.cz/detail/pronajem/byt/2+kk/praha-borivojova/2910249036",
      "listing_published_at": "2026-07-18",
      "listing_updated_at": "2026-07-23"
    },
    {
      "id": "sr_1741860940",
      "price": 18000,
      "lat": 50.0424523470866,
      "lng": 14.5571225861562,
      "sqm": 37,
      "rooms": 1,
      "property_type": "flat",
      "address": "Bolevecká, Horní Měcholupy, Praha",
      "zone": "Horní Měcholupy",
      "url": "https://www.sreality.cz/detail/pronajem/byt/1+kk/praha-horni-mecholupy-bolevecka/1741860940",
      "listing_published_at": "2026-04-15",
      "listing_updated_at": "2026-07-23"
    },
    {
      "id": "sr_1821306956",
      "price": 27500,
      "lat": 50.017110054394024,
      "lng": 14.401308168873845,
      "sqm": 70,
      "rooms": 2,
      "property_type": "flat",
      "address": "Mezi Vodami, Modřany, Praha",
      "zone": "Modřany",
      "url": "https://www.sreality.cz/detail/pronajem/byt/2+kk/praha-modrany-mezi-vodami/1821306956",
      "listing_published_at": "2026-06-18",
      "listing_updated_at": "2026-07-23"
    },
    {
      "id": "sr_3706380364",
      "price": 98000,
      "lat": 50.1057461105,
      "lng": 14.4683970052,
      "sqm": 156,
      "rooms": 4,
      "property_type": "flat",
      "address": "Smrčkova, Libeň, Praha",
      "zone": "Libeň",
      "url": "https://www.sreality.cz/detail/pronajem/byt/4+kk/praha-liben-smrckova/3706380364",
      "listing_published_at": "2026-07-03",
      "listing_updated_at": "2026-07-23"
    },
    {
      "id": "sr_1892339788",
      "price": 13200000,
      "lat": 50.090793805558675,
      "lng": 14.426899882254537,
      "sqm": 54,
      "rooms": 1,
      "property_type": "flat",
      "address": "Dlouhá, Staré Město, Praha",
      "zone": "Staré Město",
      "url": "https://www.sreality.cz/detail/pronajem/byt/1+kk/praha-stare-mesto-dlouha/1892339788",
      "listing_published_at": "2026-07-23",
      "listing_updated_at": "2026-07-23"
    },
    {
      "id": "sr_2756214860",
      "price": 23000,
      "lat": 50.0724713068328,
      "lng": 14.4719748502831,
      "sqm": 65,
      "rooms": 2,
      "property_type": "flat",
      "address": "Volyňská, Vršovice, Praha",
      "zone": "Vršovice",
      "url": "https://www.sreality.cz/detail/pronajem/byt/2+kk/praha-vrsovice-volynska/2756214860",
      "listing_published_at": "2026-05-29",
      "listing_updated_at": "2026-07-23"
    },
    {
      "id": "sr_2429210700",
      "price": 35000,
      "lat": 50.1315742547451,
      "lng": 14.4291397729646,
      "sqm": 71,
      "rooms": 3,
      "property_type": "flat",
      "address": "Toruňská, Bohnice, Praha",
      "zone": "Bohnice",
      "url": "https://www.sreality.cz/detail/pronajem/byt/3+kk/praha-bohnice-torunska/2429210700",
      "listing_published_at": "2026-07-23",
      "listing_updated_at": "2026-07-23"
    },
    {
      "id": "sr_835375180",
      "price": 21900,
      "lat": 50.070593,
      "lng": 14.430481,
      "sqm": 34,
      "rooms": 2,
      "property_type": "flat",
      "address": "Legerova, Nové Město, Praha",
      "zone": "Nové Město",
      "url": "https://www.sreality.cz/detail/pronajem/byt/2+kk/praha-nove-mesto-legerova/835375180",
      "listing_published_at": "2026-07-23",
      "listing_updated_at": "2026-07-23"
    },
    {
      "id": "sr_2151567948",
      "price": 47900,
      "lat": 50.0802353061,
      "lng": 14.4296802206,
      "sqm": 98,
      "rooms": 3,
      "property_type": "flat",
      "address": "Václavské náměstí, Nové Město, Praha",
      "zone": "Nové Město",
      "url": "https://www.sreality.cz/detail/pronajem/byt/3+kk/praha-nove-mesto-vaclavske-namesti/2151567948",
      "listing_published_at": "2025-04-24",
      "listing_updated_at": "2026-07-23"
    },
    {
      "id": "sr_3584880716",
      "price": 29900,
      "lat": 50.003247496,
      "lng": 14.3960203084,
      "sqm": 74,
      "rooms": 3,
      "property_type": "flat",
      "address": "K sádkám, Velká Chuchle, Praha",
      "zone": "Velká Chuchle",
      "url": "https://www.sreality.cz/detail/pronajem/byt/3+kk/praha-velka-chuchle-k-sadkam/3584880716",
      "listing_published_at": "2026-06-22",
      "listing_updated_at": "2026-07-23"
    },
    {
      "id": "sr_3251294284",
      "price": 52000,
      "lat": 50.0787329973142,
      "lng": 14.4253690800295,
      "sqm": 111,
      "rooms": 3,
      "property_type": "flat",
      "address": "Štěpánská, Nové Město, Praha",
      "zone": "Nové Město",
      "url": "https://www.sreality.cz/detail/pronajem/byt/3+kk/praha-nove-mesto-stepanska/3251294284",
      "listing_published_at": "2026-07-23",
      "listing_updated_at": "2026-07-23"
    },
    {
      "id": "sr_382390348",
      "price": 26000,
      "lat": 50.0739593562898,
      "lng": 14.3945719445537,
      "sqm": 60,
      "rooms": 2,
      "property_type": "flat",
      "address": "Holečkova, Košíře, Praha",
      "zone": "Košíře",
      "url": "https://www.sreality.cz/detail/pronajem/byt/2+kk/praha-kosire-holeckova/382390348",
      "listing_published_at": "2026-07-23",
      "listing_updated_at": "2026-07-23"
    },
    {
      "id": "sr_2596442188",
      "price": 30000,
      "lat": 50.0698836303,
      "lng": 14.3710655184,
      "sqm": 140,
      "rooms": 5,
      "property_type": "flat",
      "address": "Plzeňská, Košíře, Praha",
      "zone": "Košíře",
      "url": "https://www.sreality.cz/detail/pronajem/byt/5+1/praha-kosire-plzenska/2596442188",
      "listing_published_at": "2026-05-19",
      "listing_updated_at": "2026-07-23"
    },
    {
      "id": "sr_3743346764",
      "price": 145000,
      "lat": 50.0741336459,
      "lng": 14.3960969344,
      "sqm": 178,
      "rooms": 4,
      "property_type": "flat",
      "address": "Holečkova, Smíchov, Praha",
      "zone": "Smíchov",
      "url": "https://www.sreality.cz/detail/pronajem/byt/4+kk/praha-smichov-holeckova/3743346764",
      "listing_published_at": "2026-06-18",
      "listing_updated_at": "2026-07-23"
    },
    {
      "id": "sr_3603615820",
      "price": 26000,
      "lat": 50.042951103306116,
      "lng": 14.43288823375,
      "sqm": 57,
      "rooms": 2,
      "property_type": "flat",
      "address": "Hudečkova, Praha",
      "zone": "Hudečkova",
      "url": "https://www.sreality.cz/detail/pronajem/byt/2+kk/praha-hudeckova/3603615820",
      "listing_published_at": "2026-07-23",
      "listing_updated_at": "2026-07-23"
    },
    {
      "id": "sr_2752897100",
      "price": 18000,
      "lat": 50.0545363948,
      "lng": 14.4195988873,
      "sqm": 29,
      "rooms": 1,
      "property_type": "flat",
      "address": "Podolská, Podolí, Praha",
      "zone": "Podolí",
      "url": "https://www.sreality.cz/detail/pronajem/byt/1+1/praha-podoli-podolska/2752897100",
      "listing_published_at": "2026-07-20",
      "listing_updated_at": "2026-07-23"
    },
    {
      "id": "sr_3537563724",
      "price": 21500,
      "lat": 50.0723902,
      "lng": 14.3872942,
      "sqm": 30,
      "rooms": 1,
      "property_type": "flat",
      "address": "Holečkova, Smíchov, Praha",
      "zone": "Smíchov",
      "url": "https://www.sreality.cz/detail/pronajem/byt/1+kk/praha-smichov-holeckova/3537563724",
      "listing_published_at": "2026-06-15",
      "listing_updated_at": "2026-07-23"
    },
    {
      "id": "sr_3683512396",
      "price": 22000,
      "lat": 50.0767887692429,
      "lng": 14.4072660313115,
      "sqm": 55,
      "rooms": 2,
      "property_type": "flat",
      "address": "Zborovská, Smíchov, Praha",
      "zone": "Smíchov",
      "url": "https://www.sreality.cz/detail/pronajem/byt/2+kk/praha-smichov-zborovska/3683512396",
      "listing_published_at": "2026-06-20",
      "listing_updated_at": "2026-07-23"
    },
    {
      "id": "sr_963436620",
      "price": 22000,
      "lat": 50.128245561,
      "lng": 14.5024079375,
      "sqm": 53,
      "rooms": 2,
      "property_type": "flat",
      "address": "Chotěšovská, Letňany, Praha",
      "zone": "Letňany",
      "url": "https://www.sreality.cz/detail/pronajem/byt/2+kk/praha-letnany-chotesovska/963436620",
      "listing_published_at": "2026-07-10",
      "listing_updated_at": "2026-07-23"
    },
    {
      "id": "sr_2546651212",
      "price": 14900,
      "lat": 50.0822768,
      "lng": 14.4501047,
      "sqm": 32,
      "rooms": 1,
      "property_type": "flat",
      "address": "Kubelíkova, Žižkov, Praha",
      "zone": "Žižkov",
      "url": "https://www.sreality.cz/detail/pronajem/byt/1+kk/praha-zizkov-kubelikova/2546651212",
      "listing_published_at": "2026-07-23",
      "listing_updated_at": "2026-07-23"
    },
    {
      "id": "sr_885706828",
      "price": 34800,
      "lat": 50.087152,
      "lng": 14.471583,
      "sqm": 75,
      "rooms": 3,
      "property_type": "flat",
      "address": "Malešická, Žižkov, Praha",
      "zone": "Žižkov",
      "url": "https://www.sreality.cz/detail/pronajem/byt/3+kk/praha-zizkov-malesicka/885706828",
      "listing_published_at": "2026-07-23",
      "listing_updated_at": "2026-07-23"
    },
    {
      "id": "sr_1048068940",
      "price": 60000,
      "lat": 50.0707712013,
      "lng": 14.4441499727,
      "sqm": 170,
      "rooms": 4,
      "property_type": "flat",
      "address": "Havlíčkovy sady, Vinohrady, Praha",
      "zone": "Vinohrady",
      "url": "https://www.sreality.cz/detail/pronajem/byt/4+kk/praha-vinohrady-havlickovy-sady/1048068940",
      "listing_published_at": "2026-03-20",
      "listing_updated_at": "2026-07-23"
    },
    {
      "id": "sr_1672011852",
      "price": 45000,
      "lat": 50.072644023799036,
      "lng": 14.357157293232602,
      "sqm": 103,
      "rooms": 3,
      "property_type": "flat",
      "address": "Kotlářka, Košíře, Praha",
      "zone": "Košíře",
      "url": "https://www.sreality.cz/detail/pronajem/byt/3+kk/praha-kosire-kotlarka/1672011852",
      "listing_published_at": "2026-07-07",
      "listing_updated_at": "2026-07-23"
    },
    {
      "id": "sr_2441773132",
      "price": 21000,
      "lat": 50.09635452600942,
      "lng": 14.343954433146903,
      "sqm": 49,
      "rooms": 2,
      "property_type": "flat",
      "address": "Ke dvoru, Vokovice, Praha",
      "zone": "Vokovice",
      "url": "https://www.sreality.cz/detail/pronajem/byt/2+kk/praha-vokovice-ke-dvoru/2441773132",
      "listing_published_at": "2026-05-27",
      "listing_updated_at": "2026-07-23"
    },
    {
      "id": "sr_593551436",
      "price": 36000,
      "lat": 50.0821795669115,
      "lng": 14.4044812194629,
      "sqm": 75,
      "rooms": 2,
      "property_type": "flat",
      "address": "Újezd, Malá Strana, Praha",
      "zone": "Malá Strana",
      "url": "https://www.sreality.cz/detail/pronajem/byt/2+kk/praha-mala-strana-ujezd/593551436",
      "listing_published_at": "2026-07-15",
      "listing_updated_at": "2026-07-23"
    },
    {
      "id": "sr_3100479564",
      "price": 49000,
      "lat": 50.0701845086,
      "lng": 14.4021305409,
      "sqm": 115,
      "rooms": 3,
      "property_type": "flat",
      "address": "Karla Engliše, Smíchov, Praha",
      "zone": "Smíchov",
      "url": "https://www.sreality.cz/detail/pronajem/byt/3+kk/praha-smichov-karla-englise/3100479564",
      "listing_published_at": "2026-05-15",
      "listing_updated_at": "2026-07-23"
    },
    {
      "id": "sr_2349391948",
      "price": 36000,
      "lat": 49.9882376,
      "lng": 14.4464124,
      "sqm": 81,
      "rooms": 3,
      "property_type": "flat",
      "address": "Kestřanská, Cholupice, Praha",
      "zone": "Cholupice",
      "url": "https://www.sreality.cz/detail/pronajem/byt/3+kk/praha-cholupice-kestranska/2349391948",
      "listing_published_at": "2026-07-07",
      "listing_updated_at": "2026-07-23"
    },
    {
      "id": "sr_2371870796",
      "price": 34000,
      "lat": 50.082989,
      "lng": 14.443993,
      "sqm": 51,
      "rooms": 2,
      "property_type": "flat",
      "address": "U Rajské zahrady, Žižkov, Praha",
      "zone": "Žižkov",
      "url": "https://www.sreality.cz/detail/pronajem/byt/2+kk/praha-zizkov-u-rajske-zahrady/2371870796",
      "listing_published_at": "2026-07-07",
      "listing_updated_at": "2026-07-23"
    },
    {
      "id": "sr_2615861324",
      "price": 85000,
      "lat": 50.0783699986,
      "lng": 14.4440230724,
      "sqm": 138,
      "rooms": 3,
      "property_type": "flat",
      "address": "Polská, Vinohrady, Praha",
      "zone": "Vinohrady",
      "url": "https://www.sreality.cz/detail/pronajem/byt/3+kk/praha-vinohrady-polska/2615861324",
      "listing_published_at": "2026-07-03",
      "listing_updated_at": "2026-07-23"
    },
    {
      "id": "sr_4045463628",
      "price": 23990,
      "lat": 50.0934073,
      "lng": 14.4963398,
      "sqm": 64,
      "rooms": 2,
      "property_type": "flat",
      "address": "Spojovací, Žižkov, Praha",
      "zone": "Žižkov",
      "url": "https://www.sreality.cz/detail/pronajem/byt/2+kk/praha-zizkov-spojovaci/4045463628",
      "listing_published_at": "2026-07-16",
      "listing_updated_at": "2026-07-23"
    },
    {
      "id": "sr_1858986060",
      "price": 38990,
      "lat": 50.08015,
      "lng": 14.45223,
      "sqm": 116,
      "rooms": 3,
      "property_type": "flat",
      "address": "Ondříčkova, Vinohrady, Praha",
      "zone": "Vinohrady",
      "url": "https://www.sreality.cz/detail/pronajem/byt/3+1/praha-vinohrady-ondrickova/1858986060",
      "listing_published_at": "2026-07-10",
      "listing_updated_at": "2026-07-23"
    },
    {
      "id": "sr_2031018060",
      "price": 37990,
      "lat": 50.08,
      "lng": 14.41504,
      "sqm": 119,
      "rooms": 3,
      "property_type": "flat",
      "address": "Pštrossova, Nové Město, Praha",
      "zone": "Nové Město",
      "url": "https://www.sreality.cz/detail/pronajem/byt/3+1/praha-nove-mesto-pstrossova/2031018060",
      "listing_published_at": "2026-07-09",
      "listing_updated_at": "2026-07-23"
    },
    {
      "id": "sr_3664085068",
      "price": 35000,
      "lat": 50.094218973,
      "lng": 14.3653828366,
      "sqm": 65,
      "rooms": 2,
      "property_type": "flat",
      "address": "Na Dračkách, Veleslavín, Praha",
      "zone": "Veleslavín",
      "url": "https://www.sreality.cz/detail/pronajem/byt/2+kk/praha-veleslavin-na-drackach/3664085068",
      "listing_published_at": "2026-06-10",
      "listing_updated_at": "2026-07-23"
    },
    {
      "id": "sr_2293624908",
      "price": 25000,
      "lat": 50.0849929632,
      "lng": 14.4141721701,
      "sqm": 48,
      "rooms": 2,
      "property_type": "flat",
      "address": "Na zábradlí, Staré Město, Praha",
      "zone": "Staré Město",
      "url": "https://www.sreality.cz/detail/pronajem/byt/2+1/praha-stare-mesto-na-zabradli/2293624908",
      "listing_published_at": "2026-06-30",
      "listing_updated_at": "2026-07-23"
    },
    {
      "id": "sr_1242099788",
      "price": 25000,
      "lat": 50.0873894488,
      "lng": 14.3839253266,
      "sqm": 38,
      "rooms": 1,
      "property_type": "flat",
      "address": "Parléřova, Střešovice, Praha",
      "zone": "Střešovice",
      "url": "https://www.sreality.cz/detail/pronajem/byt/1+kk/praha-stresovice-parlerova/1242099788",
      "listing_published_at": "2026-06-16",
      "listing_updated_at": "2026-07-23"
    },
    {
      "id": "sr_246768460",
      "price": 18700,
      "lat": 50.0716261135368,
      "lng": 14.4360938490476,
      "sqm": 28,
      "rooms": 1,
      "property_type": "flat",
      "address": "Záhřebská, Vinohrady, Praha",
      "zone": "Vinohrady",
      "url": "https://www.sreality.cz/detail/pronajem/byt/1+kk/praha-vinohrady-zahrebska/246768460",
      "listing_published_at": "2026-02-27",
      "listing_updated_at": "2026-07-23"
    },
    {
      "id": "sr_1276674124",
      "price": 61600,
      "lat": 50.0870751512,
      "lng": 14.4088966562,
      "sqm": 72,
      "rooms": 2,
      "property_type": "flat",
      "address": "Na Kampě, Malá Strana, Praha",
      "zone": "Malá Strana",
      "url": "https://www.sreality.cz/detail/pronajem/byt/2+kk/praha-mala-strana-na-kampe/1276674124",
      "listing_published_at": "2026-05-29",
      "listing_updated_at": "2026-07-23"
    },
    {
      "id": "sr_2608328780",
      "price": 23900,
      "lat": 50.0851442924,
      "lng": 14.4448558823,
      "sqm": 46,
      "rooms": 2,
      "property_type": "flat",
      "address": "Seifertova, Žižkov, Praha",
      "zone": "Žižkov",
      "url": "https://www.sreality.cz/detail/pronajem/byt/2+kk/praha-zizkov-seifertova/2608328780",
      "listing_published_at": "2026-06-26",
      "listing_updated_at": "2026-07-23"
    },
    {
      "id": "sr_3481198668",
      "price": 32000,
      "lat": 50.1032584,
      "lng": 14.4507664,
      "sqm": 68,
      "rooms": 2,
      "property_type": "flat",
      "address": "Dělnická, Holešovice, Praha",
      "zone": "Holešovice",
      "url": "https://www.sreality.cz/detail/pronajem/byt/2+kk/praha-holesovice-delnicka/3481198668",
      "listing_published_at": "2026-07-08",
      "listing_updated_at": "2026-07-23"
    },
    {
      "id": "sr_2583351372",
      "price": 31990,
      "lat": 50.06401,
      "lng": 14.27342,
      "sqm": 73,
      "rooms": 3,
      "property_type": "flat",
      "address": "Hostivická, Sobín, Praha",
      "zone": "Sobín",
      "url": "https://www.sreality.cz/detail/pronajem/byt/3+kk/praha-sobin-hostivicka/2583351372",
      "listing_published_at": "2026-07-23",
      "listing_updated_at": "2026-07-23"
    },
    {
      "id": "sr_1226895436",
      "price": 17000,
      "lat": 50.076604219275936,
      "lng": 14.43178653717041,
      "sqm": 30,
      "rooms": 1,
      "property_type": "flat",
      "address": "Mikovcova, Vinohrady, Praha",
      "zone": "Vinohrady",
      "url": "https://www.sreality.cz/detail/pronajem/byt/1+kk/praha-vinohrady-mikovcova/1226895436",
      "listing_published_at": "2026-06-25",
      "listing_updated_at": "2026-07-23"
    },
    {
      "id": "sr_3457998924",
      "price": 20000,
      "lat": 50.044962487966714,
      "lng": 14.49038052968738,
      "sqm": 58,
      "rooms": 2,
      "property_type": "flat",
      "address": "Struhařovská, Záběhlice, Praha",
      "zone": "Záběhlice",
      "url": "https://www.sreality.cz/detail/pronajem/byt/2+1/praha-zabehlice-struharovska/3457998924",
      "listing_published_at": "2026-07-12",
      "listing_updated_at": "2026-07-23"
    },
    {
      "id": "sr_1250811980",
      "price": 28000,
      "lat": 50.1245901365326,
      "lng": 14.47579622268677,
      "sqm": 80,
      "rooms": 3,
      "property_type": "flat",
      "address": "Společná, Libeň, Praha",
      "zone": "Libeň",
      "url": "https://www.sreality.cz/detail/pronajem/byt/3+1/praha-liben-spolecna/1250811980",
      "listing_published_at": "2026-07-10",
      "listing_updated_at": "2026-07-23"
    },
    {
      "id": "sr_855498828",
      "price": 30000,
      "lat": 50.06184944784983,
      "lng": 14.440960287511148,
      "sqm": 86,
      "rooms": 3,
      "property_type": "flat",
      "address": "Svatoslavova, Nusle, Praha",
      "zone": "Nusle",
      "url": "https://www.sreality.cz/detail/pronajem/byt/3+kk/praha-nusle-svatoslavova/855498828",
      "listing_published_at": "2026-07-10",
      "listing_updated_at": "2026-07-23"
    },
    {
      "id": "sr_2415517772",
      "price": 15000,
      "lat": 50.100024241063046,
      "lng": 14.43721264600754,
      "sqm": 34,
      "rooms": 1,
      "property_type": "flat",
      "address": "Bubenská, Holešovice, Praha",
      "zone": "Holešovice",
      "url": "https://www.sreality.cz/detail/pronajem/byt/1+1/praha-holesovice-bubenska/2415517772",
      "listing_published_at": "2026-07-05",
      "listing_updated_at": "2026-07-23"
    },
    {
      "id": "sr_3954700364",
      "price": 30000,
      "lat": 50.07284810376848,
      "lng": 14.43606734275818,
      "sqm": 78,
      "rooms": 2,
      "property_type": "flat",
      "address": "Belgická, Vinohrady, Praha",
      "zone": "Vinohrady",
      "url": "https://www.sreality.cz/detail/pronajem/byt/2+kk/praha-vinohrady-belgicka/3954700364",
      "listing_published_at": "2026-06-27",
      "listing_updated_at": "2026-07-23"
    },
    {
      "id": "sr_3317977932",
      "price": 39000,
      "lat": 50.08110738845883,
      "lng": 14.405819915525601,
      "sqm": 100,
      "rooms": 3,
      "property_type": "flat",
      "address": "Vítězná, Malá Strana, Praha",
      "zone": "Malá Strana",
      "url": "https://www.sreality.cz/detail/pronajem/byt/3+kk/praha-mala-strana-vitezna/3317977932",
      "listing_published_at": "2026-03-17",
      "listing_updated_at": "2026-07-23"
    },
    {
      "id": "sr_1933398860",
      "price": 37000,
      "lat": 50.12558568960837,
      "lng": 14.450299476607354,
      "sqm": 128,
      "rooms": 4,
      "property_type": "flat",
      "address": "Služská, Kobylisy, Praha",
      "zone": "Kobylisy",
      "url": "https://www.sreality.cz/detail/pronajem/byt/4+1/praha-kobylisy-sluzska/1933398860",
      "listing_published_at": "2026-03-08",
      "listing_updated_at": "2026-07-23"
    },
    {
      "id": "sr_251318348",
      "price": 22000,
      "lat": 50.082969289392864,
      "lng": 14.378820395778552,
      "sqm": 51,
      "rooms": 2,
      "property_type": "flat",
      "address": "Nad Závěrkou, Břevnov, Praha",
      "zone": "Břevnov",
      "url": "https://www.sreality.cz/detail/pronajem/byt/2+kk/praha-brevnov-nad-zaverkou/251318348",
      "listing_published_at": "2026-07-23",
      "listing_updated_at": "2026-07-23"
    },
    {
      "id": "sr_2935672908",
      "price": 17500,
      "lat": 50.102427466745574,
      "lng": 14.506810708518154,
      "sqm": 41,
      "rooms": 1,
      "property_type": "flat",
      "address": "Poděbradská, Vysočany, Praha",
      "zone": "Vysočany",
      "url": "https://www.sreality.cz/detail/pronajem/byt/1+kk/praha-vysocany-podebradska/2935672908",
      "listing_published_at": "2026-07-23",
      "listing_updated_at": "2026-07-23"
    },
    {
      "id": "sr_3768599372",
      "price": 116000,
      "lat": 50.0919567,
      "lng": 14.4227428,
      "sqm": 114,
      "rooms": 3,
      "property_type": "flat",
      "address": "U milosrdných, Staré Město, Praha",
      "zone": "Staré Město",
      "url": "https://www.sreality.cz/detail/pronajem/byt/3+kk/praha-stare-mesto-u-milosrdnych/3768599372",
      "listing_published_at": "2026-03-30",
      "listing_updated_at": "2026-07-23"
    },
    {
      "id": "sr_1155784780",
      "price": 49000,
      "lat": 50.0655255757,
      "lng": 14.378051137,
      "sqm": 117,
      "rooms": 4,
      "property_type": "flat",
      "address": "U Vojanky, Košíře, Praha",
      "zone": "Košíře",
      "url": "https://www.sreality.cz/detail/pronajem/byt/4+kk/praha-kosire-u-vojanky/1155784780",
      "listing_published_at": "2026-07-13",
      "listing_updated_at": "2026-07-23"
    },
    {
      "id": "sr_4174307404",
      "price": 30000,
      "lat": 50.0898163194996,
      "lng": 14.4766881654164,
      "sqm": 58,
      "rooms": 2,
      "property_type": "flat",
      "address": "Jeseniova, Žižkov, Praha",
      "zone": "Žižkov",
      "url": "https://www.sreality.cz/detail/pronajem/byt/2+kk/praha-zizkov-jeseniova/4174307404",
      "listing_published_at": "2026-07-09",
      "listing_updated_at": "2026-07-23"
    },
    {
      "id": "sr_229000012",
      "price": 45000,
      "lat": 50.0912299,
      "lng": 14.4316875,
      "sqm": 102,
      "rooms": 3,
      "property_type": "flat",
      "address": "Petrské náměstí, Nové Město, Praha",
      "zone": "Nové Město",
      "url": "https://www.sreality.cz/detail/pronajem/byt/3+1/praha-nove-mesto-petrske-namesti/229000012",
      "listing_published_at": "2026-04-01",
      "listing_updated_at": "2026-07-23"
    },
    {
      "id": "sr_4032294988",
      "price": 23000,
      "lat": 50.071961,
      "lng": 14.441465,
      "sqm": 40,
      "rooms": 1,
      "property_type": "flat",
      "address": "Máchova, Vinohrady, Praha",
      "zone": "Vinohrady",
      "url": "https://www.sreality.cz/detail/pronajem/byt/1+1/praha-vinohrady-machova/4032294988",
      "listing_published_at": "2026-06-26",
      "listing_updated_at": "2026-07-23"
    },
    {
      "id": "sr_2945769548",
      "price": 28000,
      "lat": 50.04683,
      "lng": 14.44577,
      "sqm": 74,
      "rooms": 3,
      "property_type": "flat",
      "address": "Budějovická, Krč, Praha",
      "zone": "Krč",
      "url": "https://www.sreality.cz/detail/pronajem/byt/3+1/praha-krc-budejovicka/2945769548",
      "listing_published_at": "2026-07-22",
      "listing_updated_at": "2026-07-23"
    },
    {
      "id": "sr_375103564",
      "price": 60000,
      "lat": 50.0753707886367,
      "lng": 14.4039404534471,
      "sqm": 168,
      "rooms": 5,
      "property_type": "flat",
      "address": "Štefánikova, Smíchov, Praha",
      "zone": "Smíchov",
      "url": "https://www.sreality.cz/detail/pronajem/byt/5+1/praha-smichov-stefanikova/375103564",
      "listing_published_at": "2026-04-21",
      "listing_updated_at": "2026-07-23"
    },
    {
      "id": "sr_2357911628",
      "price": 31000,
      "lat": 50.1110962942162,
      "lng": 14.4970316097249,
      "sqm": 60,
      "rooms": 2,
      "property_type": "flat",
      "address": "Paříkova, Vysočany, Praha",
      "zone": "Vysočany",
      "url": "https://www.sreality.cz/detail/pronajem/byt/2+kk/praha-vysocany-parikova/2357911628",
      "listing_published_at": "2026-07-03",
      "listing_updated_at": "2026-07-23"
    },
    {
      "id": "sr_3342590028",
      "price": 42000,
      "lat": 50.077986603815,
      "lng": 14.4081574123675,
      "sqm": 83,
      "rooms": 3,
      "property_type": "flat",
      "address": "Janáčkovo nábřeží, Smíchov, Praha",
      "zone": "Smíchov",
      "url": "https://www.sreality.cz/detail/pronajem/byt/3+kk/praha-smichov-janackovo-nabrezi/3342590028",
      "listing_published_at": "2026-07-01",
      "listing_updated_at": "2026-07-23"
    },
    {
      "id": "sr_2685837388",
      "price": 41000,
      "lat": 50.077522,
      "lng": 14.418634,
      "sqm": 81,
      "rooms": 3,
      "property_type": "flat",
      "address": "Odborů, Nové Město, Praha",
      "zone": "Nové Město",
      "url": "https://www.sreality.cz/detail/pronajem/byt/3+1/praha-nove-mesto-odboru/2685837388",
      "listing_published_at": "2026-05-05",
      "listing_updated_at": "2026-07-23"
    },
    {
      "id": "sr_3200573516",
      "price": 26901,
      "lat": 50.077675,
      "lng": 14.425074,
      "sqm": 65,
      "rooms": 2,
      "property_type": "flat",
      "address": "Štěpánská, Nové Město, Praha",
      "zone": "Nové Město",
      "url": "https://www.sreality.cz/detail/pronajem/byt/2+kk/praha-nove-mesto-stepanska/3200573516",
      "listing_published_at": "2026-07-21",
      "listing_updated_at": "2026-07-23"
    },
    {
      "id": "sr_145809484",
      "price": 37090,
      "lat": 50.060776145,
      "lng": 14.3064817236,
      "sqm": 94,
      "rooms": 3,
      "property_type": "flat",
      "address": "Plzeňská, Stodůlky, Praha",
      "zone": "Stodůlky",
      "url": "https://www.sreality.cz/detail/pronajem/byt/3+kk/praha-stodulky-plzenska/145809484",
      "listing_published_at": "2026-07-16",
      "listing_updated_at": "2026-07-23"
    },
    {
      "id": "sr_1687409484",
      "price": 250000,
      "lat": 50.0912473530901,
      "lng": 14.432317244041,
      "sqm": 200,
      "rooms": 5,
      "property_type": "flat",
      "address": "Petrské náměstí, Nové Město, Praha",
      "zone": "Nové Město",
      "url": "https://www.sreality.cz/detail/pronajem/byt/5+1/praha-nove-mesto-petrske-namesti/1687409484",
      "listing_published_at": "2025-09-29",
      "listing_updated_at": "2026-07-23"
    },
    {
      "id": "sr_2174390348",
      "price": 32000,
      "lat": 50.08267607439892,
      "lng": 14.453643802010543,
      "sqm": 87,
      "rooms": 3,
      "property_type": "flat",
      "address": "Bořivojova, Žižkov, Praha",
      "zone": "Žižkov",
      "url": "https://www.sreality.cz/detail/pronajem/byt/3+1/praha-zizkov-borivojova/2174390348",
      "listing_published_at": "2026-05-11",
      "listing_updated_at": "2026-07-23"
    },
    {
      "id": "sr_3359039564",
      "price": 32000,
      "lat": 50.0993385,
      "lng": 14.429088,
      "sqm": 81,
      "rooms": 3,
      "property_type": "flat",
      "address": "Milady Horákové, Holešovice, Praha",
      "zone": "Holešovice",
      "url": "https://www.sreality.cz/detail/pronajem/byt/3+kk/praha-holesovice-milady-horakove/3359039564",
      "listing_published_at": "2026-07-19",
      "listing_updated_at": "2026-07-23"
    },
    {
      "id": "sr_1275741004",
      "price": 30000,
      "lat": 50.0519055513,
      "lng": 14.3139063142,
      "sqm": 68,
      "rooms": 3,
      "property_type": "flat",
      "address": "Kocianova, Stodůlky, Praha",
      "zone": "Stodůlky",
      "url": "https://www.sreality.cz/detail/pronajem/byt/3+kk/praha-stodulky-kocianova/1275741004",
      "listing_published_at": "2026-03-19",
      "listing_updated_at": "2026-07-23"
    },
    {
      "id": "sr_3181084748",
      "price": 45000,
      "lat": 50.0887209,
      "lng": 14.4167822,
      "sqm": 130,
      "rooms": 3,
      "property_type": "flat",
      "address": "Valentinská, Josefov, Praha",
      "zone": "Josefov",
      "url": "https://www.sreality.cz/detail/pronajem/byt/3+1/praha-josefov-valentinska/3181084748",
      "listing_published_at": "2026-05-27",
      "listing_updated_at": "2026-07-23"
    },
    {
      "id": "sr_2604064844",
      "price": 35000,
      "lat": 50.0720406,
      "lng": 14.4397802,
      "sqm": 78,
      "rooms": 2,
      "property_type": "flat",
      "address": "Jana Masaryka, Vinohrady, Praha",
      "zone": "Vinohrady",
      "url": "https://www.sreality.cz/detail/pronajem/byt/2+kk/praha-vinohrady-jana-masaryka/2604064844",
      "listing_published_at": "2026-07-19",
      "listing_updated_at": "2026-07-23"
    },
    {
      "id": "sr_384229452",
      "price": 46000,
      "lat": 50.0753707886367,
      "lng": 14.4039404534471,
      "sqm": 129,
      "rooms": 3,
      "property_type": "flat",
      "address": "Štefánikova, Smíchov, Praha",
      "zone": "Smíchov",
      "url": "https://www.sreality.cz/detail/pronajem/byt/3+1/praha-smichov-stefanikova/384229452",
      "listing_published_at": "2026-07-20",
      "listing_updated_at": "2026-07-23"
    },
    {
      "id": "sr_631169100",
      "price": 52000,
      "lat": 50.0743431125687,
      "lng": 14.4149902066748,
      "sqm": 110,
      "rooms": 5,
      "property_type": "flat",
      "address": "Gorazdova, Nové Město, Praha",
      "zone": "Nové Město",
      "url": "https://www.sreality.cz/detail/pronajem/byt/5+kk/praha-nove-mesto-gorazdova/631169100",
      "listing_published_at": "2026-07-09",
      "listing_updated_at": "2026-07-23"
    },
    {
      "id": "sr_2110058572",
      "price": 29000,
      "lat": 50.0479425810541,
      "lng": 14.4816968724219,
      "sqm": 66,
      "rooms": 3,
      "property_type": "flat",
      "address": "Severní I, Záběhlice, Praha",
      "zone": "Záběhlice",
      "url": "https://www.sreality.cz/detail/pronajem/byt/3+1/praha-zabehlice-severni-i/2110058572",
      "listing_published_at": "2026-07-01",
      "listing_updated_at": "2026-07-23"
    },
    {
      "id": "sr_3195314252",
      "price": 19000,
      "lat": 50.047515362003,
      "lng": 14.44262000886,
      "sqm": 39,
      "rooms": 2,
      "property_type": "flat",
      "address": "Krchlebská, Krč, Praha",
      "zone": "Krč",
      "url": "https://www.sreality.cz/detail/pronajem/byt/2+kk/praha-krc-krchlebska/3195314252",
      "listing_published_at": "2026-05-07",
      "listing_updated_at": "2026-07-23"
    },
    {
      "id": "sr_3236077644",
      "price": 23300,
      "lat": 50.0583616667,
      "lng": 14.4426122222,
      "sqm": 47,
      "rooms": 2,
      "property_type": "flat",
      "address": "Pod lázní, Nusle, Praha",
      "zone": "Nusle",
      "url": "https://www.sreality.cz/detail/pronajem/byt/2+kk/praha-nusle-pod-lazni/3236077644",
      "listing_published_at": "2026-04-30",
      "listing_updated_at": "2026-07-23"
    },
    {
      "id": "sr_1696051276",
      "price": 26000,
      "lat": 50.0708179778057,
      "lng": 14.4588507132907,
      "sqm": 58,
      "rooms": 2,
      "property_type": "flat",
      "address": "Kodaňská, Vršovice, Praha",
      "zone": "Vršovice",
      "url": "https://www.sreality.cz/detail/pronajem/byt/2+kk/praha-vrsovice-kodanska/1696051276",
      "listing_published_at": "2026-04-17",
      "listing_updated_at": "2026-07-23"
    },
    {
      "id": "sr_4034741068",
      "price": 19900,
      "lat": 50.0709417862111,
      "lng": 14.4481966926959,
      "sqm": 43,
      "rooms": 1,
      "property_type": "flat",
      "address": "Sevastopolská, Vršovice, Praha",
      "zone": "Vršovice",
      "url": "https://www.sreality.cz/detail/pronajem/byt/1+1/praha-vrsovice-sevastopolska/4034741068",
      "listing_published_at": "2026-03-24",
      "listing_updated_at": "2026-07-23"
    },
    {
      "id": "sr_2901177164",
      "price": 27500,
      "lat": 50.0844998403337,
      "lng": 14.4854803227137,
      "sqm": 68,
      "rooms": 2,
      "property_type": "flat",
      "address": "Zvěřinova, Strašnice, Praha",
      "zone": "Strašnice",
      "url": "https://www.sreality.cz/detail/pronajem/byt/2+kk/praha-strasnice-zverinova/2901177164",
      "listing_published_at": "2026-02-01",
      "listing_updated_at": "2026-07-23"
    },
    {
      "id": "sr_515039308",
      "price": 60000,
      "lat": 50.0753087782274,
      "lng": 14.4056549325744,
      "sqm": 168,
      "rooms": 5,
      "property_type": "flat",
      "address": "Smíchov, Praha",
      "zone": "Smíchov",
      "url": "https://www.sreality.cz/detail/pronajem/byt/5+1/praha-smichov/515039308",
      "listing_published_at": "2026-07-14",
      "listing_updated_at": "2026-07-23"
    },
    {
      "id": "sr_3383943244",
      "price": 60000,
      "lat": 50.0753087782274,
      "lng": 14.4056549325744,
      "sqm": 168,
      "rooms": 5,
      "property_type": "flat",
      "address": "Smíchov, Praha",
      "zone": "Smíchov",
      "url": "https://www.sreality.cz/detail/pronajem/byt/5+1/praha-smichov/3383943244",
      "listing_published_at": "2026-07-14",
      "listing_updated_at": "2026-07-23"
    },
    {
      "id": "sr_2828197964",
      "price": 30000,
      "lat": 50.0841944009487,
      "lng": 14.4571370952232,
      "sqm": 73,
      "rooms": 2,
      "property_type": "flat",
      "address": "Prokopova, Žižkov, Praha",
      "zone": "Žižkov",
      "url": "https://www.sreality.cz/detail/pronajem/byt/2+kk/praha-zizkov-prokopova/2828197964",
      "listing_published_at": "2026-07-15",
      "listing_updated_at": "2026-07-23"
    },
    {
      "id": "sr_570979148",
      "price": 45000,
      "lat": 50.0738601,
      "lng": 14.3942731,
      "sqm": 73,
      "rooms": 2,
      "property_type": "flat",
      "address": "Holečkova, Praha 5, Praha",
      "zone": "Praha 5",
      "url": "https://www.sreality.cz/detail/pronajem/byt/2+kk/praha-praha-5-holeckova/570979148",
      "listing_published_at": "2026-01-27",
      "listing_updated_at": "2026-07-23"
    },
    {
      "id": "sr_3637502028",
      "price": 33500,
      "lat": 50.057079972,
      "lng": 14.4707882244,
      "sqm": 61,
      "rooms": 2,
      "property_type": "flat",
      "address": "U Plynárny, Michle, Praha",
      "zone": "Michle",
      "url": "https://www.sreality.cz/detail/pronajem/byt/2+kk/praha-michle-u-plynarny/3637502028",
      "listing_published_at": "2026-07-08",
      "listing_updated_at": "2026-07-23"
    },
    {
      "id": "sr_4106608716",
      "price": 21000,
      "lat": 50.101027,
      "lng": 14.427558,
      "sqm": 46,
      "rooms": 1,
      "property_type": "flat",
      "address": "Veletržní, Holešovice, Praha",
      "zone": "Holešovice",
      "url": "https://www.sreality.cz/detail/pronajem/byt/1+1/praha-holesovice-veletrzni/4106608716",
      "listing_published_at": "2026-07-21",
      "listing_updated_at": "2026-07-23"
    },
    {
      "id": "sr_1996148812",
      "price": 22000,
      "lat": 50.1029268172206,
      "lng": 14.5483288944611,
      "sqm": 45,
      "rooms": 2,
      "property_type": "flat",
      "address": "Slévačská, Hloubětín, Praha",
      "zone": "Hloubětín",
      "url": "https://www.sreality.cz/detail/pronajem/byt/2+kk/praha-hloubetin-slevacska/1996148812",
      "listing_published_at": "2026-07-23",
      "listing_updated_at": "2026-07-23"
    },
    {
      "id": "sr_907849804",
      "price": 28000,
      "lat": 50.0731028,
      "lng": 14.397186,
      "sqm": 56,
      "rooms": 2,
      "property_type": "flat",
      "address": "Grafická, Smíchov, Praha",
      "zone": "Smíchov",
      "url": "https://www.sreality.cz/detail/pronajem/byt/2+kk/praha-smichov-graficka/907849804",
      "listing_published_at": "2026-04-13",
      "listing_updated_at": "2026-07-23"
    },
    {
      "id": "sr_3445592140",
      "price": 85000,
      "lat": 50.0920118075,
      "lng": 14.3715091597,
      "sqm": 138,
      "rooms": 4,
      "property_type": "flat",
      "address": "Pod bateriemi, Střešovice, Praha",
      "zone": "Střešovice",
      "url": "https://www.sreality.cz/detail/pronajem/byt/4+1/praha-stresovice-pod-bateriemi/3445592140",
      "listing_published_at": "2026-05-13",
      "listing_updated_at": "2026-07-23"
    },
    {
      "id": "sr_3473465420",
      "price": 45000,
      "lat": 50.0805399311,
      "lng": 14.404421244,
      "sqm": 98,
      "rooms": 3,
      "property_type": "flat",
      "address": "Újezd, Malá Strana, Praha",
      "zone": "Malá Strana",
      "url": "https://www.sreality.cz/detail/pronajem/byt/3+kk/praha-mala-strana-ujezd/3473465420",
      "listing_published_at": "2026-07-07",
      "listing_updated_at": "2026-07-23"
    },
    {
      "id": "sr_2240053324",
      "price": 24000,
      "lat": 50.0848013205,
      "lng": 14.4839984726,
      "sqm": 48,
      "rooms": 1,
      "property_type": "flat",
      "address": "Zvěřinova, Strašnice, Praha",
      "zone": "Strašnice",
      "url": "https://www.sreality.cz/detail/pronajem/byt/1+kk/praha-strasnice-zverinova/2240053324",
      "listing_published_at": "2026-06-11",
      "listing_updated_at": "2026-07-23"
    },
    {
      "id": "sr_387833932",
      "price": 66500,
      "lat": 50.0936893344225,
      "lng": 14.4461776097827,
      "sqm": 92,
      "rooms": 3,
      "property_type": "flat",
      "address": "Rohanské nábřeží, Karlín, Praha",
      "zone": "Karlín",
      "url": "https://www.sreality.cz/detail/pronajem/byt/3+kk/praha-karlin-rohanske-nabrezi/387833932",
      "listing_published_at": "2026-07-10",
      "listing_updated_at": "2026-07-23"
    },
    {
      "id": "sr_4225622092",
      "price": 42000,
      "lat": 50.0936893344225,
      "lng": 14.4461776097827,
      "sqm": 58,
      "rooms": 2,
      "property_type": "flat",
      "address": "Rohanské nábřeží, Karlín, Praha",
      "zone": "Karlín",
      "url": "https://www.sreality.cz/detail/pronajem/byt/2+kk/praha-karlin-rohanske-nabrezi/4225622092",
      "listing_published_at": "2026-07-10",
      "listing_updated_at": "2026-07-23"
    },
    {
      "id": "sr_3629490252",
      "price": 52000,
      "lat": 50.0626469077,
      "lng": 14.4269663551,
      "sqm": 101,
      "rooms": 4,
      "property_type": "flat",
      "address": "Na Bučance, Nusle, Praha",
      "zone": "Nusle",
      "url": "https://www.sreality.cz/detail/pronajem/byt/4+kk/praha-nusle-na-bucance/3629490252",
      "listing_published_at": "2026-05-06",
      "listing_updated_at": "2026-07-23"
    },
    {
      "id": "sr_1525338188",
      "price": 35000,
      "lat": 50.0792905880747,
      "lng": 14.4477406773643,
      "sqm": 112,
      "rooms": 3,
      "property_type": "flat",
      "address": "Slavíkova, Vinohrady, Praha",
      "zone": "Vinohrady",
      "url": "https://www.sreality.cz/detail/pronajem/byt/3+1/praha-vinohrady-slavikova/1525338188",
      "listing_published_at": "2026-07-23",
      "listing_updated_at": "2026-07-23"
    },
    {
      "id": "sr_2779500620",
      "price": 30000,
      "lat": 50.0698781613139,
      "lng": 14.490441257267,
      "sqm": 67,
      "rooms": 3,
      "property_type": "flat",
      "address": "Průběžná, Strašnice, Praha",
      "zone": "Strašnice",
      "url": "https://www.sreality.cz/detail/pronajem/byt/3+kk/praha-strasnice-prubezna/2779500620",
      "listing_published_at": "2026-07-22",
      "listing_updated_at": "2026-07-23"
    },
    {
      "id": "sr_1274479436",
      "price": 32000,
      "lat": 50.07177396114378,
      "lng": 14.441295890711354,
      "sqm": 66,
      "rooms": 3,
      "property_type": "flat",
      "address": "Máchova, Vinohrady, Praha",
      "zone": "Vinohrady",
      "url": "https://www.sreality.cz/detail/pronajem/byt/3+kk/praha-vinohrady-machova/1274479436",
      "listing_published_at": "2026-01-19",
      "listing_updated_at": "2026-07-23"
    },
    {
      "id": "sr_2835783756",
      "price": 41000,
      "lat": 50.0775996487556,
      "lng": 14.418645679859026,
      "sqm": 81,
      "rooms": 3,
      "property_type": "flat",
      "address": "Odborů, Nové Město, Praha",
      "zone": "Nové Město",
      "url": "https://www.sreality.cz/detail/pronajem/byt/3+1/praha-nove-mesto-odboru/2835783756",
      "listing_published_at": "2026-05-05",
      "listing_updated_at": "2026-07-23"
    },
    {
      "id": "sr_2704572492",
      "price": 23000,
      "lat": 50.07177396114378,
      "lng": 14.441295890711354,
      "sqm": 40,
      "rooms": 1,
      "property_type": "flat",
      "address": "Máchova, Vinohrady, Praha",
      "zone": "Vinohrady",
      "url": "https://www.sreality.cz/detail/pronajem/byt/1+1/praha-vinohrady-machova/2704572492",
      "listing_published_at": "2026-06-11",
      "listing_updated_at": "2026-07-23"
    },
    {
      "id": "sr_692838476",
      "price": 42000,
      "lat": 50.07798660381497,
      "lng": 14.408157412367508,
      "sqm": 83,
      "rooms": 3,
      "property_type": "flat",
      "address": "Janáčkovo nábřeží, Smíchov, Praha",
      "zone": "Smíchov",
      "url": "https://www.sreality.cz/detail/pronajem/byt/3+1/praha-smichov-janackovo-nabrezi/692838476",
      "listing_published_at": "2026-07-01",
      "listing_updated_at": "2026-07-23"
    },
    {
      "id": "sr_3885555788",
      "price": 36000,
      "lat": 50.08217956691154,
      "lng": 14.404481219462888,
      "sqm": 73,
      "rooms": 2,
      "property_type": "flat",
      "address": "Újezd, Malá Strana, Praha",
      "zone": "Malá Strana",
      "url": "https://www.sreality.cz/detail/pronajem/byt/2+kk/praha-mala-strana-ujezd/3885555788",
      "listing_published_at": "2026-07-07",
      "listing_updated_at": "2026-07-23"
    },
    {
      "id": "sr_238179148",
      "price": 73000,
      "lat": 50.0908543474,
      "lng": 14.4176150264,
      "sqm": 142,
      "rooms": 3,
      "property_type": "flat",
      "address": "Břehová, Josefov, Praha",
      "zone": "Josefov",
      "url": "https://www.sreality.cz/detail/pronajem/byt/3+1/praha-josefov-brehova/238179148",
      "listing_published_at": "2026-03-11",
      "listing_updated_at": "2026-07-23"
    },
    {
      "id": "sr_3866357836",
      "price": 37000,
      "lat": 50.0901974,
      "lng": 14.3845528,
      "sqm": 73,
      "rooms": 4,
      "property_type": "flat",
      "address": "Patočkova, Střešovice, Praha",
      "zone": "Střešovice",
      "url": "https://www.sreality.cz/detail/pronajem/byt/4+1/praha-stresovice-patockova/3866357836",
      "listing_published_at": "2026-06-22",
      "listing_updated_at": "2026-07-23"
    },
    {
      "id": "sr_3979468876",
      "price": 34000,
      "lat": 50.0886167416,
      "lng": 14.4637660791,
      "sqm": 75,
      "rooms": 3,
      "property_type": "flat",
      "address": "Domažlická, Žižkov, Praha",
      "zone": "Žižkov",
      "url": "https://www.sreality.cz/detail/pronajem/byt/3+kk/praha-zizkov-domazlicka/3979468876",
      "listing_published_at": "2026-07-15",
      "listing_updated_at": "2026-07-23"
    },
    {
      "id": "sr_662564940",
      "price": 35900,
      "lat": 50.0555568346735,
      "lng": 14.291689861342,
      "sqm": 80,
      "rooms": 3,
      "property_type": "flat",
      "address": "Do zahrádek II, Třebonice, Praha",
      "zone": "Třebonice",
      "url": "https://www.sreality.cz/detail/pronajem/byt/3+kk/praha-trebonice-do-zahradek-ii/662564940",
      "listing_published_at": "2026-06-19",
      "listing_updated_at": "2026-07-23"
    },
    {
      "id": "sr_1016328268",
      "price": 25000,
      "lat": 50.0831780671,
      "lng": 14.3584146247,
      "sqm": 53,
      "rooms": 2,
      "property_type": "flat",
      "address": "Bělohorská, Břevnov, Praha",
      "zone": "Břevnov",
      "url": "https://www.sreality.cz/detail/pronajem/byt/2+1/praha-brevnov-belohorska/1016328268",
      "listing_published_at": "2026-06-23",
      "listing_updated_at": "2026-07-23"
    },
    {
      "id": "sr_284860492",
      "price": 16990,
      "lat": 49.9647661801092,
      "lng": 14.3956448071965,
      "sqm": 45,
      "rooms": 1,
      "property_type": "flat",
      "address": "Spojařů, Zbraslav, Praha",
      "zone": "Zbraslav",
      "url": "https://www.sreality.cz/detail/pronajem/byt/1+kk/praha-zbraslav-spojaru/284860492",
      "listing_published_at": "2026-04-23",
      "listing_updated_at": "2026-07-23"
    },
    {
      "id": "sr_839315532",
      "price": 21000,
      "lat": 50.0962788436478,
      "lng": 14.3598286644428,
      "sqm": 49,
      "rooms": 2,
      "property_type": "flat",
      "address": "Kladenská, Vokovice, Praha",
      "zone": "Vokovice",
      "url": "https://www.sreality.cz/detail/pronajem/byt/2+1/praha-vokovice-kladenska/839315532",
      "listing_published_at": "2026-06-29",
      "listing_updated_at": "2026-07-23"
    },
    {
      "id": "sr_596369484",
      "price": 20000,
      "lat": 50.0650528576717,
      "lng": 14.429058809977,
      "sqm": 58,
      "rooms": 2,
      "property_type": "flat",
      "address": "Jaromírova, Nusle, Praha",
      "zone": "Nusle",
      "url": "https://www.sreality.cz/detail/pronajem/byt/2+kk/praha-nusle-jaromirova/596369484",
      "listing_published_at": "2026-07-02",
      "listing_updated_at": "2026-07-23"
    },
    {
      "id": "sr_1902047308",
      "price": 17000,
      "lat": 50.0913018374581,
      "lng": 14.3213538377271,
      "sqm": 32,
      "rooms": 1,
      "property_type": "flat",
      "address": "Ke Džbánu, Liboc, Praha",
      "zone": "Liboc",
      "url": "https://www.sreality.cz/detail/pronajem/byt/1+1/praha-liboc-ke-dzbanu/1902047308",
      "listing_published_at": "2026-06-18",
      "listing_updated_at": "2026-07-23"
    },
    {
      "id": "sr_2315100236",
      "price": 18900,
      "lat": 50.1215793026072,
      "lng": 14.4818964687465,
      "sqm": 32,
      "rooms": 1,
      "property_type": "flat",
      "address": "Habartická, Střížkov, Praha",
      "zone": "Střížkov",
      "url": "https://www.sreality.cz/detail/pronajem/byt/1+kk/praha-strizkov-habarticka/2315100236",
      "listing_published_at": "2026-04-28",
      "listing_updated_at": "2026-07-23"
    },
    {
      "id": "sr_2606620748",
      "price": 22990,
      "lat": 50.051766800096,
      "lng": 14.314627970013,
      "sqm": 63,
      "rooms": 3,
      "property_type": "flat",
      "address": "Kocianova, Stodůlky, Praha",
      "zone": "Stodůlky",
      "url": "https://www.sreality.cz/detail/pronajem/byt/3+kk/praha-stodulky-kocianova/2606620748",
      "listing_published_at": "2026-07-09",
      "listing_updated_at": "2026-07-23"
    },
    {
      "id": "sr_3236950092",
      "price": 29000,
      "lat": 50.107836545455,
      "lng": 14.5338445914575,
      "sqm": 65,
      "rooms": 3,
      "property_type": "flat",
      "address": "Sadská, Hloubětín, Praha",
      "zone": "Hloubětín",
      "url": "https://www.sreality.cz/detail/pronajem/byt/3+1/praha-hloubetin-sadska/3236950092",
      "listing_published_at": "2026-06-17",
      "listing_updated_at": "2026-07-23"
    },
    {
      "id": "sr_3718901836",
      "price": 14500,
      "lat": 50.0707218607833,
      "lng": 14.4491917003552,
      "sqm": 18,
      "rooms": 1,
      "property_type": "flat",
      "address": "Černomořská, Vršovice, Praha",
      "zone": "Vršovice",
      "url": "https://www.sreality.cz/detail/pronajem/byt/1+kk/praha-vrsovice-cernomorska/3718901836",
      "listing_published_at": "2026-06-15",
      "listing_updated_at": "2026-07-23"
    },
    {
      "id": "sr_1952743500",
      "price": 25000,
      "lat": 50.0243472717577,
      "lng": 14.4330270335741,
      "sqm": 61,
      "rooms": 3,
      "property_type": "flat",
      "address": "Jílovská, Braník, Praha",
      "zone": "Braník",
      "url": "https://www.sreality.cz/detail/pronajem/byt/3+kk/praha-branik-jilovska/1952743500",
      "listing_published_at": "2026-06-11",
      "listing_updated_at": "2026-07-23"
    },
    {
      "id": "sr_867532876",
      "price": 18500,
      "lat": 50.1085954069463,
      "lng": 14.5273548382176,
      "sqm": 40,
      "rooms": 1,
      "property_type": "flat",
      "address": "Granitova, Hloubětín, Praha",
      "zone": "Hloubětín",
      "url": "https://www.sreality.cz/detail/pronajem/byt/1+kk/praha-hloubetin-granitova/867532876",
      "listing_published_at": "2026-06-10",
      "listing_updated_at": "2026-07-23"
    },
    {
      "id": "sr_1920303180",
      "price": 24800,
      "lat": 50.0475303,
      "lng": 14.2958443,
      "sqm": 46,
      "rooms": 2,
      "property_type": "flat",
      "address": "Thomasova, Třebonice, Praha",
      "zone": "Třebonice",
      "url": "https://www.sreality.cz/detail/pronajem/byt/2+kk/praha-trebonice-thomasova/1920303180",
      "listing_published_at": "2026-06-10",
      "listing_updated_at": "2026-07-23"
    },
    {
      "id": "sr_1736540236",
      "price": 20490,
      "lat": 50.1029950250416,
      "lng": 14.5066562376206,
      "sqm": 44,
      "rooms": 1,
      "property_type": "flat",
      "address": "Bukačova, Vysočany, Praha",
      "zone": "Vysočany",
      "url": "https://www.sreality.cz/detail/pronajem/byt/1+kk/praha-vysocany-bukacova/1736540236",
      "listing_published_at": "2026-06-06",
      "listing_updated_at": "2026-07-23"
    },
    {
      "id": "sr_1356759116",
      "price": 21500,
      "lat": 50.0990212688376,
      "lng": 14.4899422784497,
      "sqm": 44,
      "rooms": 2,
      "property_type": "flat",
      "address": "Skloněná, Vysočany, Praha",
      "zone": "Vysočany",
      "url": "https://www.sreality.cz/detail/pronajem/byt/2+kk/praha-vysocany-sklonena/1356759116",
      "listing_published_at": "2026-06-01",
      "listing_updated_at": "2026-07-23"
    },
    {
      "id": "sr_556695628",
      "price": 17000,
      "lat": 50.1224099462637,
      "lng": 14.488966474135,
      "sqm": 26,
      "rooms": 1,
      "property_type": "flat",
      "address": "Bílinská, Prosek, Praha",
      "zone": "Prosek",
      "url": "https://www.sreality.cz/detail/pronajem/byt/1+kk/praha-prosek-bilinska/556695628",
      "listing_published_at": "2026-06-01",
      "listing_updated_at": "2026-07-23"
    },
    {
      "id": "sr_3505356876",
      "price": 26990,
      "lat": 50.0243472717577,
      "lng": 14.4330270335741,
      "sqm": 62,
      "rooms": 3,
      "property_type": "flat",
      "address": "Jílovská, Braník, Praha",
      "zone": "Braník",
      "url": "https://www.sreality.cz/detail/pronajem/byt/3+kk/praha-branik-jilovska/3505356876",
      "listing_published_at": "2026-05-31",
      "listing_updated_at": "2026-07-23"
    },
    {
      "id": "sr_1999381324",
      "price": 30900,
      "lat": 50.0147015863274,
      "lng": 14.4340579637693,
      "sqm": 68,
      "rooms": 3,
      "property_type": "flat",
      "address": "Zárubova, Kamýk, Praha",
      "zone": "Kamýk",
      "url": "https://www.sreality.cz/detail/pronajem/byt/3+kk/praha-kamyk-zarubova/1999381324",
      "listing_published_at": "2025-11-20",
      "listing_updated_at": "2026-07-23"
    },
    {
      "id": "sr_2458878028",
      "price": 28500,
      "lat": 50.1050992804426,
      "lng": 14.5687334918709,
      "sqm": 80,
      "rooms": 3,
      "property_type": "flat",
      "address": "Generála Janouška, Černý Most, Praha",
      "zone": "Černý Most",
      "url": "https://www.sreality.cz/detail/pronajem/byt/3+1/praha-cerny-most-generala-janouska/2458878028",
      "listing_published_at": "2026-06-01",
      "listing_updated_at": "2026-07-23"
    },
    {
      "id": "sr_3287253068",
      "price": 21900,
      "lat": 50.0665530945484,
      "lng": 14.4695164610315,
      "sqm": 54,
      "rooms": 2,
      "property_type": "flat",
      "address": "U Slavie, Vršovice, Praha",
      "zone": "Vršovice",
      "url": "https://www.sreality.cz/detail/pronajem/byt/2+1/praha-vrsovice-u-slavie/3287253068",
      "listing_published_at": "2026-05-31",
      "listing_updated_at": "2026-07-23"
    },
    {
      "id": "sr_1911521356",
      "price": 21500,
      "lat": 50.0382141256149,
      "lng": 14.4330597248861,
      "sqm": 39,
      "rooms": 2,
      "property_type": "flat",
      "address": "Točitá, Krč, Praha",
      "zone": "Krč",
      "url": "https://www.sreality.cz/detail/pronajem/byt/2+kk/praha-krc-tocita/1911521356",
      "listing_published_at": "2026-05-31",
      "listing_updated_at": "2026-07-23"
    },
    {
      "id": "sr_1099923532",
      "price": 19900,
      "lat": 50.0545093197452,
      "lng": 14.5123403434909,
      "sqm": 53,
      "rooms": 2,
      "property_type": "flat",
      "address": "Jasmínová, Záběhlice, Praha",
      "zone": "Záběhlice",
      "url": "https://www.sreality.cz/detail/pronajem/byt/2+1/praha-zabehlice-jasminova/1099923532",
      "listing_published_at": "2026-06-01",
      "listing_updated_at": "2026-07-23"
    },
    {
      "id": "sr_1408204876",
      "price": 33000,
      "lat": 50.0877413620335,
      "lng": 14.4257409931516,
      "sqm": 68,
      "rooms": 3,
      "property_type": "flat",
      "address": "Templová, Staré Město, Praha",
      "zone": "Staré Město",
      "url": "https://www.sreality.cz/detail/pronajem/byt/3+kk/praha-stare-mesto-templova/1408204876",
      "listing_published_at": "2026-05-31",
      "listing_updated_at": "2026-07-23"
    },
    {
      "id": "sr_86605900",
      "price": 14200,
      "lat": 50.1252689,
      "lng": 14.4838117,
      "sqm": 23,
      "rooms": 1,
      "property_type": "flat",
      "address": "Děčínská, Střížkov, Praha",
      "zone": "Střížkov",
      "url": "https://www.sreality.cz/detail/pronajem/byt/1+kk/praha-strizkov-decinska/86605900",
      "listing_published_at": "2026-05-28",
      "listing_updated_at": "2026-07-23"
    },
    {
      "id": "sr_1906479180",
      "price": 24490,
      "lat": 50.0656,
      "lng": 14.5518,
      "sqm": 55,
      "rooms": 2,
      "property_type": "flat",
      "address": "Kryšpínova, Štěrboholy, Praha",
      "zone": "Štěrboholy",
      "url": "https://www.sreality.cz/detail/pronajem/byt/2+kk/praha-sterboholy-kryspinova/1906479180",
      "listing_published_at": "2026-05-19",
      "listing_updated_at": "2026-07-23"
    },
    {
      "id": "sr_1763344460",
      "price": 20400,
      "lat": 50.0636771522236,
      "lng": 14.436553982372,
      "sqm": 34,
      "rooms": 1,
      "property_type": "flat",
      "address": "Boleslavova, Nusle, Praha",
      "zone": "Nusle",
      "url": "https://www.sreality.cz/detail/pronajem/byt/1+1/praha-nusle-boleslavova/1763344460",
      "listing_published_at": "2026-05-27",
      "listing_updated_at": "2026-07-23"
    },
    {
      "id": "sr_2350547020",
      "price": 23900,
      "lat": 50.0517807854053,
      "lng": 14.442018876479,
      "sqm": 70,
      "rooms": 2,
      "property_type": "flat",
      "address": "Doudlebská, Nusle, Praha",
      "zone": "Nusle",
      "url": "https://www.sreality.cz/detail/pronajem/byt/2+kk/praha-nusle-doudlebska/2350547020",
      "listing_published_at": "2026-05-27",
      "listing_updated_at": "2026-07-23"
    },
    {
      "id": "sr_990543948",
      "price": 18900,
      "lat": 50.1041313330879,
      "lng": 14.5282466457973,
      "sqm": 54,
      "rooms": 2,
      "property_type": "flat",
      "address": "Poděbradská, Hloubětín, Praha",
      "zone": "Hloubětín",
      "url": "https://www.sreality.cz/detail/pronajem/byt/2+1/praha-hloubetin-podebradska/990543948",
      "listing_published_at": "2026-05-27",
      "listing_updated_at": "2026-07-23"
    },
    {
      "id": "sr_977961036",
      "price": 22400,
      "lat": 50.0713321743818,
      "lng": 14.3461257333278,
      "sqm": 48,
      "rooms": 2,
      "property_type": "flat",
      "address": "Kudrnova, Motol, Praha",
      "zone": "Motol",
      "url": "https://www.sreality.cz/detail/pronajem/byt/2+kk/praha-motol-kudrnova/977961036",
      "listing_published_at": "2026-05-27",
      "listing_updated_at": "2026-07-23"
    },
    {
      "id": "sr_2459664460",
      "price": 30000,
      "lat": 50.0914113472042,
      "lng": 14.3023614171172,
      "sqm": 77,
      "rooms": 3,
      "property_type": "flat",
      "address": "Dědinská, Ruzyně, Praha",
      "zone": "Ruzyně",
      "url": "https://www.sreality.cz/detail/pronajem/byt/3+kk/praha-ruzyne-dedinska/2459664460",
      "listing_published_at": "2026-05-27",
      "listing_updated_at": "2026-07-23"
    },
    {
      "id": "sr_818643020",
      "price": 32900,
      "lat": 50.1031681370238,
      "lng": 14.507174749626,
      "sqm": 82,
      "rooms": 3,
      "property_type": "flat",
      "address": "Gerstelova, Vysočany, Praha",
      "zone": "Vysočany",
      "url": "https://www.sreality.cz/detail/pronajem/byt/3+kk/praha-vysocany-gerstelova/818643020",
      "listing_published_at": "2026-05-26",
      "listing_updated_at": "2026-07-23"
    },
    {
      "id": "sr_843354188",
      "price": 26890,
      "lat": 50.0244791459251,
      "lng": 14.4945891887672,
      "sqm": 78,
      "rooms": 3,
      "property_type": "flat",
      "address": "Láskova, Chodov, Praha",
      "zone": "Chodov",
      "url": "https://www.sreality.cz/detail/pronajem/byt/3+1/praha-chodov-laskova/843354188",
      "listing_published_at": "2026-05-25",
      "listing_updated_at": "2026-07-23"
    },
    {
      "id": "sr_1363447884",
      "price": 18600,
      "lat": 50.0895343013349,
      "lng": 14.3847602410593,
      "sqm": 43,
      "rooms": 2,
      "property_type": "flat",
      "address": "Na Hubálce, Střešovice, Praha",
      "zone": "Střešovice",
      "url": "https://www.sreality.cz/detail/pronajem/byt/2+1/praha-stresovice-na-hubalce/1363447884",
      "listing_published_at": "2026-05-25",
      "listing_updated_at": "2026-07-23"
    },
    {
      "id": "sr_3123089484",
      "price": 21500,
      "lat": 50.0768930204613,
      "lng": 14.4649289485697,
      "sqm": 48,
      "rooms": 2,
      "property_type": "flat",
      "address": "Písecká, Vinohrady, Praha",
      "zone": "Vinohrady",
      "url": "https://www.sreality.cz/detail/pronajem/byt/2+kk/praha-vinohrady-pisecka/3123089484",
      "listing_published_at": "2026-05-22",
      "listing_updated_at": "2026-07-23"
    },
    {
      "id": "sr_1012745036",
      "price": 24900,
      "lat": 49.9851742435094,
      "lng": 14.3661707339099,
      "sqm": 74,
      "rooms": 2,
      "property_type": "flat",
      "address": "Věštínská, Radotín, Praha",
      "zone": "Radotín",
      "url": "https://www.sreality.cz/detail/pronajem/byt/2+kk/praha-radotin-vestinska/1012745036",
      "listing_published_at": "2026-03-24",
      "listing_updated_at": "2026-07-23"
    },
    {
      "id": "sr_3775041612",
      "price": 18900,
      "lat": 50.1041313330879,
      "lng": 14.5282466457973,
      "sqm": 37,
      "rooms": 1,
      "property_type": "flat",
      "address": "Poděbradská, Hloubětín, Praha",
      "zone": "Hloubětín",
      "url": "https://www.sreality.cz/detail/pronajem/byt/1+kk/praha-hloubetin-podebradska/3775041612",
      "listing_published_at": "2026-05-18",
      "listing_updated_at": "2026-07-23"
    },
    {
      "id": "sr_4063400012",
      "price": 23900,
      "lat": 50.077423085965,
      "lng": 14.4703570764382,
      "sqm": 47,
      "rooms": 2,
      "property_type": "flat",
      "address": "Kouřimská, Vinohrady, Praha",
      "zone": "Vinohrady",
      "url": "https://www.sreality.cz/detail/pronajem/byt/2+1/praha-vinohrady-kourimska/4063400012",
      "listing_published_at": "2026-05-18",
      "listing_updated_at": "2026-07-23"
    },
    {
      "id": "sr_2668859468",
      "price": 17990,
      "lat": 50.0658419938982,
      "lng": 14.4637430155239,
      "sqm": 34,
      "rooms": 1,
      "property_type": "flat",
      "address": "Baškirská, Vršovice, Praha",
      "zone": "Vršovice",
      "url": "https://www.sreality.cz/detail/pronajem/byt/1+kk/praha-vrsovice-baskirska/2668859468",
      "listing_published_at": "2026-05-18",
      "listing_updated_at": "2026-07-23"
    },
    {
      "id": "sr_4151087180",
      "price": 23700,
      "lat": 50.109680765763,
      "lng": 14.47679605646,
      "sqm": 51,
      "rooms": 3,
      "property_type": "flat",
      "address": "Pivovarnická, Libeň, Praha",
      "zone": "Libeň",
      "url": "https://www.sreality.cz/detail/pronajem/byt/3+kk/praha-liben-pivovarnicka/4151087180",
      "listing_published_at": "2026-05-15",
      "listing_updated_at": "2026-07-23"
    },
    {
      "id": "sr_149786700",
      "price": 21000,
      "lat": 50.0476611889018,
      "lng": 14.4941694917112,
      "sqm": 44,
      "rooms": 2,
      "property_type": "flat",
      "address": "Choceradská, Záběhlice, Praha",
      "zone": "Záběhlice",
      "url": "https://www.sreality.cz/detail/pronajem/byt/2+kk/praha-zabehlice-choceradska/149786700",
      "listing_published_at": "2026-05-15",
      "listing_updated_at": "2026-07-23"
    },
    {
      "id": "sr_1823379532",
      "price": 10900,
      "lat": 50.085710763185,
      "lng": 14.4502951508619,
      "sqm": 10,
      "rooms": 1,
      "property_type": "flat",
      "address": "Cimburkova, Žižkov, Praha",
      "zone": "Žižkov",
      "url": "https://www.sreality.cz/detail/pronajem/byt/1+kk/praha-zizkov-cimburkova/1823379532",
      "listing_published_at": "2026-05-14",
      "listing_updated_at": "2026-07-23"
    },
    {
      "id": "sr_1717870668",
      "price": 16900,
      "lat": 50.0289809056467,
      "lng": 14.6003064350066,
      "sqm": 24,
      "rooms": 1,
      "property_type": "flat",
      "address": "Salačova, Uhříněves, Praha",
      "zone": "Uhříněves",
      "url": "https://www.sreality.cz/detail/pronajem/byt/1+kk/praha-uhrineves-salacova/1717870668",
      "listing_published_at": "2026-05-07",
      "listing_updated_at": "2026-07-23"
    },
    {
      "id": "sr_2375131212",
      "price": 22900,
      "lat": 50.080628,
      "lng": 14.496477,
      "sqm": 54,
      "rooms": 2,
      "property_type": "flat",
      "address": "Nad úžlabinou, Malešice, Praha",
      "zone": "Malešice",
      "url": "https://www.sreality.cz/detail/pronajem/byt/2+1/praha-malesice-nad-uzlabinou/2375131212",
      "listing_published_at": "2026-05-04",
      "listing_updated_at": "2026-07-23"
    },
    {
      "id": "sr_1138925644",
      "price": 17500,
      "lat": 50.090731937087,
      "lng": 14.476322447081,
      "sqm": 22,
      "rooms": 1,
      "property_type": "flat",
      "address": "Biskupcova, Žižkov, Praha",
      "zone": "Žižkov",
      "url": "https://www.sreality.cz/detail/pronajem/byt/1+kk/praha-zizkov-biskupcova/1138925644",
      "listing_published_at": "2026-04-30",
      "listing_updated_at": "2026-07-23"
    },
    {
      "id": "sr_3473055820",
      "price": 16900,
      "lat": 50.1041499659145,
      "lng": 14.5129307632437,
      "sqm": 30,
      "rooms": 1,
      "property_type": "flat",
      "address": "Podkovářská, Vysočany, Praha",
      "zone": "Vysočany",
      "url": "https://www.sreality.cz/detail/pronajem/byt/1+kk/praha-vysocany-podkovarska/3473055820",
      "listing_published_at": "2026-04-30",
      "listing_updated_at": "2026-07-23"
    },
    {
      "id": "sr_178036812",
      "price": 20000,
      "lat": 50.0886958242266,
      "lng": 14.4828411954616,
      "sqm": 32,
      "rooms": 1,
      "property_type": "flat",
      "address": "Olgy Havlové, Žižkov, Praha",
      "zone": "Žižkov",
      "url": "https://www.sreality.cz/detail/pronajem/byt/1+kk/praha-zizkov-olgy-havlove/178036812",
      "listing_published_at": "2026-04-29",
      "listing_updated_at": "2026-07-23"
    },
    {
      "id": "sr_1063100492",
      "price": 32990,
      "lat": 50.047995,
      "lng": 14.462134,
      "sqm": 84,
      "rooms": 4,
      "property_type": "flat",
      "address": "Na úhoru, Michle, Praha",
      "zone": "Michle",
      "url": "https://www.sreality.cz/detail/pronajem/byt/4+kk/praha-michle-na-uhoru/1063100492",
      "listing_published_at": "2026-04-28",
      "listing_updated_at": "2026-07-23"
    },
    {
      "id": "sr_3533611084",
      "price": 30900,
      "lat": 50.006672816361,
      "lng": 14.4533104275833,
      "sqm": 71,
      "rooms": 3,
      "property_type": "flat",
      "address": "Zimova, Kamýk, Praha",
      "zone": "Kamýk",
      "url": "https://www.sreality.cz/detail/pronajem/byt/3+kk/praha-kamyk-zimova/3533611084",
      "listing_published_at": "2026-04-28",
      "listing_updated_at": "2026-07-23"
    },
    {
      "id": "sr_342794316",
      "price": 20000,
      "lat": 50.1041313330824,
      "lng": 14.5282466457732,
      "sqm": 32,
      "rooms": 1,
      "property_type": "flat",
      "address": "Poděbradská, Hloubětín, Praha",
      "zone": "Hloubětín",
      "url": "https://www.sreality.cz/detail/pronajem/byt/1+kk/praha-hloubetin-podebradska/342794316",
      "listing_published_at": "2026-04-27",
      "listing_updated_at": "2026-07-23"
    },
    {
      "id": "sr_3531579468",
      "price": 20900,
      "lat": 50.070008,
      "lng": 14.484017,
      "sqm": 40,
      "rooms": 2,
      "property_type": "flat",
      "address": "Na hroudě, Strašnice, Praha",
      "zone": "Strašnice",
      "url": "https://www.sreality.cz/detail/pronajem/byt/2+kk/praha-strasnice-na-hroude/3531579468",
      "listing_published_at": "2026-04-26",
      "listing_updated_at": "2026-07-23"
    },
    {
      "id": "sr_866820172",
      "price": 25900,
      "lat": 50.1320857011882,
      "lng": 14.4223128289848,
      "sqm": 72,
      "rooms": 3,
      "property_type": "flat",
      "address": "Hlivická, Bohnice, Praha",
      "zone": "Bohnice",
      "url": "https://www.sreality.cz/detail/pronajem/byt/3+kk/praha-bohnice-hlivicka/866820172",
      "listing_published_at": "2026-04-23",
      "listing_updated_at": "2026-07-23"
    },
    {
      "id": "sr_1414176844",
      "price": 14990,
      "lat": 50.0587031778886,
      "lng": 14.4513870182385,
      "sqm": 25,
      "rooms": 1,
      "property_type": "flat",
      "address": "Adamovská, Michle, Praha",
      "zone": "Michle",
      "url": "https://www.sreality.cz/detail/pronajem/byt/1+kk/praha-michle-adamovska/1414176844",
      "listing_published_at": "2026-04-22",
      "listing_updated_at": "2026-07-23"
    },
    {
      "id": "sr_1699389516",
      "price": 18900,
      "lat": 50.10448,
      "lng": 14.478716,
      "sqm": 50,
      "rooms": 2,
      "property_type": "flat",
      "address": "Novákových, Libeň, Praha",
      "zone": "Libeň",
      "url": "https://www.sreality.cz/detail/pronajem/byt/2+kk/praha-liben-novakovych/1699389516",
      "listing_published_at": "2026-04-22",
      "listing_updated_at": "2026-07-23"
    },
    {
      "id": "sr_896180300",
      "price": 31900,
      "lat": 50.1032951084513,
      "lng": 14.4541487911805,
      "sqm": 43,
      "rooms": 1,
      "property_type": "flat",
      "address": "V Háji, Holešovice, Praha",
      "zone": "Holešovice",
      "url": "https://www.sreality.cz/detail/pronajem/byt/1+kk/praha-holesovice-v-haji/896180300",
      "listing_published_at": "2026-04-22",
      "listing_updated_at": "2026-07-23"
    },
    {
      "id": "sr_802336844",
      "price": 24900,
      "lat": 50.0430394545336,
      "lng": 14.5560760727255,
      "sqm": 82,
      "rooms": 3,
      "property_type": "flat",
      "address": "Milánská, Horní Měcholupy, Praha",
      "zone": "Horní Měcholupy",
      "url": "https://www.sreality.cz/detail/pronajem/byt/3+1/praha-horni-mecholupy-milanska/802336844",
      "listing_published_at": "2026-04-15",
      "listing_updated_at": "2026-07-23"
    },
    {
      "id": "sr_393130060",
      "price": 20500,
      "lat": 50.0562512968259,
      "lng": 14.4476143275615,
      "sqm": 53,
      "rooms": 2,
      "property_type": "flat",
      "address": "Družstevní ochoz, Nusle, Praha",
      "zone": "Nusle",
      "url": "https://www.sreality.cz/detail/pronajem/byt/2+1/praha-nusle-druzstevni-ochoz/393130060",
      "listing_published_at": "2026-04-10",
      "listing_updated_at": "2026-07-23"
    },
    {
      "id": "sr_2955915340",
      "price": 27000,
      "lat": 50.0364683883507,
      "lng": 14.3695429785478,
      "sqm": 70,
      "rooms": 3,
      "property_type": "flat",
      "address": "Lamačova, Hlubočepy, Praha",
      "zone": "Hlubočepy",
      "url": "https://www.sreality.cz/detail/pronajem/byt/3+1/praha-hlubocepy-lamacova/2955915340",
      "listing_published_at": "2026-04-09",
      "listing_updated_at": "2026-07-23"
    },
    {
      "id": "sr_482914380",
      "price": 23700,
      "lat": 50.0562804104107,
      "lng": 14.2917647603551,
      "sqm": 51,
      "rooms": 2,
      "property_type": "flat",
      "address": "Do zahrádek I, Třebonice, Praha",
      "zone": "Třebonice",
      "url": "https://www.sreality.cz/detail/pronajem/byt/2+kk/praha-trebonice-do-zahradek-i/482914380",
      "listing_published_at": "2026-04-09",
      "listing_updated_at": "2026-07-23"
    },
    {
      "id": "sr_151274316",
      "price": 17490,
      "lat": 50.0489713631177,
      "lng": 14.4577097669082,
      "sqm": 28,
      "rooms": 1,
      "property_type": "flat",
      "address": "Jemnická, Michle, Praha",
      "zone": "Michle",
      "url": "https://www.sreality.cz/detail/pronajem/byt/1+kk/praha-michle-jemnicka/151274316",
      "listing_published_at": "2026-04-03",
      "listing_updated_at": "2026-07-23"
    },
    {
      "id": "sr_1095570252",
      "price": 20500,
      "lat": 50.057518,
      "lng": 14.554397,
      "sqm": 56,
      "rooms": 2,
      "property_type": "flat",
      "address": "V Osikách, Dolní Měcholupy, Praha",
      "zone": "Dolní Měcholupy",
      "url": "https://www.sreality.cz/detail/pronajem/byt/2+kk/praha-dolni-mecholupy-v-osikach/1095570252",
      "listing_published_at": "2025-12-10",
      "listing_updated_at": "2026-07-23"
    },
    {
      "id": "sr_503595852",
      "price": 17500,
      "lat": 50.0553196760548,
      "lng": 14.5054009891558,
      "sqm": 51,
      "rooms": 2,
      "property_type": "flat",
      "address": "Zvonková, Záběhlice, Praha",
      "zone": "Záběhlice",
      "url": "https://www.sreality.cz/detail/pronajem/byt/2+1/praha-zabehlice-zvonkova/503595852",
      "listing_published_at": "2026-04-03",
      "listing_updated_at": "2026-07-23"
    },
    {
      "id": "sr_891306828",
      "price": 16000,
      "lat": 50.0508015062906,
      "lng": 14.5443783851138,
      "sqm": 39,
      "rooms": 1,
      "property_type": "flat",
      "address": "Gercenova, Hostivař, Praha",
      "zone": "Hostivař",
      "url": "https://www.sreality.cz/detail/pronajem/byt/1+1/praha-hostivar-gercenova/891306828",
      "listing_published_at": "2026-03-30",
      "listing_updated_at": "2026-07-23"
    },
    {
      "id": "sr_3566093132",
      "price": 24900,
      "lat": 50.0425360420221,
      "lng": 14.549793696578,
      "sqm": 70,
      "rooms": 3,
      "property_type": "flat",
      "address": "Padovská, Horní Měcholupy, Praha",
      "zone": "Horní Měcholupy",
      "url": "https://www.sreality.cz/detail/pronajem/byt/3+kk/praha-horni-mecholupy-padovska/3566093132",
      "listing_published_at": "2026-03-24",
      "listing_updated_at": "2026-07-23"
    },
    {
      "id": "sr_1537233740",
      "price": 18500,
      "lat": 50.0213166667,
      "lng": 14.5876188889,
      "sqm": 44,
      "rooms": 1,
      "property_type": "flat",
      "address": "K dálnici, Pitkovice, Praha",
      "zone": "Pitkovice",
      "url": "https://www.sreality.cz/detail/pronajem/byt/1+kk/praha-pitkovice-k-dalnici/1537233740",
      "listing_published_at": "2026-03-13",
      "listing_updated_at": "2026-07-23"
    },
    {
      "id": "sr_4243940172",
      "price": 21900,
      "lat": 50.0990396943576,
      "lng": 14.3551134421452,
      "sqm": 69,
      "rooms": 2,
      "property_type": "flat",
      "address": "Tibetská, Vokovice, Praha",
      "zone": "Vokovice",
      "url": "https://www.sreality.cz/detail/pronajem/byt/2+kk/praha-vokovice-tibetska/4243940172",
      "listing_published_at": "2026-02-27",
      "listing_updated_at": "2026-07-23"
    },
    {
      "id": "sr_2577883980",
      "price": 19900,
      "lat": 50.1459057875206,
      "lng": 14.4761186413529,
      "sqm": 44,
      "rooms": 3,
      "property_type": "flat",
      "address": "Šenovská, Ďáblice, Praha",
      "zone": "Ďáblice",
      "url": "https://www.sreality.cz/detail/pronajem/byt/3+kk/praha-dablice-senovska/2577883980",
      "listing_published_at": "2026-02-25",
      "listing_updated_at": "2026-07-23"
    },
    {
      "id": "sr_979305292",
      "price": 17000,
      "lat": 50.0465458282155,
      "lng": 14.4418763359568,
      "sqm": 45,
      "rooms": 2,
      "property_type": "flat",
      "address": "U nových domů II, Krč, Praha",
      "zone": "Krč",
      "url": "https://www.sreality.cz/detail/pronajem/byt/2+kk/praha-krc-u-novych-domu-ii/979305292",
      "listing_published_at": "2026-01-08",
      "listing_updated_at": "2026-07-23"
    },
    {
      "id": "sr_2625339468",
      "price": 22000,
      "lat": 50.1037847833869,
      "lng": 14.4765805722695,
      "sqm": 46,
      "rooms": 2,
      "property_type": "flat",
      "address": "Novákových, Libeň, Praha",
      "zone": "Libeň",
      "url": "https://www.sreality.cz/detail/pronajem/byt/2+kk/praha-liben-novakovych/2625339468",
      "listing_published_at": "2026-05-26",
      "listing_updated_at": "2026-07-23"
    },
    {
      "id": "sr_4159799372",
      "price": 25000,
      "lat": 50.0592319400701,
      "lng": 14.4256011054108,
      "sqm": 64,
      "rooms": 3,
      "property_type": "flat",
      "address": "Na Topolce, Nusle, Praha",
      "zone": "Nusle",
      "url": "https://www.sreality.cz/detail/pronajem/byt/3+1/praha-nusle-na-topolce/4159799372",
      "listing_published_at": "2026-06-05",
      "listing_updated_at": "2026-07-23"
    },
    {
      "id": "sr_4121944140",
      "price": 28000,
      "lat": 50.0918868394287,
      "lng": 14.4483121387592,
      "sqm": 63,
      "rooms": 3,
      "property_type": "flat",
      "address": "Křižíkova, Karlín, Praha",
      "zone": "Karlín",
      "url": "https://www.sreality.cz/detail/pronajem/byt/3+kk/praha-karlin-krizikova/4121944140",
      "listing_published_at": "2026-07-08",
      "listing_updated_at": "2026-07-23"
    },
    {
      "id": "sr_570875980",
      "price": 19000,
      "lat": 50.0755477540884,
      "lng": 14.4248973657767,
      "sqm": 25,
      "rooms": 1,
      "property_type": "flat",
      "address": "Ječná, Nové Město, Praha",
      "zone": "Nové Město",
      "url": "https://www.sreality.cz/detail/pronajem/byt/1+kk/praha-nove-mesto-jecna/570875980",
      "listing_published_at": "2026-07-19",
      "listing_updated_at": "2026-07-23"
    },
    {
      "id": "sr_518705228",
      "price": 29000,
      "lat": 50.065521399281785,
      "lng": 14.44280038043547,
      "sqm": 72,
      "rooms": 3,
      "property_type": "flat",
      "address": "Ctiradova, Nusle, Praha",
      "zone": "Nusle",
      "url": "https://www.sreality.cz/detail/pronajem/byt/3+kk/praha-nusle-ctiradova/518705228",
      "listing_published_at": "2026-07-23",
      "listing_updated_at": "2026-07-23"
    },
    {
      "id": "sr_3697905740",
      "price": 134800,
      "lat": 50.0788858816,
      "lng": 14.4503023661,
      "sqm": 167,
      "rooms": 4,
      "property_type": "flat",
      "address": "Laubova, Vinohrady, Praha",
      "zone": "Vinohrady",
      "url": "https://www.sreality.cz/detail/pronajem/byt/4+kk/praha-vinohrady-laubova/3697905740",
      "listing_published_at": "2026-05-11",
      "listing_updated_at": "2026-07-23"
    },
    {
      "id": "sr_3855802444",
      "price": 61000,
      "lat": 50.0530555298,
      "lng": 14.5100611314,
      "sqm": 98,
      "rooms": 4,
      "property_type": "flat",
      "address": "Práčská, Záběhlice, Praha",
      "zone": "Záběhlice",
      "url": "https://www.sreality.cz/detail/pronajem/byt/4+kk/praha-zabehlice-pracska/3855802444",
      "listing_published_at": "2026-07-14",
      "listing_updated_at": "2026-07-23"
    },
    {
      "id": "sr_1490325580",
      "price": 21000,
      "lat": 50.1371398432449,
      "lng": 14.5169617682841,
      "sqm": 47,
      "rooms": 2,
      "property_type": "flat",
      "address": "Toužimská, Letňany, Praha",
      "zone": "Letňany",
      "url": "https://www.sreality.cz/detail/pronajem/byt/2+kk/praha-letnany-touzimska/1490325580",
      "listing_published_at": "2026-05-26",
      "listing_updated_at": "2026-07-23"
    },
    {
      "id": "sr_803917900",
      "price": 18500,
      "lat": 50.0818639744684,
      "lng": 14.4537215724225,
      "sqm": 21,
      "rooms": 1,
      "property_type": "flat",
      "address": "Bořivojova, Žižkov, Praha",
      "zone": "Žižkov",
      "url": "https://www.sreality.cz/detail/pronajem/byt/1+kk/praha-zizkov-borivojova/803917900",
      "listing_published_at": "2026-07-23",
      "listing_updated_at": "2026-07-23"
    },
    {
      "id": "sr_3439636556",
      "price": 40000,
      "lat": 50.105916,
      "lng": 14.373129,
      "sqm": 100,
      "rooms": 3,
      "property_type": "flat",
      "address": "Na Pískách, Dejvice, Praha",
      "zone": "Dejvice",
      "url": "https://www.sreality.cz/detail/pronajem/byt/3+1/praha-dejvice-na-piskach/3439636556",
      "listing_published_at": "2026-04-21",
      "listing_updated_at": "2026-07-23"
    },
    {
      "id": "sr_1950453836",
      "price": 21000,
      "lat": 50.0790184792,
      "lng": 14.4194018467,
      "sqm": 47,
      "rooms": 2,
      "property_type": "flat",
      "address": "Spálená, Nové Město, Praha",
      "zone": "Nové Město",
      "url": "https://www.sreality.cz/detail/pronajem/byt/2+kk/praha-nove-mesto-spalena/1950453836",
      "listing_published_at": "2026-05-19",
      "listing_updated_at": "2026-07-23"
    },
    {
      "id": "sr_3366158412",
      "price": 58500,
      "lat": 50.0534520378595,
      "lng": 14.4097156630624,
      "sqm": 103,
      "rooms": 3,
      "property_type": "flat",
      "address": "U Lihovaru, Smíchov, Praha",
      "zone": "Smíchov",
      "url": "https://www.sreality.cz/detail/pronajem/byt/3+kk/praha-smichov-u-lihovaru/3366158412",
      "listing_published_at": "2026-06-04",
      "listing_updated_at": "2026-07-23"
    },
    {
      "id": "sr_2062856268",
      "price": 54500,
      "lat": 50.0534520378595,
      "lng": 14.4097156630624,
      "sqm": 89,
      "rooms": 3,
      "property_type": "flat",
      "address": "U Lihovaru, Smíchov, Praha",
      "zone": "Smíchov",
      "url": "https://www.sreality.cz/detail/pronajem/byt/3+kk/praha-smichov-u-lihovaru/2062856268",
      "listing_published_at": "2026-04-21",
      "listing_updated_at": "2026-07-23"
    },