{
  "fetched_at": "2026-07-21T08:40:44.620Z",
  "active_count": 191,
  "listings": [
    {
      "id": "sr_3194351692",
      "price": 13000,
      "lat": 50.0861189311815,
      "lng": 14.4554665844411,
      "sqm": 30,
      "rooms": 1,
      "address": "Rokycanova, Žižkov, Praha",
      "zone": "Žižkov",
      "url": "https://www.sreality.cz/detail/pronajem/byt/1+1/praha-zizkov-rokycanova/3194351692",
      "listing_published_at": "2026-06-29",
      "listing_updated_at": "2026-07-21"
    },
    {
      "id": "sr_1846472780",
      "price": 18000,
      "lat": 50.070909,
      "lng": 14.448958,
      "sqm": 35,
      "rooms": 1,
      "address": "Sevastopolská, Vršovice, Praha",
      "zone": "Vršovice",
      "url": "https://www.sreality.cz/detail/pronajem/byt/1+1/praha-vrsovice-sevastopolska/1846472780",
      "listing_published_at": "2026-06-18",
      "listing_updated_at": "2026-07-21"
    },
    {
      "id": "sr_766894156",
      "price": 14900,
      "lat": 50.0862783521653,
      "lng": 14.3742288717154,
      "sqm": 16,
      "rooms": 1,
      "address": "Nad Kajetánkou, Břevnov, Praha",
      "zone": "Břevnov",
      "url": "https://www.sreality.cz/detail/pronajem/byt/1+kk/praha-brevnov-nad-kajetankou/766894156",
      "listing_published_at": "2026-07-21",
      "listing_updated_at": "2026-07-21"
    },
    {
      "id": "sr_1958216524",
      "price": 41900,
      "lat": 50.0848236734402,
      "lng": 14.4467843038323,
      "sqm": 85,
      "rooms": 3,
      "address": "Seifertova, Žižkov, Praha",
      "zone": "Žižkov",
      "url": "https://www.sreality.cz/detail/pronajem/byt/3+kk/praha-zizkov-seifertova/1958216524",
      "listing_published_at": "2026-01-07",
      "listing_updated_at": "2026-07-21"
    },
    {
      "id": "sr_466641484",
      "price": 44900,
      "lat": 50.0814916667,
      "lng": 14.4266722222,
      "sqm": 92,
      "rooms": 3,
      "address": "Václavské náměstí, Nové Město, Praha",
      "zone": "Nové Město",
      "url": "https://www.sreality.cz/detail/pronajem/byt/3+kk/praha-nove-mesto-vaclavske-namesti/466641484",
      "listing_published_at": "2025-04-11",
      "listing_updated_at": "2026-07-21"
    },
    {
      "id": "sr_3475804236",
      "price": 23000,
      "lat": 50.0746851892942,
      "lng": 14.4237557925681,
      "sqm": 44,
      "rooms": 2,
      "address": "Lípová, Nové Město, Praha",
      "zone": "Nové Město",
      "url": "https://www.sreality.cz/detail/pronajem/byt/2+kk/praha-nove-mesto-lipova/3475804236",
      "listing_published_at": "2026-05-15",
      "listing_updated_at": "2026-07-21"
    },
    {
      "id": "sr_2324058956",
      "price": 29000,
      "lat": 50.0917990835605,
      "lng": 14.4221993305347,
      "sqm": 62,
      "rooms": 2,
      "address": "Kozí, Staré Město, Praha",
      "zone": "Staré Město",
      "url": "https://www.sreality.cz/detail/pronajem/byt/2+kk/praha-stare-mesto-kozi/2324058956",
      "listing_published_at": "2026-03-16",
      "listing_updated_at": "2026-07-21"
    },
    {
      "id": "sr_784920652",
      "price": 33679.44,
      "lat": 50.0789804670077,
      "lng": 14.4499923205764,
      "sqm": 50,
      "rooms": 2,
      "address": "Laubova, Vinohrady, Praha",
      "zone": "Vinohrady",
      "url": "https://www.sreality.cz/detail/pronajem/byt/2+kk/praha-vinohrady-laubova/784920652",
      "listing_published_at": "2026-06-16",
      "listing_updated_at": "2026-07-21"
    },
    {
      "id": "sr_3532226636",
      "price": 145000,
      "lat": 50.0800136535028,
      "lng": 14.4445137683261,
      "sqm": 204,
      "rooms": 5,
      "address": "Chopinova, Vinohrady, Praha",
      "zone": "Vinohrady",
      "url": "https://www.sreality.cz/detail/pronajem/byt/5+1/praha-vinohrady-chopinova/3532226636",
      "listing_published_at": "2026-05-28",
      "listing_updated_at": "2026-07-21"
    },
    {
      "id": "sr_4167213132",
      "price": 75000,
      "lat": 50.0863317670962,
      "lng": 14.4087414541252,
      "sqm": 87,
      "rooms": 2,
      "address": "Na Kampě, Malá Strana, Praha",
      "zone": "Malá Strana",
      "url": "https://www.sreality.cz/detail/pronajem/byt/2+kk/praha-mala-strana-na-kampe/4167213132",
      "listing_published_at": "2026-04-30",
      "listing_updated_at": "2026-07-21"
    },
    {
      "id": "sr_1059885132",
      "price": 28000,
      "lat": 50.0746851892942,
      "lng": 14.4237557925681,
      "sqm": 57,
      "rooms": 2,
      "address": "Lípová, Nové Město, Praha",
      "zone": "Nové Město",
      "url": "https://www.sreality.cz/detail/pronajem/byt/2+kk/praha-nove-mesto-lipova/1059885132",
      "listing_published_at": "2026-05-15",
      "listing_updated_at": "2026-07-21"
    },
    {
      "id": "sr_171741260",
      "price": 19000,
      "lat": 50.0863505559,
      "lng": 14.4433481604,
      "sqm": 32,
      "rooms": 1,
      "address": "Řehořova, Žižkov, Praha",
      "zone": "Žižkov",
      "url": "https://www.sreality.cz/detail/pronajem/byt/1+1/praha-zizkov-rehorova/171741260",
      "listing_published_at": "2026-05-15",
      "listing_updated_at": "2026-07-21"
    },
    {
      "id": "sr_1013964876",
      "price": 51000,
      "lat": 50.0633801599382,
      "lng": 14.4402328333104,
      "sqm": 91,
      "rooms": 3,
      "address": "Sezimova, Nusle, Praha",
      "zone": "Nusle",
      "url": "https://www.sreality.cz/detail/pronajem/byt/3+kk/praha-nusle-sezimova/1013964876",
      "listing_published_at": "2026-07-07",
      "listing_updated_at": "2026-07-21"
    },
    {
      "id": "sr_903737420",
      "price": 58000,
      "lat": 50.07162700378,
      "lng": 14.4146645131061,
      "sqm": 108,
      "rooms": 3,
      "address": "Dřevná, Nové Město, Praha",
      "zone": "Nové Město",
      "url": "https://www.sreality.cz/detail/pronajem/byt/3+1/praha-nove-mesto-drevna/903737420",
      "listing_published_at": "2026-06-19",
      "listing_updated_at": "2026-07-21"
    },
    {
      "id": "sr_338919500",
      "price": 34900,
      "lat": 50.0753916094191,
      "lng": 14.4494152670957,
      "sqm": 82,
      "rooms": null,
      "address": "Korunní, Vinohrady, Praha",
      "zone": "Vinohrady",
      "url": "https://www.sreality.cz/detail/pronajem/byt/Atypick%C3%BD/praha-vinohrady-korunni/338919500",
      "listing_published_at": "2026-06-03",
      "listing_updated_at": "2026-07-21"
    },
    {
      "id": "sr_1981870156",
      "price": 23000,
      "lat": 50.0717739611438,
      "lng": 14.4412958907114,
      "sqm": 40,
      "rooms": 1,
      "address": "Máchova, Vinohrady, Praha",
      "zone": "Vinohrady",
      "url": "https://www.sreality.cz/detail/pronajem/byt/1+1/praha-vinohrady-machova/1981870156",
      "listing_published_at": "2026-06-25",
      "listing_updated_at": "2026-07-21"
    },
    {
      "id": "sr_3695243340",
      "price": 23000,
      "lat": 50.0717739611438,
      "lng": 14.4412958907114,
      "sqm": 40,
      "rooms": 1,
      "address": "Máchova, Vinohrady, Praha",
      "zone": "Vinohrady",
      "url": "https://www.sreality.cz/detail/pronajem/byt/1+1/praha-vinohrady-machova/3695243340",
      "listing_published_at": "2026-06-25",
      "listing_updated_at": "2026-07-21"
    },
    {
      "id": "sr_1668341836",
      "price": 25000,
      "lat": 50.1198131676064,
      "lng": 14.4545989490222,
      "sqm": 50,
      "rooms": 2,
      "address": "S. K. Neumanna, Libeň, Praha",
      "zone": "Libeň",
      "url": "https://www.sreality.cz/detail/pronajem/byt/2+kk/praha-liben-s-k-neumanna/1668341836",
      "listing_published_at": "2026-07-16",
      "listing_updated_at": "2026-07-21"
    },
    {
      "id": "sr_2219302988",
      "price": 47500,
      "lat": 50.0616370796764,
      "lng": 14.3660715388378,
      "sqm": 104,
      "rooms": 3,
      "address": "Na pomezí, Košíře, Praha",
      "zone": "Košíře",
      "url": "https://www.sreality.cz/detail/pronajem/byt/3+kk/praha-kosire-na-pomezi/2219302988",
      "listing_published_at": "2026-07-17",
      "listing_updated_at": "2026-07-21"
    },
    {
      "id": "sr_1410854988",
      "price": 41900,
      "lat": 50.077994,
      "lng": 14.406175,
      "sqm": 104,
      "rooms": 3,
      "address": "V lesíčku, Smíchov, Praha",
      "zone": "Smíchov",
      "url": "https://www.sreality.cz/detail/pronajem/byt/3+1/praha-smichov-v-lesicku/1410854988",
      "listing_published_at": "2026-06-26",
      "listing_updated_at": "2026-07-21"
    },
    {
      "id": "sr_3602243660",
      "price": 28000,
      "lat": 50.0672429781271,
      "lng": 14.4597681329828,
      "sqm": 77,
      "rooms": 3,
      "address": "Vršovická, Vršovice, Praha",
      "zone": "Vršovice",
      "url": "https://www.sreality.cz/detail/pronajem/byt/3+1/praha-vrsovice-vrsovicka/3602243660",
      "listing_published_at": "2026-07-21",
      "listing_updated_at": "2026-07-21"
    },
    {
      "id": "sr_4092563532",
      "price": 28000,
      "lat": 50.0746851892942,
      "lng": 14.4237557925681,
      "sqm": 57,
      "rooms": 2,
      "address": "Lípová, Nové Město, Praha",
      "zone": "Nové Město",
      "url": "https://www.sreality.cz/detail/pronajem/byt/2+kk/praha-nove-mesto-lipova/4092563532",
      "listing_published_at": "2026-05-13",
      "listing_updated_at": "2026-07-21"
    },
    {
      "id": "sr_4291928140",
      "price": 23000,
      "lat": 50.0746851892942,
      "lng": 14.4237557925681,
      "sqm": 44,
      "rooms": 2,
      "address": "Lípová, Nové Město, Praha",
      "zone": "Nové Město",
      "url": "https://www.sreality.cz/detail/pronajem/byt/2+kk/praha-nove-mesto-lipova/4291928140",
      "listing_published_at": "2026-05-04",
      "listing_updated_at": "2026-07-21"
    },
    {
      "id": "sr_1923842124",
      "price": 32000,
      "lat": 50.0717739611438,
      "lng": 14.4412958907114,
      "sqm": 63,
      "rooms": 3,
      "address": "Máchova, Vinohrady, Praha",
      "zone": "Vinohrady",
      "url": "https://www.sreality.cz/detail/pronajem/byt/3+kk/praha-vinohrady-machova/1923842124",
      "listing_published_at": "2026-05-26",
      "listing_updated_at": "2026-07-21"
    },
    {
      "id": "sr_2539511884",
      "price": 23000,
      "lat": 50.0717739611438,
      "lng": 14.4412958907114,
      "sqm": 40,
      "rooms": 2,
      "address": "Máchova, Vinohrady, Praha",
      "zone": "Vinohrady",
      "url": "https://www.sreality.cz/detail/pronajem/byt/2+kk/praha-vinohrady-machova/2539511884",
      "listing_published_at": "2026-07-09",
      "listing_updated_at": "2026-07-21"
    },
    {
      "id": "sr_1692184652",
      "price": 60000,
      "lat": 50.0753707886367,
      "lng": 14.4039404534471,
      "sqm": 168,
      "rooms": 5,
      "address": "Štefánikova, Smíchov, Praha",
      "zone": "Smíchov",
      "url": "https://www.sreality.cz/detail/pronajem/byt/5+1/praha-smichov-stefanikova/1692184652",
      "listing_published_at": "2026-04-13",
      "listing_updated_at": "2026-07-21"
    },
    {
      "id": "sr_1753673804",
      "price": 135000,
      "lat": 50.0896964866356,
      "lng": 14.4192367025335,
      "sqm": 228,
      "rooms": 5,
      "address": "Pařížská, Josefov, Praha",
      "zone": "Josefov",
      "url": "https://www.sreality.cz/detail/pronajem/byt/5+1/praha-josefov-parizska/1753673804",
      "listing_published_at": "2026-06-29",
      "listing_updated_at": "2026-07-21"
    },
    {
      "id": "sr_2903281740",
      "price": 28000,
      "lat": 50.0769311682749,
      "lng": 14.4056726122905,
      "sqm": 55,
      "rooms": 2,
      "address": "Pavla Švandy ze Semčic, Smíchov, Praha",
      "zone": "Smíchov",
      "url": "https://www.sreality.cz/detail/pronajem/byt/2+kk/praha-smichov-pavla-svandy-ze-semcic/2903281740",
      "listing_published_at": "2026-05-15",
      "listing_updated_at": "2026-07-21"
    },
    {
      "id": "sr_726003788",
      "price": 86600,
      "lat": 50.0896964866356,
      "lng": 14.4192367025335,
      "sqm": 143,
      "rooms": 3,
      "address": "Pařížská, Josefov, Praha",
      "zone": "Josefov",
      "url": "https://www.sreality.cz/detail/pronajem/byt/3+1/praha-josefov-parizska/726003788",
      "listing_published_at": "2026-06-29",
      "listing_updated_at": "2026-07-21"
    },
    {
      "id": "sr_1420918860",
      "price": 38000,
      "lat": 50.0717739611438,
      "lng": 14.4412958907114,
      "sqm": 83,
      "rooms": 3,
      "address": "Máchova, Vinohrady, Praha",
      "zone": "Vinohrady",
      "url": "https://www.sreality.cz/detail/pronajem/byt/3+kk/praha-vinohrady-machova/1420918860",
      "listing_published_at": "2026-06-06",
      "listing_updated_at": "2026-07-21"
    },
    {
      "id": "sr_1167106124",
      "price": 53229,
      "lat": 50.0904784407198,
      "lng": 14.4299666314187,
      "sqm": 122,
      "rooms": 4,
      "address": "Truhlářská, Nové Město, Praha",
      "zone": "Nové Město",
      "url": "https://www.sreality.cz/detail/pronajem/byt/4+kk/praha-nove-mesto-truhlarska/1167106124",
      "listing_published_at": "2026-05-04",
      "listing_updated_at": "2026-07-21"
    },
    {
      "id": "sr_150073420",
      "price": 16000,
      "lat": 50.0627557776991,
      "lng": 14.4496858048308,
      "sqm": 22,
      "rooms": 1,
      "address": "Bartoškova, Nusle, Praha",
      "zone": "Nusle",
      "url": "https://www.sreality.cz/detail/pronajem/byt/1+kk/praha-nusle-bartoskova/150073420",
      "listing_published_at": "2026-06-24",
      "listing_updated_at": "2026-07-21"
    },
    {
      "id": "sr_2564784204",
      "price": 27900,
      "lat": 50.071137,
      "lng": 14.386233,
      "sqm": 38,
      "rooms": 1,
      "address": "Starokošířská, Košíře, Praha",
      "zone": "Košíře",
      "url": "https://www.sreality.cz/detail/pronajem/byt/1+kk/praha-kosire-starokosirska/2564784204",
      "listing_published_at": "2026-05-31",
      "listing_updated_at": "2026-07-21"
    },
    {
      "id": "sr_1205923916",
      "price": 19500,
      "lat": 50.0007937,
      "lng": 14.4634881,
      "sqm": 43,
      "rooms": 2,
      "address": "Na Okruhu, Písnice, Praha",
      "zone": "Písnice",
      "url": "https://www.sreality.cz/detail/pronajem/byt/2+kk/praha-pisnice-na-okruhu/1205923916",
      "listing_published_at": "2026-06-25",
      "listing_updated_at": "2026-07-21"
    },
    {
      "id": "sr_272687180",
      "price": 32000,
      "lat": 50.094587,
      "lng": 14.487507,
      "sqm": 99,
      "rooms": 3,
      "address": "K vrcholu, Žižkov, Praha",
      "zone": "Žižkov",
      "url": "https://www.sreality.cz/detail/pronajem/byt/3+1/praha-zizkov-k-vrcholu/272687180",
      "listing_published_at": "2026-07-16",
      "listing_updated_at": "2026-07-21"
    },
    {
      "id": "sr_3385111372",
      "price": 6000,
      "lat": 50.0546585576,
      "lng": 14.3099160042,
      "sqm": 10,
      "rooms": null,
      "address": "Jeremiášova, Praha",
      "zone": "Jeremiášova",
      "url": "https://www.sreality.cz/detail/pronajem/byt/Pokoj/praha-jeremiasova/3385111372",
      "listing_published_at": "2025-06-11",
      "listing_updated_at": "2026-07-21"
    },
    {
      "id": "sr_262918988",
      "price": 12500,
      "lat": 50.09792762708286,
      "lng": 14.401043872605527,
      "sqm": 14,
      "rooms": null,
      "address": "Dejvická, Praha",
      "zone": "Dejvická",
      "url": "https://www.sreality.cz/detail/pronajem/byt/Pokoj/praha-dejvicka/262918988",
      "listing_published_at": "2025-09-18",
      "listing_updated_at": "2026-07-21"
    },
    {
      "id": "sr_1786798924",
      "price": 12500,
      "lat": 50.102941493397594,
      "lng": 14.41278459060049,
      "sqm": 12,
      "rooms": null,
      "address": "náměstí Borise Němcova, Bubeneč, Praha",
      "zone": "Bubeneč",
      "url": "https://www.sreality.cz/detail/pronajem/byt/Pokoj/praha-bubenec-namesti-borise-nemcova/1786798924",
      "listing_published_at": "2026-02-24",
      "listing_updated_at": "2026-07-21"
    },
    {
      "id": "sr_1099731020",
      "price": 19900,
      "lat": 50.1090280685295,
      "lng": 14.5258539484258,
      "sqm": 35,
      "rooms": 1,
      "address": "Waltariho, Hloubětín, Praha",
      "zone": "Hloubětín",
      "url": "https://www.sreality.cz/detail/pronajem/byt/1+kk/praha-hloubetin-waltariho/1099731020",
      "listing_published_at": "2026-05-17",
      "listing_updated_at": "2026-07-21"
    },
    {
      "id": "sr_55697484",
      "price": 48000,
      "lat": 50.0334493362456,
      "lng": 14.4143644698728,
      "sqm": 114,
      "rooms": 4,
      "address": "Skálové, Braník, Praha",
      "zone": "Braník",
      "url": "https://www.sreality.cz/detail/pronajem/byt/4+kk/praha-branik-skalove/55697484",
      "listing_published_at": "2026-07-15",
      "listing_updated_at": "2026-07-21"
    },
    {
      "id": "sr_3749896268",
      "price": 11500,
      "lat": 50.08370610363827,
      "lng": 14.446953562622888,
      "sqm": 13,
      "rooms": null,
      "address": "Krásova, Žižkov, Praha",
      "zone": "Žižkov",
      "url": "https://www.sreality.cz/detail/pronajem/byt/Pokoj/praha-zizkov-krasova/3749896268",
      "listing_published_at": "2026-07-14",
      "listing_updated_at": "2026-07-21"
    },
    {
      "id": "sr_2744537932",
      "price": 69800,
      "lat": 50.0888441714333,
      "lng": 14.3754075600216,
      "sqm": 113,
      "rooms": 3,
      "address": "Na Petynce, Břevnov, Praha",
      "zone": "Břevnov",
      "url": "https://www.sreality.cz/detail/pronajem/byt/3+kk/praha-brevnov-na-petynce/2744537932",
      "listing_published_at": "2026-03-16",
      "listing_updated_at": "2026-07-21"
    },
    {
      "id": "sr_3048595532",
      "price": 32990,
      "lat": 50.118173246605,
      "lng": 14.6270325616641,
      "sqm": 100,
      "rooms": 2,
      "address": "Plkovská, Horní Počernice, Praha",
      "zone": "Horní Počernice",
      "url": "https://www.sreality.cz/detail/pronajem/byt/2+1/praha-horni-pocernice-plkovska/3048595532",
      "listing_published_at": "2026-07-21",
      "listing_updated_at": "2026-07-21"
    },
    {
      "id": "sr_2453725260",
      "price": 30000,
      "lat": 50.0323920926333,
      "lng": 14.3795866341768,
      "sqm": 42,
      "rooms": 2,
      "address": "Kurandové, Hlubočepy, Praha",
      "zone": "Hlubočepy",
      "url": "https://www.sreality.cz/detail/pronajem/byt/2+kk/praha-hlubocepy-kurandove/2453725260",
      "listing_published_at": "2026-07-16",
      "listing_updated_at": "2026-07-21"
    },
    {
      "id": "sr_1317572684",
      "price": 40000,
      "lat": 50.0804935150377,
      "lng": 14.4453818343972,
      "sqm": 81,
      "rooms": 2,
      "address": "Na Švihance, Vinohrady, Praha",
      "zone": "Vinohrady",
      "url": "https://www.sreality.cz/detail/pronajem/byt/2+1/praha-vinohrady-na-svihance/1317572684",
      "listing_published_at": "2026-05-12",
      "listing_updated_at": "2026-07-21"
    },
    {
      "id": "sr_843505740",
      "price": 18000,
      "lat": 50.0831780671,
      "lng": 14.3584146247,
      "sqm": 40,
      "rooms": 1,
      "address": "Bělohorská, Praha",
      "zone": "Bělohorská",
      "url": "https://www.sreality.cz/detail/pronajem/byt/1+1/praha-belohorska/843505740",
      "listing_published_at": "2026-07-19",
      "listing_updated_at": "2026-07-21"
    },
    {
      "id": "sr_218734668",
      "price": 87000,
      "lat": 50.0788987224008,
      "lng": 14.3938928517652,
      "sqm": 185,
      "rooms": 4,
      "address": "Šermířská, Břevnov, Praha",
      "zone": "Břevnov",
      "url": "https://www.sreality.cz/detail/pronajem/byt/4+1/praha-brevnov-sermirska/218734668",
      "listing_published_at": "2026-04-23",
      "listing_updated_at": "2026-07-21"
    },
    {
      "id": "sr_1537597516",
      "price": 18000,
      "lat": 50.0458086010793,
      "lng": 14.3026557743769,
      "sqm": 46,
      "rooms": 1,
      "address": "Svitákova, Stodůlky, Praha",
      "zone": "Stodůlky",
      "url": "https://www.sreality.cz/detail/pronajem/byt/1+kk/praha-stodulky-svitakova/1537597516",
      "listing_published_at": "2026-07-21",
      "listing_updated_at": "2026-07-21"
    },
    {
      "id": "sr_3553747020",
      "price": 20000,
      "lat": 50.072521,
      "lng": 14.394203,
      "sqm": 45,
      "rooms": 1,
      "address": "Plzeňská, Smíchov, Praha",
      "zone": "Smíchov",
      "url": "https://www.sreality.cz/detail/pronajem/byt/1+1/praha-smichov-plzenska/3553747020",
      "listing_published_at": "2026-07-15",
      "listing_updated_at": "2026-07-21"
    },
    {
      "id": "sr_516087884",
      "price": 20096,
      "lat": 50.06982,
      "lng": 14.418306,
      "sqm": 37,
      "rooms": 1,
      "address": "Vyšehradská, Nové Město, Praha",
      "zone": "Nové Město",
      "url": "https://www.sreality.cz/detail/pronajem/byt/1+1/praha-nove-mesto-vysehradska/516087884",
      "listing_published_at": "2026-07-14",
      "listing_updated_at": "2026-07-21"
    },
    {
      "id": "sr_3634749516",
      "price": 21000,
      "lat": 50.0444,
      "lng": 14.4242,
      "sqm": 55,
      "rooms": 2,
      "address": "Dvorecká, Podolí, Praha",
      "zone": "Podolí",
      "url": "https://www.sreality.cz/detail/pronajem/byt/2+1/praha-podoli-dvorecka/3634749516",
      "listing_published_at": "2026-07-21",
      "listing_updated_at": "2026-07-21"
    },
    {
      "id": "sr_3220430924",
      "price": 43000,
      "lat": 50.06736,
      "lng": 14.406088,
      "sqm": 79,
      "rooms": 3,
      "address": "Šiklové, Smíchov, Praha",
      "zone": "Smíchov",
      "url": "https://www.sreality.cz/detail/pronajem/byt/3+kk/praha-smichov-siklove/3220430924",
      "listing_published_at": "2026-07-13",
      "listing_updated_at": "2026-07-21"
    },
    {
      "id": "sr_1696698444",
      "price": 23500,
      "lat": 50.039521,
      "lng": 14.437247,
      "sqm": 55,
      "rooms": 2,
      "address": "Na Dvorcích, Krč, Praha",
      "zone": "Krč",
      "url": "https://www.sreality.cz/detail/pronajem/byt/2+kk/praha-krc-na-dvorcich/1696698444",
      "listing_published_at": "2026-05-19",
      "listing_updated_at": "2026-07-21"
    },
    {
      "id": "sr_3903688780",
      "price": 20990,
      "lat": 50.0932633822036,
      "lng": 14.5143465619316,
      "sqm": 48,
      "rooms": 2,
      "address": "U Smetanky, Hrdlořezy, Praha",
      "zone": "Hrdlořezy",
      "url": "https://www.sreality.cz/detail/pronajem/byt/2+kk/praha-hrdlorezy-u-smetanky/3903688780",
      "listing_published_at": "2026-05-15",
      "listing_updated_at": "2026-07-21"
    },
    {
      "id": "sr_3144192076",
      "price": 17500,
      "lat": 50.123581,
      "lng": 14.483103,
      "sqm": 32,
      "rooms": 1,
      "address": "Střížkovská, Střížkov, Praha",
      "zone": "Střížkov",
      "url": "https://www.sreality.cz/detail/pronajem/byt/1+kk/praha-strizkov-strizkovska/3144192076",
      "listing_published_at": "2026-05-12",
      "listing_updated_at": "2026-07-21"
    },
    {
      "id": "sr_3595231308",
      "price": 29000,
      "lat": 50.0759006805977,
      "lng": 14.3320825920895,
      "sqm": 80,
      "rooms": 3,
      "address": "Bělohorská, Břevnov, Praha",
      "zone": "Břevnov",
      "url": "https://www.sreality.cz/detail/pronajem/byt/3+1/praha-brevnov-belohorska/3595231308",
      "listing_published_at": "2026-07-02",
      "listing_updated_at": "2026-07-21"
    },
    {
      "id": "sr_4252037196",
      "price": 25000,
      "lat": 50.0906032850801,
      "lng": 14.4428165428427,
      "sqm": 45,
      "rooms": 2,
      "address": "Prvního pluku, Karlín, Praha",
      "zone": "Karlín",
      "url": "https://www.sreality.cz/detail/pronajem/byt/2+kk/praha-karlin-prvniho-pluku/4252037196",
      "listing_published_at": "2026-06-25",
      "listing_updated_at": "2026-07-21"
    },
    {
      "id": "sr_2625339468",
      "price": 22000,
      "lat": 50.1037847833869,
      "lng": 14.4765805722695,
      "sqm": 46,
      "rooms": 2,
      "address": "Novákových, Libeň, Praha",
      "zone": "Libeň",
      "url": "https://www.sreality.cz/detail/pronajem/byt/2+kk/praha-liben-novakovych/2625339468",
      "listing_published_at": "2026-05-26",
      "listing_updated_at": "2026-07-21"
    },
    {
      "id": "sr_4159799372",
      "price": 25000,
      "lat": 50.0592319400701,
      "lng": 14.4256011054108,
      "sqm": 64,
      "rooms": 3,
      "address": "Na Topolce, Nusle, Praha",
      "zone": "Nusle",
      "url": "https://www.sreality.cz/detail/pronajem/byt/3+1/praha-nusle-na-topolce/4159799372",
      "listing_published_at": "2026-06-05",
      "listing_updated_at": "2026-07-21"
    },
    {
      "id": "sr_4121944140",
      "price": 28000,
      "lat": 50.0918868394287,
      "lng": 14.4483121387592,
      "sqm": 63,
      "rooms": 3,
      "address": "Křižíkova, Karlín, Praha",
      "zone": "Karlín",
      "url": "https://www.sreality.cz/detail/pronajem/byt/3+kk/praha-karlin-krizikova/4121944140",
      "listing_published_at": "2026-07-08",
      "listing_updated_at": "2026-07-21"
    },
    {
      "id": "sr_570875980",
      "price": 19000,
      "lat": 50.0755477540884,
      "lng": 14.4248973657767,
      "sqm": 25,
      "rooms": 1,
      "address": "Ječná, Nové Město, Praha",
      "zone": "Nové Město",
      "url": "https://www.sreality.cz/detail/pronajem/byt/1+kk/praha-nove-mesto-jecna/570875980",
      "listing_published_at": "2026-07-19",
      "listing_updated_at": "2026-07-21"
    },
    {
      "id": "sr_2815615052",
      "price": 21746,
      "lat": 50.06982,
      "lng": 14.418306,
      "sqm": 37,
      "rooms": 1,
      "address": "Vyšehradská, Nové Město, Praha",
      "zone": "Nové Město",
      "url": "https://www.sreality.cz/detail/pronajem/byt/1+kk/praha-nove-mesto-vysehradska/2815615052",
      "listing_published_at": "2026-07-14",
      "listing_updated_at": "2026-07-21"
    },
    {
      "id": "sr_180543564",
      "price": 29626,
      "lat": 50.06982,
      "lng": 14.418306,
      "sqm": 52,
      "rooms": 2,
      "address": "Vyšehradská, Nové Město, Praha",
      "zone": "Nové Město",
      "url": "https://www.sreality.cz/detail/pronajem/byt/2+kk/praha-nove-mesto-vysehradska/180543564",
      "listing_published_at": "2026-07-14",
      "listing_updated_at": "2026-07-21"
    },
    {
      "id": "sr_184803404",
      "price": 20700,
      "lat": 50.066284,
      "lng": 14.4278892,
      "sqm": 35,
      "rooms": 1,
      "address": "Sekaninova, Nusle, Praha",
      "zone": "Nusle",
      "url": "https://www.sreality.cz/detail/pronajem/byt/1+kk/praha-nusle-sekaninova/184803404",
      "listing_published_at": "2026-07-13",
      "listing_updated_at": "2026-07-21"
    },
    {
      "id": "sr_1105719372",
      "price": 27072,
      "lat": 50.06982,
      "lng": 14.418306,
      "sqm": 53,
      "rooms": 2,
      "address": "Vyšehradská, Nové Město, Praha",
      "zone": "Nové Město",
      "url": "https://www.sreality.cz/detail/pronajem/byt/2+kk/praha-nove-mesto-vysehradska/1105719372",
      "listing_published_at": "2026-06-26",
      "listing_updated_at": "2026-07-21"
    },
    {
      "id": "sr_2280124492",
      "price": 21980,
      "lat": 50.06982,
      "lng": 14.418306,
      "sqm": 37,
      "rooms": 1,
      "address": "Vyšehradská, Nové Město, Praha",
      "zone": "Nové Město",
      "url": "https://www.sreality.cz/detail/pronajem/byt/1+kk/praha-nove-mesto-vysehradska/2280124492",
      "listing_published_at": "2026-06-26",
      "listing_updated_at": "2026-07-21"
    },
    {
      "id": "sr_2783440972",
      "price": 32316,
      "lat": 50.06982,
      "lng": 14.418306,
      "sqm": 57,
      "rooms": 2,
      "address": "Vyšehradská, Nové Město, Praha",
      "zone": "Nové Město",
      "url": "https://www.sreality.cz/detail/pronajem/byt/2+kk/praha-nove-mesto-vysehradska/2783440972",
      "listing_published_at": "2026-06-26",
      "listing_updated_at": "2026-07-21"
    },
    {
      "id": "sr_2602037324",
      "price": 29328,
      "lat": 50.06982,
      "lng": 14.418306,
      "sqm": 57,
      "rooms": 2,
      "address": "Vyšehradská, Nové Město, Praha",
      "zone": "Nové Město",
      "url": "https://www.sreality.cz/detail/pronajem/byt/2+kk/praha-nove-mesto-vysehradska/2602037324",
      "listing_published_at": "2026-06-26",
      "listing_updated_at": "2026-07-21"
    },
    {
      "id": "sr_1293414476",
      "price": 23900,
      "lat": 50.0064,
      "lng": 14.461747,
      "sqm": 54,
      "rooms": 2,
      "address": "Meteorologická, Libuš, Praha",
      "zone": "Libuš",
      "url": "https://www.sreality.cz/detail/pronajem/byt/2+kk/praha-libus-meteorologicka/1293414476",
      "listing_published_at": "2026-06-26",
      "listing_updated_at": "2026-07-21"
    },
    {
      "id": "sr_3059740748",
      "price": 22400,
      "lat": 50.021378,
      "lng": 14.41349,
      "sqm": 41,
      "rooms": 2,
      "address": "Pod Lysinami, Hodkovičky, Praha",
      "zone": "Hodkovičky",
      "url": "https://www.sreality.cz/detail/pronajem/byt/2+kk/praha-hodkovicky-pod-lysinami/3059740748",
      "listing_published_at": "2026-06-17",
      "listing_updated_at": "2026-07-21"
    },
    {
      "id": "sr_2098786380",
      "price": 20400,
      "lat": 50.066284,
      "lng": 14.4278892,
      "sqm": 35,
      "rooms": 1,
      "address": "Sekaninova, Nusle, Praha",
      "zone": "Nusle",
      "url": "https://www.sreality.cz/detail/pronajem/byt/1+kk/praha-nusle-sekaninova/2098786380",
      "listing_published_at": "2026-06-16",
      "listing_updated_at": "2026-07-21"
    },
    {
      "id": "sr_909701196",
      "price": 30400,
      "lat": 50.069554,
      "lng": 14.484071,
      "sqm": 72,
      "rooms": 3,
      "address": "U Hranic, Strašnice, Praha",
      "zone": "Strašnice",
      "url": "https://www.sreality.cz/detail/pronajem/byt/3+kk/praha-strasnice-u-hranic/909701196",
      "listing_published_at": "2026-06-16",
      "listing_updated_at": "2026-07-21"
    },
    {
      "id": "sr_3978883148",
      "price": 18700,
      "lat": 50.084169,
      "lng": 14.378831,
      "sqm": 69,
      "rooms": 2,
      "address": "Šlikova, Břevnov, Praha",
      "zone": "Břevnov",
      "url": "https://www.sreality.cz/detail/pronajem/byt/2+1/praha-brevnov-slikova/3978883148",
      "listing_published_at": "2026-06-16",
      "listing_updated_at": "2026-07-21"
    },
    {
      "id": "sr_2471596108",
      "price": 65000,
      "lat": 50.0903980660932,
      "lng": 14.4217582511138,
      "sqm": 155,
      "rooms": 4,
      "address": "Vězeňská, Staré Město, Praha",
      "zone": "Staré Město",
      "url": "https://www.sreality.cz/detail/pronajem/byt/4+kk/praha-stare-mesto-vezenska/2471596108",
      "listing_published_at": "2026-05-19",
      "listing_updated_at": "2026-07-21"
    },
    {
      "id": "sr_241991756",
      "price": 44000,
      "lat": 50.0821795669115,
      "lng": 14.4044812194629,
      "sqm": 98,
      "rooms": 3,
      "address": "Újezd, Malá Strana, Praha",
      "zone": "Malá Strana",
      "url": "https://www.sreality.cz/detail/pronajem/byt/3+kk/praha-mala-strana-ujezd/241991756",
      "listing_published_at": "2026-06-02",
      "listing_updated_at": "2026-07-21"
    },
    {
      "id": "sr_2869006412",
      "price": 58000,
      "lat": 50.07162700378,
      "lng": 14.4146645131061,
      "sqm": 108,
      "rooms": 3,
      "address": "Dřevná, Nové Město, Praha",
      "zone": "Nové Město",
      "url": "https://www.sreality.cz/detail/pronajem/byt/3+1/praha-nove-mesto-drevna/2869006412",
      "listing_published_at": "2026-05-19",
      "listing_updated_at": "2026-07-21"
    },
    {
      "id": "sr_3451162700",
      "price": 53372,
      "lat": 50.0899915213,
      "lng": 14.4289165618,
      "sqm": 120,
      "rooms": 4,
      "address": "Truhlářská, Nové Město, Praha",
      "zone": "Nové Město",
      "url": "https://www.sreality.cz/detail/pronajem/byt/4+kk/praha-nove-mesto-truhlarska/3451162700",
      "listing_published_at": "2026-05-26",
      "listing_updated_at": "2026-07-21"
    },
    {
      "id": "sr_220192844",
      "price": 24000,
      "lat": 50.037826880421555,
      "lng": 14.562546296216016,
      "sqm": 63,
      "rooms": 3,
      "address": "Rezlerova, Petrovice, Praha",
      "zone": "Petrovice",
      "url": "https://www.sreality.cz/detail/pronajem/byt/3+kk/praha-petrovice-rezlerova/220192844",
      "listing_published_at": "2026-07-08",
      "listing_updated_at": "2026-07-21"
    },
    {
      "id": "sr_3514228812",
      "price": 23000,
      "lat": 50.0129784667976,
      "lng": 14.4142543846559,
      "sqm": 76,
      "rooms": 3,
      "address": "Hřebíkova, Modřany, Praha",
      "zone": "Modřany",
      "url": "https://www.sreality.cz/detail/pronajem/byt/3+1/praha-modrany-hrebikova/3514228812",
      "listing_published_at": "2026-07-18",
      "listing_updated_at": "2026-07-21"
    },
    {
      "id": "sr_4072534092",
      "price": 21000,
      "lat": 50.017110054394,
      "lng": 14.4013081688738,
      "sqm": 39,
      "rooms": 1,
      "address": "Mezi Vodami, Modřany, Praha",
      "zone": "Modřany",
      "url": "https://www.sreality.cz/detail/pronajem/byt/1+kk/praha-modrany-mezi-vodami/4072534092",
      "listing_published_at": "2026-06-19",
      "listing_updated_at": "2026-07-21"
    },
    {
      "id": "sr_3913801804",
      "price": 30000,
      "lat": 50.09142364416144,
      "lng": 14.449130813324274,
      "sqm": 67,
      "rooms": 2,
      "address": "Kollárova, Karlín, Praha",
      "zone": "Karlín",
      "url": "https://www.sreality.cz/detail/pronajem/byt/2+kk/praha-karlin-kollarova/3913801804",
      "listing_published_at": "2026-07-17",
      "listing_updated_at": "2026-07-21"
    },
    {
      "id": "sr_1185275980",
      "price": 25000,
      "lat": 50.0830220562,
      "lng": 14.4153219261,
      "sqm": 39,
      "rooms": 1,
      "address": "Konviktská, Staré Město, Praha",
      "zone": "Staré Město",
      "url": "https://www.sreality.cz/detail/pronajem/byt/1+1/praha-stare-mesto-konviktska/1185275980",
      "listing_published_at": "2026-07-21",
      "listing_updated_at": "2026-07-21"
    },
    {
      "id": "sr_987492428",
      "price": 20900,
      "lat": 50.041710766587,
      "lng": 14.5696416255407,
      "sqm": 52,
      "rooms": 2,
      "address": "Mantovská, Horní Měcholupy, Praha",
      "zone": "Horní Měcholupy",
      "url": "https://www.sreality.cz/detail/pronajem/byt/2+kk/praha-horni-mecholupy-mantovska/987492428",
      "listing_published_at": "2026-06-12",
      "listing_updated_at": "2026-07-21"
    },
    {
      "id": "sr_1973805132",
      "price": 28000,
      "lat": 50.075562,
      "lng": 14.456191,
      "sqm": 120,
      "rooms": 2,
      "address": "Korunní, Vinohrady, Praha",
      "zone": "Vinohrady",
      "url": "https://www.sreality.cz/detail/pronajem/byt/2+kk/praha-vinohrady-korunni/1973805132",
      "listing_published_at": "2026-07-21",
      "listing_updated_at": "2026-07-21"
    },
    {
      "id": "sr_2371870796",
      "price": 34000,
      "lat": 50.082989,
      "lng": 14.443993,
      "sqm": 51,
      "rooms": 2,
      "address": "U Rajské zahrady, Žižkov, Praha",
      "zone": "Žižkov",
      "url": "https://www.sreality.cz/detail/pronajem/byt/2+kk/praha-zizkov-u-rajske-zahrady/2371870796",
      "listing_published_at": "2026-07-07",
      "listing_updated_at": "2026-07-21"
    },
    {
      "id": "sr_54952012",
      "price": 29500,
      "lat": 50.048662,
      "lng": 14.433209,
      "sqm": 58,
      "rooms": 2,
      "address": "Milevská, Podolí, Praha",
      "zone": "Podolí",
      "url": "https://www.sreality.cz/detail/pronajem/byt/2+kk/praha-podoli-milevska/54952012",
      "listing_published_at": "2026-06-09",
      "listing_updated_at": "2026-07-21"
    },
    {
      "id": "sr_379617356",
      "price": 55000,
      "lat": 50.073367,
      "lng": 14.454597,
      "sqm": 120,
      "rooms": 4,
      "address": "Hradešínská, Vinohrady, Praha",
      "zone": "Vinohrady",
      "url": "https://www.sreality.cz/detail/pronajem/byt/4+1/praha-vinohrady-hradesinska/379617356",
      "listing_published_at": "2026-06-08",
      "listing_updated_at": "2026-07-21"
    },
    {
      "id": "sr_3037192268",
      "price": 34500,
      "lat": 50.0858831730193,
      "lng": 14.4669743040463,
      "sqm": 98,
      "rooms": 2,
      "address": "Malešická, Žižkov, Praha",
      "zone": "Žižkov",
      "url": "https://www.sreality.cz/detail/pronajem/byt/2+kk/praha-zizkov-malesicka/3037192268",
      "listing_published_at": "2026-07-17",
      "listing_updated_at": "2026-07-21"
    },
    {
      "id": "sr_1149431884",
      "price": 40000,
      "lat": 50.08939,
      "lng": 14.40346,
      "sqm": 85,
      "rooms": 3,
      "address": "Sněmovní, Malá Strana, Praha",
      "zone": "Malá Strana",
      "url": "https://www.sreality.cz/detail/pronajem/byt/3+1/praha-mala-strana-snemovni/1149431884",
      "listing_published_at": "2026-06-24",
      "listing_updated_at": "2026-07-21"
    },
    {
      "id": "sr_2748219468",
      "price": 17500,
      "lat": 50.0665358859316,
      "lng": 14.5532779021206,
      "sqm": 32,
      "rooms": 1,
      "address": "Kardausova, Dolní Měcholupy, Praha",
      "zone": "Dolní Měcholupy",
      "url": "https://www.sreality.cz/detail/pronajem/byt/1+kk/praha-dolni-mecholupy-kardausova/2748219468",
      "listing_published_at": "2026-06-01",
      "listing_updated_at": "2026-07-21"
    },
    {
      "id": "sr_1848369228",
      "price": 38712,
      "lat": 50.08989,
      "lng": 14.42867,
      "sqm": 76,
      "rooms": 3,
      "address": "Truhlářská, Nové Město, Praha",
      "zone": "Nové Město",
      "url": "https://www.sreality.cz/detail/pronajem/byt/3+kk/praha-nove-mesto-truhlarska/1848369228",
      "listing_published_at": "2026-07-01",
      "listing_updated_at": "2026-07-21"
    },
    {
      "id": "sr_271310924",
      "price": 41000,
      "lat": 50.07748,
      "lng": 14.41864,
      "sqm": 81,
      "rooms": 3,
      "address": "Odborů, Nové Město, Praha",
      "zone": "Nové Město",
      "url": "https://www.sreality.cz/detail/pronajem/byt/3+1/praha-nove-mesto-odboru/271310924",
      "listing_published_at": "2026-07-01",
      "listing_updated_at": "2026-07-21"
    },
    {
      "id": "sr_2005512268",
      "price": 100000,
      "lat": 50.0764397344058,
      "lng": 14.4367531860047,
      "sqm": 255,
      "rooms": null,
      "address": "Ibsenova, Vinohrady, Praha",
      "zone": "Vinohrady",
      "url": "https://www.sreality.cz/detail/pronajem/byt/6%20a%20v%C3%ADce/praha-vinohrady-ibsenova/2005512268",
      "listing_published_at": "2026-04-08",
      "listing_updated_at": "2026-07-21"
    },
    {
      "id": "sr_1604509772",
      "price": 28000,
      "lat": 50.0732801460237,
      "lng": 14.3965390829381,
      "sqm": 66,
      "rooms": 2,
      "address": "Grafická, Smíchov, Praha",
      "zone": "Smíchov",
      "url": "https://www.sreality.cz/detail/pronajem/byt/2+kk/praha-smichov-graficka/1604509772",
      "listing_published_at": "2026-07-14",
      "listing_updated_at": "2026-07-21"
    },
    {
      "id": "sr_4157112396",
      "price": 32000,
      "lat": 50.082983740343,
      "lng": 14.3586418641774,
      "sqm": 111,
      "rooms": 2,
      "address": "Bělohorská, Břevnov, Praha",
      "zone": "Břevnov",
      "url": "https://www.sreality.cz/detail/pronajem/byt/2+kk/praha-brevnov-belohorska/4157112396",
      "listing_published_at": "2026-05-29",
      "listing_updated_at": "2026-07-21"
    },
    {
      "id": "sr_2583883852",
      "price": 33000,
      "lat": 50.0686774730446,
      "lng": 14.4402330716014,
      "sqm": 75,
      "rooms": 2,
      "address": "Perucká, Vinohrady, Praha",
      "zone": "Vinohrady",
      "url": "https://www.sreality.cz/detail/pronajem/byt/2+kk/praha-vinohrady-perucka/2583883852",
      "listing_published_at": "2026-06-23",
      "listing_updated_at": "2026-07-21"
    },
    {
      "id": "sr_2170286156",
      "price": 39500,
      "lat": 50.07546269949728,
      "lng": 14.42300993078751,
      "sqm": 107,
      "rooms": 3,
      "address": "Ječná, Nové Město, Praha",
      "zone": "Nové Město",
      "url": "https://www.sreality.cz/detail/pronajem/byt/3+kk/praha-nove-mesto-jecna/2170286156",
      "listing_published_at": "2026-06-12",
      "listing_updated_at": "2026-07-21"
    },
    {
      "id": "sr_1699500876",
      "price": 19900,
      "lat": 50.0917556892819,
      "lng": 14.3239588995757,
      "sqm": 50,
      "rooms": 2,
      "address": "Jenečská, Liboc, Praha",
      "zone": "Liboc",
      "url": "https://www.sreality.cz/detail/pronajem/byt/2+1/praha-liboc-jenecska/1699500876",
      "listing_published_at": "2026-03-09",
      "listing_updated_at": "2026-07-21"
    },
    {
      "id": "sr_4248825932",
      "price": 32900,
      "lat": 50.0695011362419,
      "lng": 14.4091264880774,
      "sqm": 92,
      "rooms": 3,
      "address": "Svornosti, Smíchov, Praha",
      "zone": "Smíchov",
      "url": "https://www.sreality.cz/detail/pronajem/byt/3+kk/praha-smichov-svornosti/4248825932",
      "listing_published_at": "2026-06-17",
      "listing_updated_at": "2026-07-21"
    },
    {
      "id": "sr_1859510348",
      "price": 23990,
      "lat": 50.0368223,
      "lng": 14.4125928,
      "sqm": 67,
      "rooms": 2,
      "address": "Branická, Braník, Praha",
      "zone": "Braník",
      "url": "https://www.sreality.cz/detail/pronajem/byt/2+kk/praha-branik-branicka/1859510348",
      "listing_published_at": "2026-07-21",
      "listing_updated_at": "2026-07-21"
    },
    {
      "id": "sr_1339416652",
      "price": 19000,
      "lat": 50.0395991024,
      "lng": 14.5690081047,
      "sqm": 45,
      "rooms": 1,
      "address": "Mantovská, Horní Měcholupy, Praha",
      "zone": "Horní Měcholupy",
      "url": "https://www.sreality.cz/detail/pronajem/byt/1+kk/praha-horni-mecholupy-mantovska/1339416652",
      "listing_published_at": "2026-07-21",
      "listing_updated_at": "2026-07-21"
    },
    {
      "id": "sr_1020649548",
      "price": 20000,
      "lat": 50.1050992804426,
      "lng": 14.5687334918709,
      "sqm": 43,
      "rooms": 2,
      "address": "Generála Janouška, Černý Most, Praha",
      "zone": "Černý Most",
      "url": "https://www.sreality.cz/detail/pronajem/byt/2+kk/praha-cerny-most-generala-janouska/1020649548",
      "listing_published_at": "2026-07-21",
      "listing_updated_at": "2026-07-21"
    },
    {
      "id": "sr_877170764",
      "price": 45000,
      "lat": 50.09377,
      "lng": 14.374413,
      "sqm": 82,
      "rooms": 3,
      "address": "Na Dračkách, Veleslavín, Praha",
      "zone": "Veleslavín",
      "url": "https://www.sreality.cz/detail/pronajem/byt/3+kk/praha-veleslavin-na-drackach/877170764",
      "listing_published_at": "2026-05-12",
      "listing_updated_at": "2026-07-21"
    },
    {
      "id": "sr_289443916",
      "price": 85000,
      "lat": 50.0962666015259,
      "lng": 14.4075220647143,
      "sqm": 240,
      "rooms": 5,
      "address": "Na baště sv. Ludmily, Hradčany, Praha",
      "zone": "Hradčany",
      "url": "https://www.sreality.cz/detail/pronajem/byt/5+1/praha-hradcany-na-baste-sv-ludmily/289443916",
      "listing_published_at": "2026-05-20",
      "listing_updated_at": "2026-07-21"
    },
    {
      "id": "sr_1794150476",
      "price": 103930,
      "lat": 50.0784970034736,
      "lng": 14.4501973953258,
      "sqm": 118,
      "rooms": 4,
      "address": "náměstí Jiřího z Poděbrad, Vinohrady, Praha",
      "zone": "Vinohrady",
      "url": "https://www.sreality.cz/detail/pronajem/byt/4+kk/praha-vinohrady-namesti-jiriho-z-podebrad/1794150476",
      "listing_published_at": "2026-05-20",
      "listing_updated_at": "2026-07-21"
    },
    {
      "id": "sr_2972098636",
      "price": 99800,
      "lat": 50.0785821400692,
      "lng": 14.4499726485309,
      "sqm": 107,
      "rooms": 4,
      "address": "náměstí Jiřího z Poděbrad, Vinohrady, Praha",
      "zone": "Vinohrady",
      "url": "https://www.sreality.cz/detail/pronajem/byt/4+kk/praha-vinohrady-namesti-jiriho-z-podebrad/2972098636",
      "listing_published_at": "2026-05-05",
      "listing_updated_at": "2026-07-21"
    },
    {
      "id": "sr_2379604044",
      "price": 50000,
      "lat": 50.0792336046,
      "lng": 14.4832103675,
      "sqm": 93,
      "rooms": 3,
      "address": "Ramonova, Strašnice, Praha",
      "zone": "Strašnice",
      "url": "https://www.sreality.cz/detail/pronajem/byt/3+kk/praha-strasnice-ramonova/2379604044",
      "listing_published_at": "2026-07-21",
      "listing_updated_at": "2026-07-21"
    },
    {
      "id": "sr_2858959692",
      "price": 44800,
      "lat": 50.0784970034736,
      "lng": 14.4501973953258,
      "sqm": 93,
      "rooms": 3,
      "address": "náměstí Jiřího z Poděbrad, Vinohrady, Praha",
      "zone": "Vinohrady",
      "url": "https://www.sreality.cz/detail/pronajem/byt/3+kk/praha-vinohrady-namesti-jiriho-z-podebrad/2858959692",
      "listing_published_at": "2026-03-20",
      "listing_updated_at": "2026-07-21"
    },
    {
      "id": "sr_3708256332",
      "price": 21950,
      "lat": 50.0199984226299,
      "lng": 14.4672813129731,
      "sqm": 70,
      "rooms": 2,
      "address": "Muškova, Kunratice, Praha",
      "zone": "Kunratice",
      "url": "https://www.sreality.cz/detail/pronajem/byt/2+kk/praha-kunratice-muskova/3708256332",
      "listing_published_at": "2026-06-08",
      "listing_updated_at": "2026-07-21"
    },
    {
      "id": "sr_4273791052",
      "price": 19000,
      "lat": 50.0380505382044,
      "lng": 14.5072327472176,
      "sqm": 41,
      "rooms": 2,
      "address": "Leopoldova, Chodov, Praha",
      "zone": "Chodov",
      "url": "https://www.sreality.cz/detail/pronajem/byt/2+kk/praha-chodov-leopoldova/4273791052",
      "listing_published_at": "2026-07-13",
      "listing_updated_at": "2026-07-21"
    },
    {
      "id": "sr_2708664396",
      "price": 29000,
      "lat": 50.0849382,
      "lng": 14.4844222,
      "sqm": 60,
      "rooms": 2,
      "address": "Zvěřinova, Strašnice, Praha",
      "zone": "Strašnice",
      "url": "https://www.sreality.cz/detail/pronajem/byt/2+kk/praha-strasnice-zverinova/2708664396",
      "listing_published_at": "2026-06-23",
      "listing_updated_at": "2026-07-21"
    },
    {
      "id": "sr_3006390348",
      "price": 23000,
      "lat": 50.0531773364092,
      "lng": 14.513109861225,
      "sqm": 58,
      "rooms": 2,
      "address": "Velenovského, Záběhlice, Praha",
      "zone": "Záběhlice",
      "url": "https://www.sreality.cz/detail/pronajem/byt/2+kk/praha-zabehlice-velenovskeho/3006390348",
      "listing_published_at": "2026-07-15",
      "listing_updated_at": "2026-07-21"
    },
    {
      "id": "sr_2000982092",
      "price": 75000,
      "lat": 50.0784970034736,
      "lng": 14.4501973953258,
      "sqm": 150,
      "rooms": 4,
      "address": "náměstí Jiřího z Poděbrad, Vinohrady, Praha",
      "zone": "Vinohrady",
      "url": "https://www.sreality.cz/detail/pronajem/byt/4+kk/praha-vinohrady-namesti-jiriho-z-podebrad/2000982092",
      "listing_published_at": "2026-05-25",
      "listing_updated_at": "2026-07-21"
    },
    {
      "id": "sr_3285573708",
      "price": 30000,
      "lat": 50.0479503101,
      "lng": 14.3105975636,
      "sqm": 60,
      "rooms": 2,
      "address": "K Brance, Stodůlky, Praha",
      "zone": "Stodůlky",
      "url": "https://www.sreality.cz/detail/pronajem/byt/2+kk/praha-stodulky-k-brance/3285573708",
      "listing_published_at": "2026-07-21",
      "listing_updated_at": "2026-07-21"
    },
    {
      "id": "sr_3720872780",
      "price": 42900,
      "lat": 50.0851442924,
      "lng": 14.4448558823,
      "sqm": 85,
      "rooms": 3,
      "address": "Seifertova, Žižkov, Praha",
      "zone": "Žižkov",
      "url": "https://www.sreality.cz/detail/pronajem/byt/3+kk/praha-zizkov-seifertova/3720872780",
      "listing_published_at": "2026-01-07",
      "listing_updated_at": "2026-07-21"
    },
    {
      "id": "sr_729407564",
      "price": 80000,
      "lat": 50.0873588390046,
      "lng": 14.3646723981905,
      "sqm": 120,
      "rooms": 4,
      "address": "Radimova, Břevnov, Praha",
      "zone": "Břevnov",
      "url": "https://www.sreality.cz/detail/pronajem/byt/4+kk/praha-brevnov-radimova/729407564",
      "listing_published_at": "2026-07-03",
      "listing_updated_at": "2026-07-21"
    },
    {
      "id": "sr_4176314444",
      "price": 29000,
      "lat": 50.0740160606944,
      "lng": 14.4316863484052,
      "sqm": 62,
      "rooms": 2,
      "address": "Rumunská, Vinohrady, Praha",
      "zone": "Vinohrady",
      "url": "https://www.sreality.cz/detail/pronajem/byt/2+kk/praha-vinohrady-rumunska/4176314444",
      "listing_published_at": "2026-06-02",
      "listing_updated_at": "2026-07-21"
    },
    {
      "id": "sr_1407246412",
      "price": 26000,
      "lat": 50.0865933794742,
      "lng": 14.5147983426073,
      "sqm": 62,
      "rooms": 2,
      "address": "U tvrze, Malešice, Praha",
      "zone": "Malešice",
      "url": "https://www.sreality.cz/detail/pronajem/byt/2+kk/praha-malesice-u-tvrze/1407246412",
      "listing_published_at": "2026-07-16",
      "listing_updated_at": "2026-07-21"
    },
    {
      "id": "sr_54124620",
      "price": 16000,
      "lat": 50.067177,
      "lng": 14.448734,
      "sqm": 43,
      "rooms": 1,
      "address": "U Vršovického nádraží, Vršovice, Praha",
      "zone": "Vršovice",
      "url": "https://www.sreality.cz/detail/pronajem/byt/1+kk/praha-vrsovice-u-vrsovickeho-nadrazi/54124620",
      "listing_published_at": "2026-07-04",
      "listing_updated_at": "2026-07-21"
    },
    {
      "id": "sr_4204232780",
      "price": 47000,
      "lat": 50.0936258529,
      "lng": 14.4535453285,
      "sqm": 88,
      "rooms": 3,
      "address": "Sokolovská, Karlín, Praha",
      "zone": "Karlín",
      "url": "https://www.sreality.cz/detail/pronajem/byt/3+kk/praha-karlin-sokolovska/4204232780",
      "listing_published_at": "2026-06-09",
      "listing_updated_at": "2026-07-21"
    },
    {
      "id": "sr_384229452",
      "price": 46000,
      "lat": 50.0753707886367,
      "lng": 14.4039404534471,
      "sqm": 129,
      "rooms": 3,
      "address": "Štefánikova, Smíchov, Praha",
      "zone": "Smíchov",
      "url": "https://www.sreality.cz/detail/pronajem/byt/3+1/praha-smichov-stefanikova/384229452",
      "listing_published_at": "2026-07-20",
      "listing_updated_at": "2026-07-21"
    },
    {
      "id": "sr_1228398668",
      "price": 37500,
      "lat": 50.0933303255798,
      "lng": 14.5059665587185,
      "sqm": 83,
      "rooms": 3,
      "address": "Učňovská, Hrdlořezy, Praha",
      "zone": "Hrdlořezy",
      "url": "https://www.sreality.cz/detail/pronajem/byt/3+kk/praha-hrdlorezy-ucnovska/1228398668",
      "listing_published_at": "2026-07-17",
      "listing_updated_at": "2026-07-21"
    },
    {
      "id": "sr_3508969548",
      "price": 64800,
      "lat": 50.0785821400692,
      "lng": 14.4499726485309,
      "sqm": 92,
      "rooms": 3,
      "address": "náměstí Jiřího z Poděbrad, Vinohrady, Praha",
      "zone": "Vinohrady",
      "url": "https://www.sreality.cz/detail/pronajem/byt/3+kk/praha-vinohrady-namesti-jiriho-z-podebrad/3508969548",
      "listing_published_at": "2026-05-05",
      "listing_updated_at": "2026-07-21"
    },
    {
      "id": "sr_405635916",
      "price": 29990,
      "lat": 50.0715291257,
      "lng": 14.4360615361,
      "sqm": 68,
      "rooms": 3,
      "address": "Záhřebská, Vinohrady, Praha",
      "zone": "Vinohrady",
      "url": "https://www.sreality.cz/detail/pronajem/byt/3+kk/praha-vinohrady-zahrebska/405635916",
      "listing_published_at": "2025-07-29",
      "listing_updated_at": "2026-07-21"
    },
    {
      "id": "sr_1437287244",
      "price": 60000,
      "lat": 50.068272,
      "lng": 14.416012,
      "sqm": 105,
      "rooms": 3,
      "address": "Na Hrobci, Nové Město, Praha",
      "zone": "Nové Město",
      "url": "https://www.sreality.cz/detail/pronajem/byt/3+1/praha-nove-mesto-na-hrobci/1437287244",
      "listing_published_at": "2026-03-18",
      "listing_updated_at": "2026-07-21"
    },
    {
      "id": "sr_1960042572",
      "price": 23000,
      "lat": 50.0226,
      "lng": 14.4402,
      "sqm": 54,
      "rooms": 2,
      "address": "Mariánská, Kamýk, Praha",
      "zone": "Kamýk",
      "url": "https://www.sreality.cz/detail/pronajem/byt/2+kk/praha-kamyk-marianska/1960042572",
      "listing_published_at": "2026-07-13",
      "listing_updated_at": "2026-07-21"
    },
    {
      "id": "sr_3331776588",
      "price": 37000,
      "lat": 50.075215,
      "lng": 14.442754,
      "sqm": 95,
      "rooms": 4,
      "address": "Korunní, Vinohrady, Praha",
      "zone": "Vinohrady",
      "url": "https://www.sreality.cz/detail/pronajem/byt/4+kk/praha-vinohrady-korunni/3331776588",
      "listing_published_at": "2026-07-20",
      "listing_updated_at": "2026-07-21"
    },
    {
      "id": "sr_979911500",
      "price": 49800,
      "lat": 50.0784970034736,
      "lng": 14.4501973953258,
      "sqm": 60,
      "rooms": 2,
      "address": "náměstí Jiřího z Poděbrad, Vinohrady, Praha",
      "zone": "Vinohrady",
      "url": "https://www.sreality.cz/detail/pronajem/byt/2+kk/praha-vinohrady-namesti-jiriho-z-podebrad/979911500",
      "listing_published_at": "2026-03-20",
      "listing_updated_at": "2026-07-21"
    },
    {
      "id": "sr_4169396300",
      "price": 65000,
      "lat": 50.0966678092,
      "lng": 14.4062473639,
      "sqm": 115,
      "rooms": 4,
      "address": "Na valech, Hradčany, Praha",
      "zone": "Hradčany",
      "url": "https://www.sreality.cz/detail/pronajem/byt/4+kk/praha-hradcany-na-valech/4169396300",
      "listing_published_at": "2026-06-23",
      "listing_updated_at": "2026-07-21"
    },
    {
      "id": "sr_1535569996",
      "price": 29000,
      "lat": 50.0695315,
      "lng": 14.3760452,
      "sqm": 80,
      "rooms": 4,
      "address": "Pod Klamovkou, Košíře, Praha",
      "zone": "Košíře",
      "url": "https://www.sreality.cz/detail/pronajem/byt/4+1/praha-kosire-pod-klamovkou/1535569996",
      "listing_published_at": "2026-06-29",
      "listing_updated_at": "2026-07-21"
    },
    {
      "id": "sr_2144198732",
      "price": 35000,
      "lat": 50.0730031636,
      "lng": 14.4097919773,
      "sqm": 83,
      "rooms": 3,
      "address": "Janáčkovo nábřeží, Smíchov, Praha",
      "zone": "Smíchov",
      "url": "https://www.sreality.cz/detail/pronajem/byt/3+kk/praha-smichov-janackovo-nabrezi/2144198732",
      "listing_published_at": "2026-07-10",
      "listing_updated_at": "2026-07-21"
    },
    {
      "id": "sr_1922883660",
      "price": 26000,
      "lat": 49.999729031288,
      "lng": 14.4173422601694,
      "sqm": 53,
      "rooms": 2,
      "address": "Československého exilu, Modřany, Praha",
      "zone": "Modřany",
      "url": "https://www.sreality.cz/detail/pronajem/byt/2+kk/praha-modrany-ceskoslovenskeho-exilu/1922883660",
      "listing_published_at": "2026-07-13",
      "listing_updated_at": "2026-07-21"
    },
    {
      "id": "sr_261087308",
      "price": 19900,
      "lat": 50.0427706073049,
      "lng": 14.4986669462472,
      "sqm": 47,
      "rooms": 2,
      "address": "Čenětická, Chodov, Praha",
      "zone": "Chodov",
      "url": "https://www.sreality.cz/detail/pronajem/byt/2+kk/praha-chodov-ceneticka/261087308",
      "listing_published_at": "2026-07-08",
      "listing_updated_at": "2026-07-21"
    },
    {
      "id": "sr_4022067276",
      "price": 15500,
      "lat": 50.033461,
      "lng": 14.584396,
      "sqm": 37,
      "rooms": 1,
      "address": "Blšanecká, Uhříněves, Praha",
      "zone": "Uhříněves",
      "url": "https://www.sreality.cz/detail/pronajem/byt/1+kk/praha-uhrineves-blsanecka/4022067276",
      "listing_published_at": "2026-07-02",
      "listing_updated_at": "2026-07-21"
    },
    {
      "id": "sr_3492118604",
      "price": 38000,
      "lat": 50.1035423674072,
      "lng": 14.5074613390914,
      "sqm": 70,
      "rooms": 2,
      "address": "Gerstelova, Vysočany, Praha",
      "zone": "Vysočany",
      "url": "https://www.sreality.cz/detail/pronajem/byt/2+kk/praha-vysocany-gerstelova/3492118604",
      "listing_published_at": "2026-06-10",
      "listing_updated_at": "2026-07-21"
    },
    {
      "id": "sr_138953548",
      "price": 104800,
      "lat": 50.0786564092,
      "lng": 14.4509534869,
      "sqm": 118,
      "rooms": 4,
      "address": "náměstí Jiřího z Poděbrad, Vinohrady, Praha",
      "zone": "Vinohrady",
      "url": "https://www.sreality.cz/detail/pronajem/byt/4+kk/praha-vinohrady-namesti-jiriho-z-podebrad/138953548",
      "listing_published_at": "2026-03-20",
      "listing_updated_at": "2026-07-21"
    },
    {
      "id": "sr_1786155084",
      "price": 32000,
      "lat": 50.0727723,
      "lng": 14.4379609,
      "sqm": 58,
      "rooms": 2,
      "address": "Americká, Vinohrady, Praha",
      "zone": "Vinohrady",
      "url": "https://www.sreality.cz/detail/pronajem/byt/2+1/praha-vinohrady-americka/1786155084",
      "listing_published_at": "2026-05-22",
      "listing_updated_at": "2026-07-21"
    },
    {
      "id": "sr_2144101196",
      "price": 60000,
      "lat": 50.0683130945,
      "lng": 14.4155029527,
      "sqm": 105,
      "rooms": 3,
      "address": "Na Hrobci, Nové Město, Praha",
      "zone": "Nové Město",
      "url": "https://www.sreality.cz/detail/pronajem/byt/3+1/praha-nove-mesto-na-hrobci/2144101196",
      "listing_published_at": "2026-02-19",
      "listing_updated_at": "2026-07-21"
    },
    {
      "id": "sr_4211667020",
      "price": 20000,
      "lat": 50.0026833333,
      "lng": 14.4114822222,
      "sqm": 46,
      "rooms": 1,
      "address": "K dolům, Modřany, Praha",
      "zone": "Modřany",
      "url": "https://www.sreality.cz/detail/pronajem/byt/1+1/praha-modrany-k-dolum/4211667020",
      "listing_published_at": "2026-06-16",
      "listing_updated_at": "2026-07-21"
    },
    {
      "id": "sr_2226421836",
      "price": 75000,
      "lat": 50.100421,
      "lng": 14.403307,
      "sqm": 192,
      "rooms": 5,
      "address": "Čs. armády, Bubeneč, Praha",
      "zone": "Bubeneč",
      "url": "https://www.sreality.cz/detail/pronajem/byt/5+kk/praha-bubenec-cs-armady/2226421836",
      "listing_published_at": "2026-06-11",
      "listing_updated_at": "2026-07-21"
    },
    {
      "id": "sr_368083020",
      "price": 16000,
      "lat": 50.05432,
      "lng": 14.354862,
      "sqm": 43,
      "rooms": 1,
      "address": "Za Zámečkem, Jinonice, Praha",
      "zone": "Jinonice",
      "url": "https://www.sreality.cz/detail/pronajem/byt/1+kk/praha-jinonice-za-zameckem/368083020",
      "listing_published_at": "2026-06-08",
      "listing_updated_at": "2026-07-21"
    },
    {
      "id": "sr_3955613772",
      "price": 16000,
      "lat": 50.10704375697894,
      "lng": 14.387829807526876,
      "sqm": 51,
      "rooms": 2,
      "address": "Zelená, Praha",
      "zone": "Zelená",
      "url": "https://www.sreality.cz/detail/pronajem/byt/2+kk/praha-zelena/3955613772",
      "listing_published_at": "2026-07-21",
      "listing_updated_at": "2026-07-21"
    },
    {
      "id": "sr_1495396428",
      "price": 43000,
      "lat": 50.0885935,
      "lng": 14.4599068,
      "sqm": 72,
      "rooms": 2,
      "address": "Hartigova, Žižkov, Praha",
      "zone": "Žižkov",
      "url": "https://www.sreality.cz/detail/pronajem/byt/2+1/praha-zizkov-hartigova/1495396428",
      "listing_published_at": "2026-06-24",
      "listing_updated_at": "2026-07-21"
    },
    {
      "id": "sr_68481100",
      "price": 69000,
      "lat": 50.0686571,
      "lng": 14.3856888,
      "sqm": 118,
      "rooms": 4,
      "address": "U Blaženky, Smíchov, Praha",
      "zone": "Smíchov",
      "url": "https://www.sreality.cz/detail/pronajem/byt/4+kk/praha-smichov-u-blazenky/68481100",
      "listing_published_at": "2026-07-01",
      "listing_updated_at": "2026-07-21"
    },
    {
      "id": "sr_2747502668",
      "price": 23500,
      "lat": 50.060571,
      "lng": 14.398862,
      "sqm": 57,
      "rooms": 2,
      "address": "Na Neklance, Smíchov, Praha",
      "zone": "Smíchov",
      "url": "https://www.sreality.cz/detail/pronajem/byt/2+kk/praha-smichov-na-neklance/2747502668",
      "listing_published_at": "2026-05-18",
      "listing_updated_at": "2026-07-21"
    },
    {
      "id": "sr_1417449548",
      "price": 14900,
      "lat": 50.0992821048,
      "lng": 14.4688838805,
      "sqm": 24,
      "rooms": 1,
      "address": "Sokolovská, Libeň, Praha",
      "zone": "Libeň",
      "url": "https://www.sreality.cz/detail/pronajem/byt/1+kk/praha-liben-sokolovska/1417449548",
      "listing_published_at": "2026-05-15",
      "listing_updated_at": "2026-07-21"
    },
    {
      "id": "sr_2310115404",
      "price": 17000,
      "lat": 50.0422327959067,
      "lng": 14.5595490514242,
      "sqm": 42,
      "rooms": 2,
      "address": "Veronské nám., Horní Měcholupy, Praha",
      "zone": "Horní Měcholupy",
      "url": "https://www.sreality.cz/detail/pronajem/byt/2+kk/praha-horni-mecholupy-veronske-nam/2310115404",
      "listing_published_at": "2026-05-20",
      "listing_updated_at": "2026-07-21"
    },
    {
      "id": "sr_616865868",
      "price": 38000,
      "lat": 50.0990362342,
      "lng": 14.3717862979,
      "sqm": 93,
      "rooms": 3,
      "address": "Evropská, Dejvice, Praha",
      "zone": "Dejvice",
      "url": "https://www.sreality.cz/detail/pronajem/byt/3+1/praha-dejvice-evropska/616865868",
      "listing_published_at": "2026-05-07",
      "listing_updated_at": "2026-07-21"
    },
    {
      "id": "sr_1769861196",
      "price": 62000,
      "lat": 50.0788365731,
      "lng": 14.4466252414,
      "sqm": 90,
      "rooms": 3,
      "address": "Polská, Vinohrady, Praha",
      "zone": "Vinohrady",
      "url": "https://www.sreality.cz/detail/pronajem/byt/3+kk/praha-vinohrady-polska/1769861196",
      "listing_published_at": "2026-06-19",
      "listing_updated_at": "2026-07-21"
    },
    {
      "id": "sr_1116659788",
      "price": 40000,
      "lat": 50.0893824622,
      "lng": 14.4034661719,
      "sqm": 85,
      "rooms": 3,
      "address": "Sněmovní, Malá Strana, Praha",
      "zone": "Malá Strana",
      "url": "https://www.sreality.cz/detail/pronajem/byt/3+1/praha-mala-strana-snemovni/1116659788",
      "listing_published_at": "2026-07-09",
      "listing_updated_at": "2026-07-21"
    },
    {
      "id": "sr_2871558220",
      "price": 27000,
      "lat": 50.0310042811892,
      "lng": 14.52211819091,
      "sqm": 85,
      "rooms": 3,
      "address": "Michnova, Chodov, Praha",
      "zone": "Chodov",
      "url": "https://www.sreality.cz/detail/pronajem/byt/3+kk/praha-chodov-michnova/2871558220",
      "listing_published_at": "2026-05-29",
      "listing_updated_at": "2026-07-21"
    },
    {
      "id": "sr_3345461324",
      "price": 80000,
      "lat": 50.0766644805,
      "lng": 14.4164105511,
      "sqm": 140,
      "rooms": 4,
      "address": "Na Zderaze, Nové Město, Praha",
      "zone": "Nové Město",
      "url": "https://www.sreality.cz/detail/pronajem/byt/4+kk/praha-nove-mesto-na-zderaze/3345461324",
      "listing_published_at": "2026-04-17",
      "listing_updated_at": "2026-07-21"
    },
    {
      "id": "sr_3902165836",
      "price": 30000,
      "lat": 50.084686,
      "lng": 14.485044,
      "sqm": 60,
      "rooms": 2,
      "address": "Zvěřinova, Strašnice, Praha",
      "zone": "Strašnice",
      "url": "https://www.sreality.cz/detail/pronajem/byt/2+kk/praha-strasnice-zverinova/3902165836",
      "listing_published_at": "2026-03-16",
      "listing_updated_at": "2026-07-21"
    },
    {
      "id": "sr_542150732",
      "price": 58000,
      "lat": 50.0534520378595,
      "lng": 14.4097156630624,
      "sqm": 94,
      "rooms": 3,
      "address": "U Lihovaru, Smíchov, Praha",
      "zone": "Smíchov",
      "url": "https://www.sreality.cz/detail/pronajem/byt/3+kk/praha-smichov-u-lihovaru/542150732",
      "listing_published_at": "2026-05-20",
      "listing_updated_at": "2026-07-21"
    },
    {
      "id": "sr_867536972",
      "price": 58000,
      "lat": 50.0715444983,
      "lng": 14.4145052245,
      "sqm": 108,
      "rooms": 3,
      "address": "Dřevná, Nové Město, Praha",
      "zone": "Nové Město",
      "url": "https://www.sreality.cz/detail/pronajem/byt/3+1/praha-nove-mesto-drevna/867536972",
      "listing_published_at": "2026-05-25",
      "listing_updated_at": "2026-07-21"
    },
    {
      "id": "sr_1869148236",
      "price": 32500,
      "lat": 50.0992821048,
      "lng": 14.4688838805,
      "sqm": 95,
      "rooms": 3,
      "address": "Sokolovská, Libeň, Praha",
      "zone": "Libeň",
      "url": "https://www.sreality.cz/detail/pronajem/byt/3+kk/praha-liben-sokolovska/1869148236",
      "listing_published_at": "2026-06-16",
      "listing_updated_at": "2026-07-21"
    },
    {
      "id": "sr_515760204",
      "price": 20500,
      "lat": 50.091737,
      "lng": 14.328695,
      "sqm": 50,
      "rooms": 2,
      "address": "Za Vokovickou vozovnou, Praha",
      "zone": "Za Vokovickou vozovnou",
      "url": "https://www.sreality.cz/detail/pronajem/byt/2+kk/praha-za-vokovickou-vozovnou/515760204",
      "listing_published_at": "2026-07-10",
      "listing_updated_at": "2026-07-21"
    },
    {
      "id": "sr_2441773132",
      "price": 21000,
      "lat": 50.09635452600942,
      "lng": 14.343954433146903,
      "sqm": 49,
      "rooms": 2,
      "address": "Ke dvoru, Vokovice, Praha",
      "zone": "Vokovice",
      "url": "https://www.sreality.cz/detail/pronajem/byt/2+kk/praha-vokovice-ke-dvoru/2441773132",
      "listing_published_at": "2026-05-27",
      "listing_updated_at": "2026-07-21"
    },
    {
      "id": "sr_962584652",
      "price": 19000,
      "lat": 50.05674973108095,
      "lng": 14.442051007290758,
      "sqm": 75,
      "rooms": 2,
      "address": "Nusle, Praha",
      "zone": "Nusle",
      "url": "https://www.sreality.cz/detail/pronajem/byt/2+1/praha-nusle/962584652",
      "listing_published_at": "2026-07-07",
      "listing_updated_at": "2026-07-21"
    },
    {
      "id": "sr_4047663948",
      "price": 175000,
      "lat": 50.068352455,
      "lng": 14.4150254011,
      "sqm": 187,
      "rooms": 4,
      "address": "Rašínovo nábřeží, Nové Město, Praha",
      "zone": "Nové Město",
      "url": "https://www.sreality.cz/detail/pronajem/byt/4+kk/praha-nove-mesto-rasinovo-nabrezi/4047663948",
      "listing_published_at": "2026-02-03",
      "listing_updated_at": "2026-07-21"
    },
    {
      "id": "sr_2627985484",
      "price": 18500,
      "lat": 50.088833483536696,
      "lng": 14.466235829629749,
      "sqm": 55,
      "rooms": 1,
      "address": "Praha 3, Praha",
      "zone": "Praha 3",
      "url": "https://www.sreality.cz/detail/pronajem/byt/1+1/praha-praha-3/2627985484",
      "listing_published_at": "2026-07-13",
      "listing_updated_at": "2026-07-21"
    },
    {
      "id": "sr_3863183436",
      "price": 50000,
      "lat": 50.0870751512,
      "lng": 14.4088966562,
      "sqm": 82,
      "rooms": 2,
      "address": "Na Kampě, Malá Strana, Praha",
      "zone": "Malá Strana",
      "url": "https://www.sreality.cz/detail/pronajem/byt/2+kk/praha-mala-strana-na-kampe/3863183436",
      "listing_published_at": "2026-06-03",
      "listing_updated_at": "2026-07-21"
    },
    {
      "id": "sr_3031822412",
      "price": 16000,
      "lat": 50.0620336,
      "lng": 14.4039448,
      "sqm": 36,
      "rooms": 1,
      "address": "Ke Koulce, Smíchov, Praha",
      "zone": "Smíchov",
      "url": "https://www.sreality.cz/detail/pronajem/byt/1+1/praha-smichov-ke-koulce/3031822412",
      "listing_published_at": "2026-06-30",
      "listing_updated_at": "2026-07-21"
    },
    {
      "id": "sr_573300812",
      "price": 24800,
      "lat": 50.099825,
      "lng": 14.3962555556,
      "sqm": 35,
      "rooms": 1,
      "address": "Vítězné náměstí, Bubeneč, Praha",
      "zone": "Bubeneč",
      "url": "https://www.sreality.cz/detail/pronajem/byt/1+kk/praha-bubenec-vitezne-namesti/573300812",
      "listing_published_at": "2026-07-01",
      "listing_updated_at": "2026-07-21"
    },
    {
      "id": "sr_1857876044",
      "price": 29500,
      "lat": 50.0486413705,
      "lng": 14.4329576328,
      "sqm": 70,
      "rooms": 2,
      "address": "Milevská, Podolí, Praha",
      "zone": "Podolí",
      "url": "https://www.sreality.cz/detail/pronajem/byt/2+kk/praha-podoli-milevska/1857876044",
      "listing_published_at": "2026-06-22",
      "listing_updated_at": "2026-07-21"
    },
    {
      "id": "sr_2899636300",
      "price": 62000,
      "lat": 50.0923273811,
      "lng": 14.4348866372,
      "sqm": 102,
      "rooms": 3,
      "address": "Helmova, Nové Město, Praha",
      "zone": "Nové Město",
      "url": "https://www.sreality.cz/detail/pronajem/byt/3+kk/praha-nove-mesto-helmova/2899636300",
      "listing_published_at": "2026-07-01",
      "listing_updated_at": "2026-07-21"
    },
    {
      "id": "sr_767942732",
      "price": 23000,
      "lat": 50.0003803033666,
      "lng": 14.4212056823288,
      "sqm": 50,
      "rooms": 2,
      "address": "Větrovcova, Modřany, Praha",
      "zone": "Modřany",
      "url": "https://www.sreality.cz/detail/pronajem/byt/2+kk/praha-modrany-vetrovcova/767942732",
      "listing_published_at": "2026-07-21",
      "listing_updated_at": "2026-07-21"
    },
    {
      "id": "sr_2559438924",
      "price": 25000,
      "lat": 50.06491942538304,
      "lng": 14.428226440125215,
      "sqm": 43,
      "rooms": 2,
      "address": "Jaromírova, Nusle, Praha",
      "zone": "Nusle",
      "url": "https://www.sreality.cz/detail/pronajem/byt/2+kk/praha-nusle-jaromirova/2559438924",
      "listing_published_at": "2026-06-20",
      "listing_updated_at": "2026-07-21"
    },
    {
      "id": "sr_965603404",
      "price": 20000,
      "lat": 50.06491942538304,
      "lng": 14.428226440125215,
      "sqm": 26,
      "rooms": 1,
      "address": "Jaromírova, Nusle, Praha",
      "zone": "Nusle",
      "url": "https://www.sreality.cz/detail/pronajem/byt/1+kk/praha-nusle-jaromirova/965603404",
      "listing_published_at": "2026-06-20",
      "listing_updated_at": "2026-07-21"
    },
    {
      "id": "sr_2844651596",
      "price": 24500,
      "lat": 50.07278546529155,
      "lng": 14.393012557895005,
      "sqm": 46,
      "rooms": 2,
      "address": "Grafická, Smíchov, Praha",
      "zone": "Smíchov",
      "url": "https://www.sreality.cz/detail/pronajem/byt/2+kk/praha-smichov-graficka/2844651596",
      "listing_published_at": "2026-06-20",
      "listing_updated_at": "2026-07-21"
    },
    {
      "id": "sr_4186828876",
      "price": 21000,
      "lat": 50.08602288986637,
      "lng": 14.450561243538786,
      "sqm": 29,
      "rooms": 1,
      "address": "Cimburkova, Žižkov, Praha",
      "zone": "Žižkov",
      "url": "https://www.sreality.cz/detail/pronajem/byt/1+kk/praha-zizkov-cimburkova/4186828876",
      "listing_published_at": "2026-06-20",
      "listing_updated_at": "2026-07-21"
    },
    {
      "id": "sr_1793934156",
      "price": 24000,
      "lat": 50.06491942538304,
      "lng": 14.428226440125215,
      "sqm": 37,
      "rooms": 2,
      "address": "Jaromírova, Nusle, Praha",
      "zone": "Nusle",
      "url": "https://www.sreality.cz/detail/pronajem/byt/2+kk/praha-nusle-jaromirova/1793934156",
      "listing_published_at": "2026-03-24",
      "listing_updated_at": "2026-07-21"
    },
    {
      "id": "sr_2375050060",
      "price": 19000,
      "lat": 50.06491942538304,
      "lng": 14.428226440125215,
      "sqm": 33,
      "rooms": 1,
      "address": "Jaromírova, Nusle, Praha",
      "zone": "Nusle",
      "url": "https://www.sreality.cz/detail/pronajem/byt/1+kk/praha-nusle-jaromirova/2375050060",
      "listing_published_at": "2026-02-24",
      "listing_updated_at": "2026-07-21"
    },
    {
      "id": "sr_143319116",
      "price": 28000,
      "lat": 50.00782308551539,
      "lng": 14.45536856303421,
      "sqm": 71,
      "rooms": 3,
      "address": "Kramperova, Kamýk, Praha",
      "zone": "Kamýk",
      "url": "https://www.sreality.cz/detail/pronajem/byt/3+kk/praha-kamyk-kramperova/143319116",
      "listing_published_at": "2026-07-03",
      "listing_updated_at": "2026-07-21"
    },
    {
      "id": "sr_3357507660",
      "price": 21900,
      "lat": 50.1189656926015,
      "lng": 14.4540215577228,
      "sqm": 38,
      "rooms": 2,
      "address": "Nad Rokoskou, Libeň, Praha",
      "zone": "Libeň",
      "url": "https://www.sreality.cz/detail/pronajem/byt/2+kk/praha-liben-nad-rokoskou/3357507660",
      "listing_published_at": "2026-05-31",
      "listing_updated_at": "2026-07-21"
    },
    {
      "id": "sr_1388699724",
      "price": 30500,
      "lat": 50.1398088332862,
      "lng": 14.4473772319419,
      "sqm": 77,
      "rooms": 3,
      "address": "K Beranovu, Dolní Chabry, Praha",
      "zone": "Dolní Chabry",
      "url": "https://www.sreality.cz/detail/pronajem/byt/3+kk/praha-dolni-chabry-k-beranovu/1388699724",
      "listing_published_at": "2026-07-21",
      "listing_updated_at": "2026-07-21"
    },
    {
      "id": "sr_249274444",
      "price": 35000,
      "lat": 50.0959516,
      "lng": 14.4525146,
      "sqm": 65,
      "rooms": 2,
      "address": "U Mlýnského kanálu, Karlín, Praha",
      "zone": "Karlín",
      "url": "https://www.sreality.cz/detail/pronajem/byt/2+kk/praha-karlin-u-mlynskeho-kanalu/249274444",
      "listing_published_at": "2026-04-22",
      "listing_updated_at": "2026-07-21"
    },
    {
      "id": "sr_181264460",
      "price": 26000,
      "lat": 50.076394,
      "lng": 14.4599612,
      "sqm": 91,
      "rooms": 3,
      "address": "Čáslavská, Vinohrady, Praha",
      "zone": "Vinohrady",
      "url": "https://www.sreality.cz/detail/pronajem/byt/3+1/praha-vinohrady-caslavska/181264460",
      "listing_published_at": "2026-07-10",
      "listing_updated_at": "2026-07-21"
    },
    {
      "id": "sr_1381163084",
      "price": 23000,
      "lat": 50.103542985,
      "lng": 14.5074625926,
      "sqm": 42,
      "rooms": 2,
      "address": "Gerstelova, Vysočany, Praha",
      "zone": "Vysočany",
      "url": "https://www.sreality.cz/detail/pronajem/byt/2+kk/praha-vysocany-gerstelova/1381163084",
      "listing_published_at": "2026-07-14",
      "listing_updated_at": "2026-07-21"
    },
    {
      "id": "sr_3180257356",
      "price": 17990,
      "lat": 50.0665358858807,
      "lng": 14.5532779018965,
      "sqm": 30,
      "rooms": 1,
      "address": "Kardausova, Dolní Měcholupy, Praha",
      "zone": "Dolní Měcholupy",
      "url": "https://www.sreality.cz/detail/pronajem/byt/1+kk/praha-dolni-mecholupy-kardausova/3180257356",
      "listing_published_at": "2026-07-09",
      "listing_updated_at": "2026-07-21"
    },
    {
      "id": "sr_109482060",
      "price": 58000,
      "lat": 50.0715623663675,
      "lng": 14.4147396251249,
      "sqm": 108,
      "rooms": 3,
      "address": "Dřevná, Nové Město, Praha",
      "zone": "Nové Město",
      "url": "https://www.sreality.cz/detail/pronajem/byt/3+1/praha-nove-mesto-drevna/109482060",
      "listing_published_at": "2026-05-23",
      "listing_updated_at": "2026-07-21"
    },
    {
      "id": "sr_2949022540",
      "price": 130000,
      "lat": 50.0715623663675,
      "lng": 14.4147396251249,
      "sqm": 250,
      "rooms": 5,
      "address": "Dřevná, Nové Město, Praha",
      "zone": "Nové Město",
      "url": "https://www.sreality.cz/detail/pronajem/byt/5+kk/praha-nove-mesto-drevna/2949022540",
      "listing_published_at": "2025-08-07",
      "listing_updated_at": "2026-07-21"
    },
    {
      "id": "sr_3801972812",
      "price": 24000,
      "lat": 50.0765830388,
      "lng": 14.4901333505,
      "sqm": 40,
      "rooms": 2,
      "address": "Černokostelecká, Strašnice, Praha",
      "zone": "Strašnice",
      "url": "https://www.sreality.cz/detail/pronajem/byt/2+kk/praha-strasnice-cernokostelecka/3801972812",
      "listing_published_at": "2026-06-02",
      "listing_updated_at": "2026-07-21"
    },
    {
      "id": "sr_2761405260",
      "price": 45000,
      "lat": 50.0937120900096,
      "lng": 14.498383940831856,
      "sqm": 97,
      "rooms": 3,
      "address": "V Třešňovce, Hrdlořezy, Praha",
      "zone": "Hrdlořezy",
      "url": "https://www.sreality.cz/detail/pronajem/byt/3+kk/praha-hrdlorezy-v-tresnovce/2761405260",
      "listing_published_at": "2025-06-08",
      "listing_updated_at": "2026-07-21"
    },
    {
      "id": "sr_3583893580",
      "price": 30000,
      "lat": 50.1026103114,
      "lng": 14.4544302971,
      "sqm": 58,
      "rooms": 2,
      "address": "V Háji, Holešovice, Praha",
      "zone": "Holešovice",
      "url": "https://www.sreality.cz/detail/pronajem/byt/2+kk/praha-holesovice-v-haji/3583893580",
      "listing_published_at": "2026-07-10",
      "listing_updated_at": "2026-07-21"
    },
    {
      "id": "sr_3030483020",
      "price": 26000,
      "lat": 50.07702746964155,
      "lng": 14.407756238312867,
      "sqm": 45,
      "rooms": 2,
      "address": "Pavla Švandy ze Semčic, Smíchov, Praha",
      "zone": "Smíchov",
      "url": "https://www.sreality.cz/detail/pronajem/byt/2+kk/praha-smichov-pavla-svandy-ze-semcic/3030483020",
      "listing_published_at": "2026-06-06",
      "listing_updated_at": "2026-07-21"
    },
    {
      "id": "sr_4201439308",
      "price": 16000,
      "lat": 50.1150911731199,
      "lng": 14.471509676321576,
      "sqm": 45,
      "rooms": 2,
      "address": "Vosmíkových, Libeň, Praha",
      "zone": "Libeň",
      "url": "https://www.sreality.cz/detail/pronajem/byt/2+kk/praha-liben-vosmikovych/4201439308",
      "listing_published_at": "2026-07-10",
      "listing_updated_at": "2026-07-21"
    },
    {
      "id": "sr_542105676",
      "price": 45000,
      "lat": 50.0942752732349,
      "lng": 14.4529983656834,
      "sqm": 110,
      "rooms": 3,
      "address": "Sokolovská, Karlín, Praha",
      "zone": "Karlín",
      "url": "https://www.sreality.cz/detail/pronajem/byt/3+kk/praha-karlin-sokolovska/542105676",
      "listing_published_at": "2026-07-07",
      "listing_updated_at": "2026-07-21"
    },
    {
      "id": "sr_549838924",
      "price": 17500,
      "lat": 50.046928590567205,
      "lng": 14.434498137698853,
      "sqm": 40,
      "rooms": 2,
      "address": "Pujmanové, Praha",
      "zone": "Pujmanové",
      "url": "https://www.sreality.cz/detail/pronajem/byt/2+kk/praha-pujmanove/549838924",
      "listing_published_at": "2026-07-21",
      "listing_updated_at": "2026-07-21"
    },
    {
      "id": "sr_2327044172",
      "price": 25000,
      "lat": 50.0949447726152,
      "lng": 14.3730650854913,
      "sqm": 80,
      "rooms": 2,
      "address": "Na Ořechovce, Střešovice, Praha",
      "zone": "Střešovice",
      "url": "https://www.sreality.cz/detail/pronajem/byt/2+1/praha-stresovice-na-orechovce/2327044172",
      "listing_published_at": "2026-07-13",
      "listing_updated_at": "2026-07-21"
    },
    {
      "id": "sr_835051596",
      "price": 25000,
      "lat": 50.1027787994,
      "lng": 14.5811048492,
      "sqm": 64,
      "rooms": 3,
      "address": "Kpt. Stránského, Černý Most, Praha",
      "zone": "Černý Most",
      "url": "https://www.sreality.cz/detail/pronajem/byt/3+kk/praha-cerny-most-kpt-stranskeho/835051596",
      "listing_published_at": "2026-07-21",
      "listing_updated_at": "2026-07-21"
    }
  ]
}