{
  "fetched_at": "2026-07-12T19:39:17.541Z",
  "active_count": 279,
  "listings": [
    {
      "id": "sr_3939295308",
      "price": 20000,
      "lat": 50.083271,
      "lng": 14.378563,
      "sqm": 45,
      "rooms": 2,
      "address": "Závěrka, Břevnov, Praha",
      "zone": "Břevnov",
      "url": "https://www.sreality.cz/detail/pronajem/byt/2+kk/praha-brevnov-zaverka/3939295308",
      "listing_published_at": "2026-07-12",
      "listing_updated_at": "2026-07-12"
    },
    {
      "id": "sr_1460138060",
      "price": 34000,
      "lat": 50.10044,
      "lng": 14.401221,
      "sqm": 113,
      "rooms": 3,
      "address": "Čs. armády, Bubeneč, Praha",
      "zone": "Bubeneč",
      "url": "https://www.sreality.cz/detail/pronajem/byt/3+1/praha-bubenec-cs-armady/1460138060",
      "listing_published_at": "2026-06-26",
      "listing_updated_at": "2026-07-12"
    },
    {
      "id": "sr_1081238348",
      "price": 21000,
      "lat": 50.083798898403664,
      "lng": 14.376297954767457,
      "sqm": 55,
      "rooms": 2,
      "address": "Liborova, Břevnov, Praha",
      "zone": "Břevnov",
      "url": "https://www.sreality.cz/detail/pronajem/byt/2+kk/praha-brevnov-liborova/1081238348",
      "listing_published_at": "2026-02-21",
      "listing_updated_at": "2026-07-12"
    },
    {
      "id": "sr_1570148428",
      "price": 22000,
      "lat": 50.0523391131208,
      "lng": 14.3642866434671,
      "sqm": 43,
      "rooms": 2,
      "address": "K rovinám, Jinonice, Praha",
      "zone": "Jinonice",
      "url": "https://www.sreality.cz/detail/pronajem/byt/2+kk/praha-jinonice-k-rovinam/1570148428",
      "listing_published_at": "2026-05-23",
      "listing_updated_at": "2026-07-12"
    },
    {
      "id": "sr_2443285324",
      "price": 110000,
      "lat": 50.0508741809,
      "lng": 14.4070939862,
      "sqm": 288,
      "rooms": 3,
      "address": "Křížová, Smíchov, Praha",
      "zone": "Smíchov",
      "url": "https://www.sreality.cz/detail/pronajem/byt/3+kk/praha-smichov-krizova/2443285324",
      "listing_published_at": "2025-07-14",
      "listing_updated_at": "2026-07-12"
    },
    {
      "id": "sr_821461068",
      "price": 25000,
      "lat": 50.0575899,
      "lng": 14.4682048,
      "sqm": 56,
      "rooms": 2,
      "address": "V Dolině, Michle, Praha",
      "zone": "Michle",
      "url": "https://www.sreality.cz/detail/pronajem/byt/2+kk/praha-michle-v-doline/821461068",
      "listing_published_at": "2026-06-09",
      "listing_updated_at": "2026-07-12"
    },
    {
      "id": "sr_3635802188",
      "price": 23000,
      "lat": 50.0903736071977,
      "lng": 14.4708560344498,
      "sqm": 56,
      "rooms": 2,
      "address": "Rečkova, Žižkov, Praha",
      "zone": "Žižkov",
      "url": "https://www.sreality.cz/detail/pronajem/byt/2+kk/praha-zizkov-reckova/3635802188",
      "listing_published_at": "2026-06-30",
      "listing_updated_at": "2026-07-12"
    },
    {
      "id": "sr_884924492",
      "price": 28000,
      "lat": 50.0354993473476,
      "lng": 14.3428509078355,
      "sqm": 62,
      "rooms": 3,
      "address": "Klausova, Stodůlky, Praha",
      "zone": "Stodůlky",
      "url": "https://www.sreality.cz/detail/pronajem/byt/3+kk/praha-stodulky-klausova/884924492",
      "listing_published_at": "2026-07-09",
      "listing_updated_at": "2026-07-12"
    },
    {
      "id": "sr_378527820",
      "price": 25000,
      "lat": 50.0844998403337,
      "lng": 14.4854803227137,
      "sqm": 47,
      "rooms": 1,
      "address": "Zvěřinova, Strašnice, Praha",
      "zone": "Strašnice",
      "url": "https://www.sreality.cz/detail/pronajem/byt/1+kk/praha-strasnice-zverinova/378527820",
      "listing_published_at": "2026-07-08",
      "listing_updated_at": "2026-07-12"
    },
    {
      "id": "sr_533520460",
      "price": 23000,
      "lat": 50.0793938775,
      "lng": 14.4255204528,
      "sqm": 48,
      "rooms": 2,
      "address": "Štěpánská, Nové Město, Praha",
      "zone": "Nové Město",
      "url": "https://www.sreality.cz/detail/pronajem/byt/2+1/praha-nove-mesto-stepanska/533520460",
      "listing_published_at": "2026-07-12",
      "listing_updated_at": "2026-07-12"
    },
    {
      "id": "sr_2063827020",
      "price": 120000,
      "lat": 50.0771876278416,
      "lng": 14.4353739844093,
      "sqm": 115,
      "rooms": 3,
      "address": "Římská, Vinohrady, Praha",
      "zone": "Vinohrady",
      "url": "https://www.sreality.cz/detail/pronajem/byt/3+1/praha-vinohrady-rimska/2063827020",
      "listing_published_at": "2026-06-03",
      "listing_updated_at": "2026-07-12"
    },
    {
      "id": "sr_3708256332",
      "price": 21950,
      "lat": 50.0199984226299,
      "lng": 14.4672813129731,
      "sqm": 70,
      "rooms": 2,
      "address": "Muškova, Kunratice, Praha",
      "zone": "Kunratice",
      "url": "https://www.sreality.cz/detail/pronajem/byt/2+kk/praha-kunratice-muskova/3708256332",
      "listing_published_at": "2026-06-08",
      "listing_updated_at": "2026-07-12"
    },
    {
      "id": "sr_2596204620",
      "price": 26900,
      "lat": 50.0426655818228,
      "lng": 14.4575442194375,
      "sqm": 79,
      "rooms": 3,
      "address": "Budějovická, Krč, Praha",
      "zone": "Krč",
      "url": "https://www.sreality.cz/detail/pronajem/byt/3+kk/praha-krc-budejovicka/2596204620",
      "listing_published_at": "2026-06-18",
      "listing_updated_at": "2026-07-12"
    },
    {
      "id": "sr_1741860940",
      "price": 18000,
      "lat": 50.0424523470866,
      "lng": 14.5571225861562,
      "sqm": 37,
      "rooms": 1,
      "address": "Bolevecká, Horní Měcholupy, Praha",
      "zone": "Horní Měcholupy",
      "url": "https://www.sreality.cz/detail/pronajem/byt/1+kk/praha-horni-mecholupy-bolevecka/1741860940",
      "listing_published_at": "2026-04-15",
      "listing_updated_at": "2026-07-12"
    },
    {
      "id": "sr_2819522636",
      "price": 42000,
      "lat": 50.079406,
      "lng": 14.40794,
      "sqm": 83,
      "rooms": 3,
      "address": "Janáčkovo nábřeží, Smíchov, Praha",
      "zone": "Smíchov",
      "url": "https://www.sreality.cz/detail/pronajem/byt/3+kk/praha-smichov-janackovo-nabrezi/2819522636",
      "listing_published_at": "2026-06-01",
      "listing_updated_at": "2026-07-12"
    },
    {
      "id": "sr_525238348",
      "price": 21900,
      "lat": 50.0596610462,
      "lng": 14.4491961243,
      "sqm": 55,
      "rooms": 2,
      "address": "Jaurisova, Nusle, Praha",
      "zone": "Nusle",
      "url": "https://www.sreality.cz/detail/pronajem/byt/2+kk/praha-nusle-jaurisova/525238348",
      "listing_published_at": "2026-06-01",
      "listing_updated_at": "2026-07-12"
    },
    {
      "id": "sr_713023564",
      "price": 20900,
      "lat": 50.110580285144025,
      "lng": 14.44382370173904,
      "sqm": 34,
      "rooms": 1,
      "address": "V závětří, Holešovice, Praha",
      "zone": "Holešovice",
      "url": "https://www.sreality.cz/detail/pronajem/byt/1+kk/praha-holesovice-v-zavetri/713023564",
      "listing_published_at": "2026-07-07",
      "listing_updated_at": "2026-07-12"
    },
    {
      "id": "sr_13426764",
      "price": 23900,
      "lat": 50.00599718883519,
      "lng": 14.415066003572443,
      "sqm": 55,
      "rooms": 2,
      "address": "Soukalova, Modřany, Praha",
      "zone": "Modřany",
      "url": "https://www.sreality.cz/detail/pronajem/byt/2+kk/praha-modrany-soukalova/13426764",
      "listing_published_at": "2026-07-12",
      "listing_updated_at": "2026-07-12"
    },
    {
      "id": "sr_1640816716",
      "price": 100,
      "lat": 49.96023776848668,
      "lng": 14.35021623849692,
      "sqm": 16,
      "rooms": null,
      "address": "Lipence, Praha",
      "zone": "Lipence",
      "url": "https://www.sreality.cz/detail/pronajem/byt/Pokoj/praha-lipence/1640816716",
      "listing_published_at": "2026-07-12",
      "listing_updated_at": "2026-07-12"
    },
    {
      "id": "sr_3973181516",
      "price": 17900,
      "lat": 50.13882313865247,
      "lng": 14.54895309619507,
      "sqm": 31,
      "rooms": 1,
      "address": "Pod Nouzovem, Kbely, Praha",
      "zone": "Kbely",
      "url": "https://www.sreality.cz/detail/pronajem/byt/1+kk/praha-kbely-pod-nouzovem/3973181516",
      "listing_published_at": "2026-06-24",
      "listing_updated_at": "2026-07-12"
    },
    {
      "id": "sr_2371870796",
      "price": 34000,
      "lat": 50.082989,
      "lng": 14.443993,
      "sqm": 51,
      "rooms": 2,
      "address": "U Rajské zahrady, Žižkov, Praha",
      "zone": "Žižkov",
      "url": "https://www.sreality.cz/detail/pronajem/byt/2+kk/praha-zizkov-u-rajske-zahrady/2371870796",
      "listing_published_at": "2026-07-07",
      "listing_updated_at": "2026-07-12"
    },
    {
      "id": "sr_1739620428",
      "price": 30900,
      "lat": 50.0880846523,
      "lng": 14.4783806811,
      "sqm": 77,
      "rooms": 3,
      "address": "Olgy Havlové, Žižkov, Praha",
      "zone": "Žižkov",
      "url": "https://www.sreality.cz/detail/pronajem/byt/3+kk/praha-zizkov-olgy-havlove/1739620428",
      "listing_published_at": "2026-06-08",
      "listing_updated_at": "2026-07-12"
    },
    {
      "id": "sr_1362944076",
      "price": 19000,
      "lat": 50.104131333087885,
      "lng": 14.528246645797323,
      "sqm": 27,
      "rooms": 1,
      "address": "Poděbradská, Praha",
      "zone": "Poděbradská",
      "url": "https://www.sreality.cz/detail/pronajem/byt/1+kk/praha-podebradska/1362944076",
      "listing_published_at": "2026-07-11",
      "listing_updated_at": "2026-07-12"
    },
    {
      "id": "sr_258404428",
      "price": 30000,
      "lat": 50.06633162577613,
      "lng": 14.399522358667644,
      "sqm": 57,
      "rooms": 2,
      "address": "Bieblova, Smíchov, Praha",
      "zone": "Smíchov",
      "url": "https://www.sreality.cz/detail/pronajem/byt/2+kk/praha-smichov-bieblova/258404428",
      "listing_published_at": "2026-06-28",
      "listing_updated_at": "2026-07-12"
    },
    {
      "id": "sr_2273505356",
      "price": 39900,
      "lat": 50.04884123536371,
      "lng": 14.429164614139198,
      "sqm": 65,
      "rooms": 2,
      "address": "K Sídlišti, Nusle, Praha",
      "zone": "Nusle",
      "url": "https://www.sreality.cz/detail/pronajem/byt/2+kk/praha-nusle-k-sidlisti/2273505356",
      "listing_published_at": "2026-06-24",
      "listing_updated_at": "2026-07-12"
    },
    {
      "id": "sr_2305130572",
      "price": 35000,
      "lat": 50.0750722222,
      "lng": 14.458775,
      "sqm": 92,
      "rooms": 2,
      "address": "Korunní, Vinohrady, Praha",
      "zone": "Vinohrady",
      "url": "https://www.sreality.cz/detail/pronajem/byt/2+kk/praha-vinohrady-korunni/2305130572",
      "listing_published_at": "2026-06-10",
      "listing_updated_at": "2026-07-12"
    },
    {
      "id": "sr_28409932",
      "price": 17000,
      "lat": 50.10171875964037,
      "lng": 14.452728617857128,
      "sqm": 33,
      "rooms": 1,
      "address": "Na Maninách, Holešovice, Praha",
      "zone": "Holešovice",
      "url": "https://www.sreality.cz/detail/pronajem/byt/1+kk/praha-holesovice-na-maninach/28409932",
      "listing_published_at": "2026-06-06",
      "listing_updated_at": "2026-07-12"
    },
    {
      "id": "sr_24805452",
      "price": 30000,
      "lat": 50.05385256587475,
      "lng": 14.534137129455019,
      "sqm": 70,
      "rooms": 3,
      "address": "Kozmíkova, Hostivař, Praha",
      "zone": "Hostivař",
      "url": "https://www.sreality.cz/detail/pronajem/byt/3+kk/praha-hostivar-kozmikova/24805452",
      "listing_published_at": "2026-05-27",
      "listing_updated_at": "2026-07-12"
    },
    {
      "id": "sr_2803142732",
      "price": 50000,
      "lat": 50.0925452778,
      "lng": 14.3717497222,
      "sqm": 195,
      "rooms": 4,
      "address": "Nad hradním vodojemem, Střešovice, Praha",
      "zone": "Střešovice",
      "url": "https://www.sreality.cz/detail/pronajem/byt/4+kk/praha-stresovice-nad-hradnim-vodojemem/2803142732",
      "listing_published_at": "2026-05-25",
      "listing_updated_at": "2026-07-12"
    },
    {
      "id": "sr_2618990668",
      "price": 32000,
      "lat": 50.05329628782621,
      "lng": 14.454318049200138,
      "sqm": 100,
      "rooms": 3,
      "address": "Michelská, Michle, Praha",
      "zone": "Michle",
      "url": "https://www.sreality.cz/detail/pronajem/byt/3+kk/praha-michle-michelska/2618990668",
      "listing_published_at": "2026-04-23",
      "listing_updated_at": "2026-07-12"
    },
    {
      "id": "sr_2033299532",
      "price": 19000,
      "lat": 50.09155598306719,
      "lng": 14.481268333641323,
      "sqm": 30,
      "rooms": 1,
      "address": "Biskupcova, Žižkov, Praha",
      "zone": "Žižkov",
      "url": "https://www.sreality.cz/detail/pronajem/byt/1+kk/praha-zizkov-biskupcova/2033299532",
      "listing_published_at": "2026-04-15",
      "listing_updated_at": "2026-07-12"
    },
    {
      "id": "sr_1600471884",
      "price": 25000,
      "lat": 50.10167970939961,
      "lng": 14.573659449037638,
      "sqm": 51,
      "rooms": 2,
      "address": "Arnošta Valenty, Černý Most, Praha",
      "zone": "Černý Most",
      "url": "https://www.sreality.cz/detail/pronajem/byt/2+kk/praha-cerny-most-arnosta-valenty/1600471884",
      "listing_published_at": "2026-04-01",
      "listing_updated_at": "2026-07-12"
    },
    {
      "id": "sr_2752372812",
      "price": 15000,
      "lat": 50.10156436791645,
      "lng": 14.452735584462197,
      "sqm": 30,
      "rooms": 1,
      "address": "Na Maninách, Holešovice, Praha",
      "zone": "Holešovice",
      "url": "https://www.sreality.cz/detail/pronajem/byt/1+kk/praha-holesovice-na-maninach/2752372812",
      "listing_published_at": "2026-07-10",
      "listing_updated_at": "2026-07-12"
    },
    {
      "id": "sr_48947276",
      "price": 30000,
      "lat": 50.032109523522344,
      "lng": 14.496846291874999,
      "sqm": 130,
      "rooms": 4,
      "address": "Medkova, Chodov, Praha",
      "zone": "Chodov",
      "url": "https://www.sreality.cz/detail/pronajem/byt/4+kk/praha-chodov-medkova/48947276",
      "listing_published_at": "2026-07-03",
      "listing_updated_at": "2026-07-12"
    },
    {
      "id": "sr_2225991756",
      "price": 90000,
      "lat": 50.053445219236465,
      "lng": 14.402690481355497,
      "sqm": 202,
      "rooms": 5,
      "address": "U Dívčích hradů, Smíchov, Praha",
      "zone": "Smíchov",
      "url": "https://www.sreality.cz/detail/pronajem/byt/5+kk/praha-smichov-u-divcich-hradu/2225991756",
      "listing_published_at": "2026-06-19",
      "listing_updated_at": "2026-07-12"
    },
    {
      "id": "sr_1389137996",
      "price": 50000,
      "lat": 50.074046114811615,
      "lng": 14.39665272869671,
      "sqm": 172,
      "rooms": null,
      "address": "Gabrielská, Smíchov, Praha",
      "zone": "Smíchov",
      "url": "https://www.sreality.cz/detail/pronajem/byt/Atypick%C3%BD/praha-smichov-gabrielska/1389137996",
      "listing_published_at": "2026-05-16",
      "listing_updated_at": "2026-07-12"
    },
    {
      "id": "sr_3836579916",
      "price": 14000,
      "lat": 50.09164788775791,
      "lng": 14.482250740315175,
      "sqm": 30,
      "rooms": 1,
      "address": "Biskupcova, Žižkov, Praha",
      "zone": "Žižkov",
      "url": "https://www.sreality.cz/detail/pronajem/byt/1+kk/praha-zizkov-biskupcova/3836579916",
      "listing_published_at": "2026-05-15",
      "listing_updated_at": "2026-07-12"
    },
    {
      "id": "sr_3428683852",
      "price": 39000,
      "lat": 50.01653519484284,
      "lng": 14.402670463560465,
      "sqm": 55,
      "rooms": 2,
      "address": "Československého exilu, Modřany, Praha",
      "zone": "Modřany",
      "url": "https://www.sreality.cz/detail/pronajem/byt/2+kk/praha-modrany-ceskoslovenskeho-exilu/3428683852",
      "listing_published_at": "2026-05-14",
      "listing_updated_at": "2026-07-12"
    },
    {
      "id": "sr_3945373772",
      "price": 36000,
      "lat": 50.088791262264316,
      "lng": 14.418346023413958,
      "sqm": 74,
      "rooms": 3,
      "address": "Maiselova, Josefov, Praha",
      "zone": "Josefov",
      "url": "https://www.sreality.cz/detail/pronajem/byt/3+kk/praha-josefov-maiselova/3945373772",
      "listing_published_at": "2026-04-23",
      "listing_updated_at": "2026-07-12"
    },
    {
      "id": "sr_2592190540",
      "price": 65000,
      "lat": 50.0692555556,
      "lng": 14.4449527778,
      "sqm": 170,
      "rooms": 4,
      "address": "Havlíčkovy sady, Praha",
      "zone": "Havlíčkovy sady",
      "url": "https://www.sreality.cz/detail/pronajem/byt/4+kk/praha-havlickovy-sady/2592190540",
      "listing_published_at": "2026-04-16",
      "listing_updated_at": "2026-07-12"
    },
    {
      "id": "sr_417443916",
      "price": 50000,
      "lat": 50.04061110566879,
      "lng": 14.434897469846915,
      "sqm": 162,
      "rooms": 4,
      "address": "Hudečkova, Krč, Praha",
      "zone": "Krč",
      "url": "https://www.sreality.cz/detail/pronajem/byt/4+kk/praha-krc-hudeckova/417443916",
      "listing_published_at": "2026-04-16",
      "listing_updated_at": "2026-07-12"
    },
    {
      "id": "sr_1241690188",
      "price": 190000,
      "lat": 50.079061196454155,
      "lng": 14.449753304380039,
      "sqm": 260,
      "rooms": 4,
      "address": "Laubova, Vinohrady, Praha",
      "zone": "Vinohrady",
      "url": "https://www.sreality.cz/detail/pronajem/byt/4+kk/praha-vinohrady-laubova/1241690188",
      "listing_published_at": "2026-04-15",
      "listing_updated_at": "2026-07-12"
    },
    {
      "id": "sr_3926044748",
      "price": 51000,
      "lat": 50.084499840333656,
      "lng": 14.485480322713652,
      "sqm": 117,
      "rooms": 4,
      "address": "Zvěřinova, Strašnice, Praha",
      "zone": "Strašnice",
      "url": "https://www.sreality.cz/detail/pronajem/byt/4+kk/praha-strasnice-zverinova/3926044748",
      "listing_published_at": "2026-04-15",
      "listing_updated_at": "2026-07-12"
    },
    {
      "id": "sr_2481762380",
      "price": 48000,
      "lat": 50.04884123536371,
      "lng": 14.429164614139198,
      "sqm": 102,
      "rooms": 3,
      "address": "K Sídlišti, Nusle, Praha",
      "zone": "Nusle",
      "url": "https://www.sreality.cz/detail/pronajem/byt/3+kk/praha-nusle-k-sidlisti/2481762380",
      "listing_published_at": "2026-04-13",
      "listing_updated_at": "2026-07-12"
    },
    {
      "id": "sr_2318680908",
      "price": 40000,
      "lat": 50.08862971007924,
      "lng": 14.418396245143716,
      "sqm": 100,
      "rooms": 2,
      "address": "Maiselova, Josefov, Praha",
      "zone": "Josefov",
      "url": "https://www.sreality.cz/detail/pronajem/byt/2+kk/praha-josefov-maiselova/2318680908",
      "listing_published_at": "2026-04-03",
      "listing_updated_at": "2026-07-12"
    },
    {
      "id": "sr_372412492",
      "price": 22900,
      "lat": 50.0866724003302,
      "lng": 14.4687397657657,
      "sqm": 63,
      "rooms": 2,
      "address": "Malešická, Žižkov, Praha",
      "zone": "Žižkov",
      "url": "https://www.sreality.cz/detail/pronajem/byt/2+kk/praha-zizkov-malesicka/372412492",
      "listing_published_at": "2026-05-18",
      "listing_updated_at": "2026-07-12"
    },
    {
      "id": "sr_1858986060",
      "price": 39990,
      "lat": 50.08015,
      "lng": 14.45223,
      "sqm": 116,
      "rooms": 3,
      "address": "Ondříčkova, Vinohrady, Praha",
      "zone": "Vinohrady",
      "url": "https://www.sreality.cz/detail/pronajem/byt/3+1/praha-vinohrady-ondrickova/1858986060",
      "listing_published_at": "2026-07-10",
      "listing_updated_at": "2026-07-12"
    },
    {
      "id": "sr_1293869132",
      "price": 19990,
      "lat": 50.09166,
      "lng": 14.42114,
      "sqm": 50,
      "rooms": 2,
      "address": "U milosrdných, Staré Město, Praha",
      "zone": "Staré Město",
      "url": "https://www.sreality.cz/detail/pronajem/byt/2+kk/praha-stare-mesto-u-milosrdnych/1293869132",
      "listing_published_at": "2026-07-09",
      "listing_updated_at": "2026-07-12"
    },
    {
      "id": "sr_2031018060",
      "price": 38990,
      "lat": 50.08,
      "lng": 14.41504,
      "sqm": 119,
      "rooms": 3,
      "address": "Pštrossova, Nové Město, Praha",
      "zone": "Nové Město",
      "url": "https://www.sreality.cz/detail/pronajem/byt/3+1/praha-nove-mesto-pstrossova/2031018060",
      "listing_published_at": "2026-07-09",
      "listing_updated_at": "2026-07-12"
    },
    {
      "id": "sr_2126835788",
      "price": 23990,
      "lat": 50.0931911,
      "lng": 14.4966678,
      "sqm": 64,
      "rooms": 2,
      "address": "Spojovací, Žižkov, Praha",
      "zone": "Žižkov",
      "url": "https://www.sreality.cz/detail/pronajem/byt/2+kk/praha-zizkov-spojovaci/2126835788",
      "listing_published_at": "2026-07-01",
      "listing_updated_at": "2026-07-12"
    },
    {
      "id": "sr_2303230028",
      "price": 25990,
      "lat": 50.07904,
      "lng": 14.45338,
      "sqm": 85,
      "rooms": 3,
      "address": "Lucemburská, Vinohrady, Praha",
      "zone": "Vinohrady",
      "url": "https://www.sreality.cz/detail/pronajem/byt/3+1/praha-vinohrady-lucemburska/2303230028",
      "listing_published_at": "2026-05-29",
      "listing_updated_at": "2026-07-12"
    },
    {
      "id": "sr_1550336844",
      "price": 103741.5,
      "lat": 50.0785829174,
      "lng": 14.4499742023,
      "sqm": 118,
      "rooms": 4,
      "address": "náměstí Jiřího z Poděbrad, Vinohrady, Praha",
      "zone": "Vinohrady",
      "url": "https://www.sreality.cz/detail/pronajem/byt/4+kk/praha-vinohrady-namesti-jiriho-z-podebrad/1550336844",
      "listing_published_at": "2026-03-20",
      "listing_updated_at": "2026-07-12"
    },
    {
      "id": "sr_3497128012",
      "price": 49300.25,
      "lat": 50.0785829174,
      "lng": 14.4499742023,
      "sqm": 60,
      "rooms": 2,
      "address": "náměstí Jiřího z Poděbrad, Vinohrady, Praha",
      "zone": "Vinohrady",
      "url": "https://www.sreality.cz/detail/pronajem/byt/2+kk/praha-vinohrady-namesti-jiriho-z-podebrad/3497128012",
      "listing_published_at": "2026-06-24",
      "listing_updated_at": "2026-07-12"
    },
    {
      "id": "sr_2372420428",
      "price": 104800,
      "lat": 50.0786971798,
      "lng": 14.4504778488,
      "sqm": 137,
      "rooms": 4,
      "address": "Laubova, Vinohrady, Praha",
      "zone": "Vinohrady",
      "url": "https://www.sreality.cz/detail/pronajem/byt/4+kk/praha-vinohrady-laubova/2372420428",
      "listing_published_at": "2026-03-20",
      "listing_updated_at": "2026-07-12"
    },
    {
      "id": "sr_1295835212",
      "price": 24500,
      "lat": 50.0982347547197,
      "lng": 14.4313094741403,
      "sqm": 78,
      "rooms": 2,
      "address": "Vinařská, Holešovice, Praha",
      "zone": "Holešovice",
      "url": "https://www.sreality.cz/detail/pronajem/byt/2+1/praha-holesovice-vinarska/1295835212",
      "listing_published_at": "2026-07-11",
      "listing_updated_at": "2026-07-12"
    },
    {
      "id": "sr_2481102924",
      "price": 21500,
      "lat": 50.0898163194996,
      "lng": 14.4766881654164,
      "sqm": 63,
      "rooms": 2,
      "address": "Jeseniova, Žižkov, Praha",
      "zone": "Žižkov",
      "url": "https://www.sreality.cz/detail/pronajem/byt/2+1/praha-zizkov-jeseniova/2481102924",
      "listing_published_at": "2026-04-30",
      "listing_updated_at": "2026-07-12"
    },
    {
      "id": "sr_2118557772",
      "price": 134800,
      "lat": 50.0790619704,
      "lng": 14.4497548554,
      "sqm": 167,
      "rooms": 4,
      "address": "Laubova, Vinohrady, Praha",
      "zone": "Vinohrady",
      "url": "https://www.sreality.cz/detail/pronajem/byt/4+kk/praha-vinohrady-laubova/2118557772",
      "listing_published_at": "2026-05-05",
      "listing_updated_at": "2026-07-12"
    },
    {
      "id": "sr_246768460",
      "price": 18700,
      "lat": 50.0716261135368,
      "lng": 14.4360938490476,
      "sqm": 28,
      "rooms": 1,
      "address": "Záhřebská, Vinohrady, Praha",
      "zone": "Vinohrady",
      "url": "https://www.sreality.cz/detail/pronajem/byt/1+kk/praha-vinohrady-zahrebska/246768460",
      "listing_published_at": "2026-02-27",
      "listing_updated_at": "2026-07-12"
    },
    {
      "id": "sr_1769316428",
      "price": 64800,
      "lat": 50.0785829174,
      "lng": 14.4499742023,
      "sqm": 92,
      "rooms": 3,
      "address": "náměstí Jiřího z Poděbrad, Vinohrady, Praha",
      "zone": "Vinohrady",
      "url": "https://www.sreality.cz/detail/pronajem/byt/3+kk/praha-vinohrady-namesti-jiriho-z-podebrad/1769316428",
      "listing_published_at": "2026-05-06",
      "listing_updated_at": "2026-07-12"
    },
    {
      "id": "sr_3611664460",
      "price": 98770.25,
      "lat": 50.0785829174,
      "lng": 14.4499742023,
      "sqm": 107,
      "rooms": 4,
      "address": "náměstí Jiřího z Poděbrad, Vinohrady, Praha",
      "zone": "Vinohrady",
      "url": "https://www.sreality.cz/detail/pronajem/byt/4+kk/praha-vinohrady-namesti-jiriho-z-podebrad/3611664460",
      "listing_published_at": "2026-05-06",
      "listing_updated_at": "2026-07-12"
    },
    {
      "id": "sr_3615158348",
      "price": 53000,
      "lat": 50.0851100647,
      "lng": 14.3649174472,
      "sqm": 294,
      "rooms": 4,
      "address": "Slavníkova, Břevnov, Praha",
      "zone": "Břevnov",
      "url": "https://www.sreality.cz/detail/pronajem/byt/4+1/praha-brevnov-slavnikova/3615158348",
      "listing_published_at": "2026-06-13",
      "listing_updated_at": "2026-07-12"
    },
    {
      "id": "sr_994046028",
      "price": 43650,
      "lat": 50.0737228576,
      "lng": 14.3934823171,
      "sqm": 72,
      "rooms": 2,
      "address": "Holečkova, Smíchov, Praha",
      "zone": "Smíchov",
      "url": "https://www.sreality.cz/detail/pronajem/byt/2+kk/praha-smichov-holeckova/994046028",
      "listing_published_at": "2026-06-17",
      "listing_updated_at": "2026-07-12"
    },
    {
      "id": "sr_2198859852",
      "price": 46075,
      "lat": 50.0737228576,
      "lng": 14.3934823171,
      "sqm": 114,
      "rooms": 2,
      "address": "Holečkova, Smíchov, Praha",
      "zone": "Smíchov",
      "url": "https://www.sreality.cz/detail/pronajem/byt/2+kk/praha-smichov-holeckova/2198859852",
      "listing_published_at": "2026-06-17",
      "listing_updated_at": "2026-07-12"
    },
    {
      "id": "sr_57798732",
      "price": 62856,
      "lat": 50.0786971798,
      "lng": 14.4504778488,
      "sqm": 95,
      "rooms": 3,
      "address": "Laubova, Vinohrady, Praha",
      "zone": "Vinohrady",
      "url": "https://www.sreality.cz/detail/pronajem/byt/3+kk/praha-vinohrady-laubova/57798732",
      "listing_published_at": "2026-06-24",
      "listing_updated_at": "2026-07-12"
    },
    {
      "id": "sr_158462028",
      "price": 33756,
      "lat": 50.0786971798,
      "lng": 14.4504778488,
      "sqm": 50,
      "rooms": 2,
      "address": "Laubova, Vinohrady, Praha",
      "zone": "Vinohrady",
      "url": "https://www.sreality.cz/detail/pronajem/byt/2+kk/praha-vinohrady-laubova/158462028",
      "listing_published_at": "2026-06-24",
      "listing_updated_at": "2026-07-12"
    },
    {
      "id": "sr_1685774412",
      "price": 35000,
      "lat": 50.0662001794,
      "lng": 14.4373865023,
      "sqm": 61,
      "rooms": 2,
      "address": "Mužíkova, Nusle, Praha",
      "zone": "Nusle",
      "url": "https://www.sreality.cz/detail/pronajem/byt/2+kk/praha-nusle-muzikova/1685774412",
      "listing_published_at": "2026-07-02",
      "listing_updated_at": "2026-07-12"
    },
    {
      "id": "sr_2513231948",
      "price": 15500,
      "lat": 50.1174596432633,
      "lng": 14.4750663090748,
      "sqm": 45,
      "rooms": 2,
      "address": "Na stráži, Libeň, Praha",
      "zone": "Libeň",
      "url": "https://www.sreality.cz/detail/pronajem/byt/2+kk/praha-liben-na-strazi/2513231948",
      "listing_published_at": "2026-07-12",
      "listing_updated_at": "2026-07-12"
    },
    {
      "id": "sr_2315161676",
      "price": 28000,
      "lat": 50.093838,
      "lng": 14.488695,
      "sqm": 68,
      "rooms": 3,
      "address": "Na vrcholu, Žižkov, Praha",
      "zone": "Žižkov",
      "url": "https://www.sreality.cz/detail/pronajem/byt/3+1/praha-zizkov-na-vrcholu/2315161676",
      "listing_published_at": "2026-05-14",
      "listing_updated_at": "2026-07-12"
    },
    {
      "id": "sr_3481198668",
      "price": 32000,
      "lat": 50.1032584,
      "lng": 14.4507664,
      "sqm": 68,
      "rooms": 2,
      "address": "Dělnická, Holešovice, Praha",
      "zone": "Holešovice",
      "url": "https://www.sreality.cz/detail/pronajem/byt/2+kk/praha-holesovice-delnicka/3481198668",
      "listing_published_at": "2026-07-08",
      "listing_updated_at": "2026-07-12"
    },
    {
      "id": "sr_3205448524",
      "price": 20000,
      "lat": 50.061463,
      "lng": 14.436268,
      "sqm": 47,
      "rooms": 2,
      "address": "Petra Rezka, Nusle, Praha",
      "zone": "Nusle",
      "url": "https://www.sreality.cz/detail/pronajem/byt/2+kk/praha-nusle-petra-rezka/3205448524",
      "listing_published_at": "2026-03-23",
      "listing_updated_at": "2026-07-12"
    },
    {
      "id": "sr_953647180",
      "price": 29500,
      "lat": 50.05398,
      "lng": 14.440317,
      "sqm": 45,
      "rooms": 2,
      "address": "5. května, Nusle, Praha",
      "zone": "Nusle",
      "url": "https://www.sreality.cz/detail/pronajem/byt/2+kk/praha-nusle-5-kvetna/953647180",
      "listing_published_at": "2026-06-09",
      "listing_updated_at": "2026-07-12"
    },
    {
      "id": "sr_184344652",
      "price": 20000,
      "lat": 50.0167662220263,
      "lng": 14.4365948922498,
      "sqm": 67,
      "rooms": 2,
      "address": "Olbramovická, Kamýk, Praha",
      "zone": "Kamýk",
      "url": "https://www.sreality.cz/detail/pronajem/byt/2+1/praha-kamyk-olbramovicka/184344652",
      "listing_published_at": "2026-07-12",
      "listing_updated_at": "2026-07-12"
    },
    {
      "id": "sr_2223935564",
      "price": 23500,
      "lat": 50.04634184548567,
      "lng": 14.407957932466717,
      "sqm": 37,
      "rooms": 2,
      "address": "Na Zlíchově, Praha",
      "zone": "Na Zlíchově",
      "url": "https://www.sreality.cz/detail/pronajem/byt/2+kk/praha-na-zlichove/2223935564",
      "listing_published_at": "2026-05-14",
      "listing_updated_at": "2026-07-12"
    },
    {
      "id": "sr_4020539468",
      "price": 49000,
      "lat": 50.08884417143326,
      "lng": 14.375407560021632,
      "sqm": 91,
      "rooms": 3,
      "address": "Na Petynce, Praha",
      "zone": "Na Petynce",
      "url": "https://www.sreality.cz/detail/pronajem/byt/3+kk/praha-na-petynce/4020539468",
      "listing_published_at": "2026-05-26",
      "listing_updated_at": "2026-07-12"
    },
    {
      "id": "sr_1281093708",
      "price": 36000,
      "lat": 50.09558618675089,
      "lng": 14.450412923977611,
      "sqm": 58,
      "rooms": 2,
      "address": "U Mlýnského kanálu, Karlín, Praha",
      "zone": "Karlín",
      "url": "https://www.sreality.cz/detail/pronajem/byt/2+kk/praha-karlin-u-mlynskeho-kanalu/1281093708",
      "listing_published_at": "2026-06-12",
      "listing_updated_at": "2026-07-12"
    },
    {
      "id": "sr_4220710988",
      "price": 21500,
      "lat": 50.06895382443976,
      "lng": 14.465043613397663,
      "sqm": 34,
      "rooms": 1,
      "address": "Archangelská, Vršovice, Praha",
      "zone": "Vršovice",
      "url": "https://www.sreality.cz/detail/pronajem/byt/1+kk/praha-vrsovice-archangelska/4220710988",
      "listing_published_at": "2026-06-24",
      "listing_updated_at": "2026-07-12"
    },
    {
      "id": "sr_3261198412",
      "price": 32000,
      "lat": 50.06848490155508,
      "lng": 14.46360677628034,
      "sqm": 61,
      "rooms": 2,
      "address": "Altajská, Vršovice, Praha",
      "zone": "Vršovice",
      "url": "https://www.sreality.cz/detail/pronajem/byt/2+kk/praha-vrsovice-altajska/3261198412",
      "listing_published_at": "2026-06-24",
      "listing_updated_at": "2026-07-12"
    },
    {
      "id": "sr_3922063436",
      "price": 26000,
      "lat": 50.08691854305119,
      "lng": 14.50201415256453,
      "sqm": 53,
      "rooms": 2,
      "address": "Univerzitní, Malešice, Praha",
      "zone": "Malešice",
      "url": "https://www.sreality.cz/detail/pronajem/byt/2+kk/praha-malesice-univerzitni/3922063436",
      "listing_published_at": "2026-06-30",
      "listing_updated_at": "2026-07-12"
    },
    {
      "id": "sr_2519720012",
      "price": 35000,
      "lat": 50.08217956691154,
      "lng": 14.404481219462888,
      "sqm": 75,
      "rooms": 2,
      "address": "Újezd, Praha",
      "zone": "Újezd",
      "url": "https://www.sreality.cz/detail/pronajem/byt/2+kk/praha-ujezd/2519720012",
      "listing_published_at": "2026-07-07",
      "listing_updated_at": "2026-07-12"
    },
    {
      "id": "sr_1433985100",
      "price": 42000,
      "lat": 50.07798660381497,
      "lng": 14.408157412367508,
      "sqm": 83,
      "rooms": 3,
      "address": "Janáčkovo nábřeží, Smíchov, Praha",
      "zone": "Smíchov",
      "url": "https://www.sreality.cz/detail/pronajem/byt/3+kk/praha-smichov-janackovo-nabrezi/1433985100",
      "listing_published_at": "2026-07-06",
      "listing_updated_at": "2026-07-12"
    },
    {
      "id": "sr_1811734604",
      "price": 19000,
      "lat": 50.0488873395611,
      "lng": 14.4455985069705,
      "sqm": 38,
      "rooms": 1,
      "address": "Hanusova, Michle, Praha",
      "zone": "Michle",
      "url": "https://www.sreality.cz/detail/pronajem/byt/1+kk/praha-michle-hanusova/1811734604",
      "listing_published_at": "2026-07-12",
      "listing_updated_at": "2026-07-12"
    },
    {
      "id": "sr_2539040844",
      "price": 38000,
      "lat": 50.10993,
      "lng": 14.516328,
      "sqm": 90,
      "rooms": 3,
      "address": "Na černé strouze, Vysočany, Praha",
      "zone": "Vysočany",
      "url": "https://www.sreality.cz/detail/pronajem/byt/3+kk/praha-vysocany-na-cerne-strouze/2539040844",
      "listing_published_at": "2026-04-19",
      "listing_updated_at": "2026-07-12"
    },
    {
      "id": "sr_1993375820",
      "price": 37000,
      "lat": 50.0895151471,
      "lng": 14.482969126,
      "sqm": 79,
      "rooms": 3,
      "address": "Rixdorfská, Žižkov, Praha",
      "zone": "Žižkov",
      "url": "https://www.sreality.cz/detail/pronajem/byt/3+kk/praha-zizkov-rixdorfska/1993375820",
      "listing_published_at": "2026-06-08",
      "listing_updated_at": "2026-07-12"
    },
    {
      "id": "sr_729407564",
      "price": 80000,
      "lat": 50.0873588390046,
      "lng": 14.3646723981905,
      "sqm": 120,
      "rooms": 4,
      "address": "Radimova, Břevnov, Praha",
      "zone": "Břevnov",
      "url": "https://www.sreality.cz/detail/pronajem/byt/4+kk/praha-brevnov-radimova/729407564",
      "listing_published_at": "2026-07-03",
      "listing_updated_at": "2026-07-12"
    },
    {
      "id": "sr_3741114444",
      "price": 30000,
      "lat": 50.02406720431993,
      "lng": 14.514448822495394,
      "sqm": 69,
      "rooms": 3,
      "address": "Zdiměřická, Chodov, Praha",
      "zone": "Chodov",
      "url": "https://www.sreality.cz/detail/pronajem/byt/3+kk/praha-chodov-zdimericka/3741114444",
      "listing_published_at": "2026-07-12",
      "listing_updated_at": "2026-07-12"
    },
    {
      "id": "sr_2147278924",
      "price": 34400,
      "lat": 50.069876778315,
      "lng": 14.4398824611405,
      "sqm": 84,
      "rooms": 2,
      "address": "Nad Petruskou, Vinohrady, Praha",
      "zone": "Vinohrady",
      "url": "https://www.sreality.cz/detail/pronajem/byt/2+1/praha-vinohrady-nad-petruskou/2147278924",
      "listing_published_at": "2026-07-12",
      "listing_updated_at": "2026-07-12"
    },
    {
      "id": "sr_2684149836",
      "price": 30000,
      "lat": 50.09178,
      "lng": 14.351484,
      "sqm": 57,
      "rooms": 2,
      "address": "Veleslavínská, Veleslavín, Praha",
      "zone": "Veleslavín",
      "url": "https://www.sreality.cz/detail/pronajem/byt/2+kk/praha-veleslavin-veleslavinska/2684149836",
      "listing_published_at": "2026-07-12",
      "listing_updated_at": "2026-07-12"
    },
    {
      "id": "sr_199090252",
      "price": 46500,
      "lat": 50.0992821048,
      "lng": 14.4688838805,
      "sqm": 53,
      "rooms": 2,
      "address": "Sokolovská, Karlín, Praha",
      "zone": "Karlín",
      "url": "https://www.sreality.cz/detail/pronajem/byt/2+kk/praha-karlin-sokolovska/199090252",
      "listing_published_at": "2026-07-10",
      "listing_updated_at": "2026-07-12"
    },
    {
      "id": "sr_379445324",
      "price": 29990,
      "lat": 50.071223,
      "lng": 14.395683,
      "sqm": 79,
      "rooms": 3,
      "address": "Mozartova, Smíchov, Praha",
      "zone": "Smíchov",
      "url": "https://www.sreality.cz/detail/pronajem/byt/3+kk/praha-smichov-mozartova/379445324",
      "listing_published_at": "2026-07-10",
      "listing_updated_at": "2026-07-12"
    },
    {
      "id": "sr_2110058572",
      "price": 29000,
      "lat": 50.0479425810541,
      "lng": 14.4816968724219,
      "sqm": 66,
      "rooms": 3,
      "address": "Severní I, Záběhlice, Praha",
      "zone": "Záběhlice",
      "url": "https://www.sreality.cz/detail/pronajem/byt/3+1/praha-zabehlice-severni-i/2110058572",
      "listing_published_at": "2026-07-01",
      "listing_updated_at": "2026-07-12"
    },
    {
      "id": "sr_3195314252",
      "price": 19000,
      "lat": 50.047515362003,
      "lng": 14.44262000886,
      "sqm": 39,
      "rooms": 2,
      "address": "Krchlebská, Krč, Praha",
      "zone": "Krč",
      "url": "https://www.sreality.cz/detail/pronajem/byt/2+kk/praha-krc-krchlebska/3195314252",
      "listing_published_at": "2026-05-07",
      "listing_updated_at": "2026-07-12"
    },
    {
      "id": "sr_3236077644",
      "price": 23300,
      "lat": 50.0583616667,
      "lng": 14.4426122222,
      "sqm": 47,
      "rooms": 2,
      "address": "Pod lázní, Nusle, Praha",
      "zone": "Nusle",
      "url": "https://www.sreality.cz/detail/pronajem/byt/2+kk/praha-nusle-pod-lazni/3236077644",
      "listing_published_at": "2026-04-30",
      "listing_updated_at": "2026-07-12"
    },
    {
      "id": "sr_1696051276",
      "price": 26000,
      "lat": 50.0708179778057,
      "lng": 14.4588507132907,
      "sqm": 58,
      "rooms": 2,
      "address": "Kodaňská, Vršovice, Praha",
      "zone": "Vršovice",
      "url": "https://www.sreality.cz/detail/pronajem/byt/2+kk/praha-vrsovice-kodanska/1696051276",
      "listing_published_at": "2026-04-17",
      "listing_updated_at": "2026-07-12"
    },
    {
      "id": "sr_4034741068",
      "price": 19900,
      "lat": 50.0709417862111,
      "lng": 14.4481966926959,
      "sqm": 43,
      "rooms": 1,
      "address": "Sevastopolská, Vršovice, Praha",
      "zone": "Vršovice",
      "url": "https://www.sreality.cz/detail/pronajem/byt/1+1/praha-vrsovice-sevastopolska/4034741068",
      "listing_published_at": "2026-03-24",
      "listing_updated_at": "2026-07-12"
    },
    {
      "id": "sr_2901177164",
      "price": 27500,
      "lat": 50.0844998403337,
      "lng": 14.4854803227137,
      "sqm": 68,
      "rooms": 2,
      "address": "Zvěřinova, Strašnice, Praha",
      "zone": "Strašnice",
      "url": "https://www.sreality.cz/detail/pronajem/byt/2+kk/praha-strasnice-zverinova/2901177164",
      "listing_published_at": "2026-02-01",
      "listing_updated_at": "2026-07-12"
    },
    {
      "id": "sr_4222349388",
      "price": 26000,
      "lat": 50.1059821373,
      "lng": 14.5300497521,
      "sqm": 55,
      "rooms": 3,
      "address": "Konzumní, Hloubětín, Praha",
      "zone": "Hloubětín",
      "url": "https://www.sreality.cz/detail/pronajem/byt/3+1/praha-hloubetin-konzumni/4222349388",
      "listing_published_at": "2026-06-12",
      "listing_updated_at": "2026-07-12"
    },
    {
      "id": "sr_124842060",
      "price": 22000,
      "lat": 50.0716189,
      "lng": 14.4055759,
      "sqm": 37,
      "rooms": 2,
      "address": "Na Bělidle, Smíchov, Praha",
      "zone": "Smíchov",
      "url": "https://www.sreality.cz/detail/pronajem/byt/2+kk/praha-smichov-na-belidle/124842060",
      "listing_published_at": "2026-06-25",
      "listing_updated_at": "2026-07-12"
    },
    {
      "id": "sr_2240053324",
      "price": 24000,
      "lat": 50.0848013205,
      "lng": 14.4839984726,
      "sqm": 48,
      "rooms": 1,
      "address": "Zvěřinova, Strašnice, Praha",
      "zone": "Strašnice",
      "url": "https://www.sreality.cz/detail/pronajem/byt/1+kk/praha-strasnice-zverinova/2240053324",
      "listing_published_at": "2026-06-11",
      "listing_updated_at": "2026-07-12"
    },
    {
      "id": "sr_1764679756",
      "price": 34990,
      "lat": 50.0939937129,
      "lng": 14.4781293376,
      "sqm": 49,
      "rooms": 2,
      "address": "Kunešova, Žižkov, Praha",
      "zone": "Žižkov",
      "url": "https://www.sreality.cz/detail/pronajem/byt/2+kk/praha-zizkov-kunesova/1764679756",
      "listing_published_at": "2026-07-08",
      "listing_updated_at": "2026-07-12"
    },
    {
      "id": "sr_2838921292",
      "price": 32500,
      "lat": 50.0087517959035,
      "lng": 14.3818625370998,
      "sqm": 70,
      "rooms": 3,
      "address": "Velká Chuchle, Praha",
      "zone": "Velká Chuchle",
      "url": "https://www.sreality.cz/detail/pronajem/byt/3+kk/praha-velka-chuchle/2838921292",
      "listing_published_at": "2026-06-09",
      "listing_updated_at": "2026-07-12"
    },
    {
      "id": "sr_387833932",
      "price": 66500,
      "lat": 50.0936893344225,
      "lng": 14.4461776097827,
      "sqm": 92,
      "rooms": 3,
      "address": "Rohanské nábřeží, Karlín, Praha",
      "zone": "Karlín",
      "url": "https://www.sreality.cz/detail/pronajem/byt/3+kk/praha-karlin-rohanske-nabrezi/387833932",
      "listing_published_at": "2026-07-10",
      "listing_updated_at": "2026-07-12"
    },
    {
      "id": "sr_4225622092",
      "price": 42000,
      "lat": 50.0936893344225,
      "lng": 14.4461776097827,
      "sqm": 58,
      "rooms": 2,
      "address": "Rohanské nábřeží, Karlín, Praha",
      "zone": "Karlín",
      "url": "https://www.sreality.cz/detail/pronajem/byt/2+kk/praha-karlin-rohanske-nabrezi/4225622092",
      "listing_published_at": "2026-07-10",
      "listing_updated_at": "2026-07-12"
    },
    {
      "id": "sr_2685837388",
      "price": 41000,
      "lat": 50.077522,
      "lng": 14.418634,
      "sqm": 81,
      "rooms": 3,
      "address": "Odborů, Nové Město, Praha",
      "zone": "Nové Město",
      "url": "https://www.sreality.cz/detail/pronajem/byt/3+1/praha-nove-mesto-odboru/2685837388",
      "listing_published_at": "2026-05-05",
      "listing_updated_at": "2026-07-12"
    },
    {
      "id": "sr_2667360332",
      "price": 29386,
      "lat": 50.0776750320007,
      "lng": 14.4250735318759,
      "sqm": 71,
      "rooms": 2,
      "address": "Štěpánská, Nové Město, Praha",
      "zone": "Nové Město",
      "url": "https://www.sreality.cz/detail/pronajem/byt/2+kk/praha-nove-mesto-stepanska/2667360332",
      "listing_published_at": "2026-04-13",
      "listing_updated_at": "2026-07-12"
    },
    {
      "id": "sr_973574220",
      "price": 26500,
      "lat": 50.056345,
      "lng": 14.463106,
      "sqm": 58,
      "rooms": 2,
      "address": "U Plynárny, Michle, Praha",
      "zone": "Michle",
      "url": "https://www.sreality.cz/detail/pronajem/byt/2+kk/praha-michle-u-plynarny/973574220",
      "listing_published_at": "2026-05-21",
      "listing_updated_at": "2026-07-12"
    },
    {
      "id": "sr_4152275020",
      "price": 45000,
      "lat": 50.0835224775861,
      "lng": 14.3760522441838,
      "sqm": 110,
      "rooms": 3,
      "address": "Šlikova, Břevnov, Praha",
      "zone": "Břevnov",
      "url": "https://www.sreality.cz/detail/pronajem/byt/3+kk/praha-brevnov-slikova/4152275020",
      "listing_published_at": "2026-04-10",
      "listing_updated_at": "2026-07-12"
    },
    {
      "id": "sr_903147596",
      "price": 21000,
      "lat": 50.0798172282795,
      "lng": 14.4459752657828,
      "sqm": 47,
      "rooms": 2,
      "address": "Krkonošská, Vinohrady, Praha",
      "zone": "Vinohrady",
      "url": "https://www.sreality.cz/detail/pronajem/byt/2+kk/praha-vinohrady-krkonosska/903147596",
      "listing_published_at": "2026-07-01",
      "listing_updated_at": "2026-07-12"
    },
    {
      "id": "sr_1536159820",
      "price": 17500,
      "lat": 50.0876515550666,
      "lng": 14.4695609999871,
      "sqm": 45,
      "rooms": 2,
      "address": "Jana Želivského, Žižkov, Praha",
      "zone": "Žižkov",
      "url": "https://www.sreality.cz/detail/pronajem/byt/2+kk/praha-zizkov-jana-zelivskeho/1536159820",
      "listing_published_at": "2026-06-17",
      "listing_updated_at": "2026-07-12"
    },
    {
      "id": "sr_2471596108",
      "price": 65000,
      "lat": 50.0903980660932,
      "lng": 14.4217582511138,
      "sqm": 155,
      "rooms": 4,
      "address": "Vězeňská, Staré Město, Praha",
      "zone": "Staré Město",
      "url": "https://www.sreality.cz/detail/pronajem/byt/4+kk/praha-stare-mesto-vezenska/2471596108",
      "listing_published_at": "2026-05-19",
      "listing_updated_at": "2026-07-12"
    },
    {
      "id": "sr_4132737100",
      "price": 145000,
      "lat": 50.0800136535028,
      "lng": 14.4445137683261,
      "sqm": 204,
      "rooms": null,
      "address": "Chopinova, Vinohrady, Praha",
      "zone": "Vinohrady",
      "url": "https://www.sreality.cz/detail/pronajem/byt/6%20a%20v%C3%ADce/praha-vinohrady-chopinova/4132737100",
      "listing_published_at": "2026-05-25",
      "listing_updated_at": "2026-07-12"
    },
    {
      "id": "sr_605254476",
      "price": 29385,
      "lat": 50.0787329973142,
      "lng": 14.4253690800295,
      "sqm": 71,
      "rooms": 2,
      "address": "Štěpánská, Nové Město, Praha",
      "zone": "Nové Město",
      "url": "https://www.sreality.cz/detail/pronajem/byt/2+kk/praha-nove-mesto-stepanska/605254476",
      "listing_published_at": "2026-02-02",
      "listing_updated_at": "2026-07-12"
    },
    {
      "id": "sr_470806604",
      "price": 30000,
      "lat": 50.0707554596788,
      "lng": 14.4343138454783,
      "sqm": 44,
      "rooms": 2,
      "address": "Šafaříkova, Vinohrady, Praha",
      "zone": "Vinohrady",
      "url": "https://www.sreality.cz/detail/pronajem/byt/2+kk/praha-vinohrady-safarikova/470806604",
      "listing_published_at": "2026-06-17",
      "listing_updated_at": "2026-07-12"
    },
    {
      "id": "sr_870793804",
      "price": 98000,
      "lat": 50.097492954,
      "lng": 14.3866969565,
      "sqm": 300,
      "rooms": 5,
      "address": "Slunná, Střešovice, Praha",
      "zone": "Střešovice",
      "url": "https://www.sreality.cz/detail/pronajem/byt/5+1/praha-stresovice-slunna/870793804",
      "listing_published_at": "2025-05-21",
      "listing_updated_at": "2026-07-12"
    },
    {
      "id": "sr_3726635084",
      "price": 24800,
      "lat": 50.0638260355945,
      "lng": 14.4311591874371,
      "sqm": 47,
      "rooms": 2,
      "address": "Čiklova, Nusle, Praha",
      "zone": "Nusle",
      "url": "https://www.sreality.cz/detail/pronajem/byt/2+kk/praha-nusle-ciklova/3726635084",
      "listing_published_at": "2026-06-17",
      "listing_updated_at": "2026-07-12"
    },
    {
      "id": "sr_3424645196",
      "price": 19300,
      "lat": 50.0896846677658,
      "lng": 14.3464775927046,
      "sqm": 55,
      "rooms": 2,
      "address": "Čílova, Veleslavín, Praha",
      "zone": "Veleslavín",
      "url": "https://www.sreality.cz/detail/pronajem/byt/2+1/praha-veleslavin-cilova/3424645196",
      "listing_published_at": "2026-06-17",
      "listing_updated_at": "2026-07-12"
    },
    {
      "id": "sr_3718901836",
      "price": 14500,
      "lat": 50.0707218607833,
      "lng": 14.4491917003552,
      "sqm": 18,
      "rooms": 1,
      "address": "Černomořská, Vršovice, Praha",
      "zone": "Vršovice",
      "url": "https://www.sreality.cz/detail/pronajem/byt/1+kk/praha-vrsovice-cernomorska/3718901836",
      "listing_published_at": "2026-06-15",
      "listing_updated_at": "2026-07-12"
    },
    {
      "id": "sr_1766453324",
      "price": 26000,
      "lat": 50.0435651,
      "lng": 14.3086048,
      "sqm": 59,
      "rooms": 2,
      "address": "Hasilova, Stodůlky, Praha",
      "zone": "Stodůlky",
      "url": "https://www.sreality.cz/detail/pronajem/byt/2+kk/praha-stodulky-hasilova/1766453324",
      "listing_published_at": "2026-06-15",
      "listing_updated_at": "2026-07-12"
    },
    {
      "id": "sr_1952743500",
      "price": 25000,
      "lat": 50.0243472717577,
      "lng": 14.4330270335741,
      "sqm": 61,
      "rooms": 3,
      "address": "Jílovská, Braník, Praha",
      "zone": "Braník",
      "url": "https://www.sreality.cz/detail/pronajem/byt/3+kk/praha-branik-jilovska/1952743500",
      "listing_published_at": "2026-06-11",
      "listing_updated_at": "2026-07-12"
    },
    {
      "id": "sr_867532876",
      "price": 18500,
      "lat": 50.1085954069463,
      "lng": 14.5273548382176,
      "sqm": 40,
      "rooms": 1,
      "address": "Granitova, Hloubětín, Praha",
      "zone": "Hloubětín",
      "url": "https://www.sreality.cz/detail/pronajem/byt/1+kk/praha-hloubetin-granitova/867532876",
      "listing_published_at": "2026-06-10",
      "listing_updated_at": "2026-07-12"
    },
    {
      "id": "sr_1920303180",
      "price": 24800,
      "lat": 50.0475303,
      "lng": 14.2958443,
      "sqm": 46,
      "rooms": 2,
      "address": "Thomasova, Třebonice, Praha",
      "zone": "Třebonice",
      "url": "https://www.sreality.cz/detail/pronajem/byt/2+kk/praha-trebonice-thomasova/1920303180",
      "listing_published_at": "2026-06-10",
      "listing_updated_at": "2026-07-12"
    },
    {
      "id": "sr_2967896140",
      "price": 15200,
      "lat": 50.0424040209587,
      "lng": 14.3271236687575,
      "sqm": 22,
      "rooms": 1,
      "address": "Amforová, Stodůlky, Praha",
      "zone": "Stodůlky",
      "url": "https://www.sreality.cz/detail/pronajem/byt/1+kk/praha-stodulky-amforova/2967896140",
      "listing_published_at": "2026-06-09",
      "listing_updated_at": "2026-07-12"
    },
    {
      "id": "sr_1147437132",
      "price": 21900,
      "lat": 50.1201,
      "lng": 14.4767,
      "sqm": 54,
      "rooms": 2,
      "address": "Střížkovská, Střížkov, Praha",
      "zone": "Střížkov",
      "url": "https://www.sreality.cz/detail/pronajem/byt/2+1/praha-strizkov-strizkovska/1147437132",
      "listing_published_at": "2026-06-11",
      "listing_updated_at": "2026-07-12"
    },
    {
      "id": "sr_2606620748",
      "price": 22990,
      "lat": 50.051766800096,
      "lng": 14.314627970013,
      "sqm": 63,
      "rooms": 3,
      "address": "Kocianova, Stodůlky, Praha",
      "zone": "Stodůlky",
      "url": "https://www.sreality.cz/detail/pronajem/byt/3+kk/praha-stodulky-kocianova/2606620748",
      "listing_published_at": "2026-07-09",
      "listing_updated_at": "2026-07-12"
    },
    {
      "id": "sr_807395404",
      "price": 28100,
      "lat": 50.0900460862665,
      "lng": 14.3564527942245,
      "sqm": 65,
      "rooms": 3,
      "address": "Brixiho, Břevnov, Praha",
      "zone": "Břevnov",
      "url": "https://www.sreality.cz/detail/pronajem/byt/3+kk/praha-brevnov-brixiho/807395404",
      "listing_published_at": "2026-07-08",
      "listing_updated_at": "2026-07-12"
    },
    {
      "id": "sr_2360562508",
      "price": 26900,
      "lat": 50.0692986107848,
      "lng": 14.4613200052374,
      "sqm": 73,
      "rooms": 3,
      "address": "Arménská, Vršovice, Praha",
      "zone": "Vršovice",
      "url": "https://www.sreality.cz/detail/pronajem/byt/3+1/praha-vrsovice-armenska/2360562508",
      "listing_published_at": "2026-03-10",
      "listing_updated_at": "2026-07-12"
    },
    {
      "id": "sr_2315100236",
      "price": 18900,
      "lat": 50.1215793026072,
      "lng": 14.4818964687465,
      "sqm": 32,
      "rooms": 1,
      "address": "Habartická, Střížkov, Praha",
      "zone": "Střížkov",
      "url": "https://www.sreality.cz/detail/pronajem/byt/1+kk/praha-strizkov-habarticka/2315100236",
      "listing_published_at": "2026-04-28",
      "listing_updated_at": "2026-07-12"
    },
    {
      "id": "sr_3236950092",
      "price": 29000,
      "lat": 50.107836545455,
      "lng": 14.5338445914575,
      "sqm": 65,
      "rooms": 3,
      "address": "Sadská, Hloubětín, Praha",
      "zone": "Hloubětín",
      "url": "https://www.sreality.cz/detail/pronajem/byt/3+1/praha-hloubetin-sadska/3236950092",
      "listing_published_at": "2026-06-17",
      "listing_updated_at": "2026-07-12"
    },
    {
      "id": "sr_284860492",
      "price": 16990,
      "lat": 49.9647661801092,
      "lng": 14.3956448071965,
      "sqm": 45,
      "rooms": 1,
      "address": "Spojařů, Zbraslav, Praha",
      "zone": "Zbraslav",
      "url": "https://www.sreality.cz/detail/pronajem/byt/1+kk/praha-zbraslav-spojaru/284860492",
      "listing_published_at": "2026-04-23",
      "listing_updated_at": "2026-07-12"
    },
    {
      "id": "sr_1016328268",
      "price": 25000,
      "lat": 50.0831780671,
      "lng": 14.3584146247,
      "sqm": 53,
      "rooms": 2,
      "address": "Bělohorská, Břevnov, Praha",
      "zone": "Břevnov",
      "url": "https://www.sreality.cz/detail/pronajem/byt/2+1/praha-brevnov-belohorska/1016328268",
      "listing_published_at": "2026-06-23",
      "listing_updated_at": "2026-07-12"
    },
    {
      "id": "sr_2285740108",
      "price": 24500,
      "lat": 50.123233434046,
      "lng": 14.4957258497573,
      "sqm": 65,
      "rooms": 3,
      "address": "Jablonecká, Prosek, Praha",
      "zone": "Prosek",
      "url": "https://www.sreality.cz/detail/pronajem/byt/3+1/praha-prosek-jablonecka/2285740108",
      "listing_published_at": "2026-04-28",
      "listing_updated_at": "2026-07-12"
    },
    {
      "id": "sr_1902047308",
      "price": 17000,
      "lat": 50.0913018374581,
      "lng": 14.3213538377271,
      "sqm": 32,
      "rooms": 1,
      "address": "Ke Džbánu, Liboc, Praha",
      "zone": "Liboc",
      "url": "https://www.sreality.cz/detail/pronajem/byt/1+1/praha-liboc-ke-dzbanu/1902047308",
      "listing_published_at": "2026-06-18",
      "listing_updated_at": "2026-07-12"
    },
    {
      "id": "sr_1039134796",
      "price": 17600,
      "lat": 50.0714039145686,
      "lng": 14.3755865041082,
      "sqm": 45,
      "rooms": 1,
      "address": "U Demartinky, Smíchov, Praha",
      "zone": "Smíchov",
      "url": "https://www.sreality.cz/detail/pronajem/byt/1+1/praha-smichov-u-demartinky/1039134796",
      "listing_published_at": "2026-06-17",
      "listing_updated_at": "2026-07-12"
    },
    {
      "id": "sr_1356759116",
      "price": 21500,
      "lat": 50.0990212688376,
      "lng": 14.4899422784497,
      "sqm": 44,
      "rooms": 2,
      "address": "Skloněná, Vysočany, Praha",
      "zone": "Vysočany",
      "url": "https://www.sreality.cz/detail/pronajem/byt/2+kk/praha-vysocany-sklonena/1356759116",
      "listing_published_at": "2026-06-01",
      "listing_updated_at": "2026-07-12"
    },
    {
      "id": "sr_556695628",
      "price": 17000,
      "lat": 50.1224099462637,
      "lng": 14.488966474135,
      "sqm": 26,
      "rooms": 1,
      "address": "Bílinská, Prosek, Praha",
      "zone": "Prosek",
      "url": "https://www.sreality.cz/detail/pronajem/byt/1+kk/praha-prosek-bilinska/556695628",
      "listing_published_at": "2026-06-01",
      "listing_updated_at": "2026-07-12"
    },
    {
      "id": "sr_1999381324",
      "price": 30900,
      "lat": 50.0147015863274,
      "lng": 14.4340579637693,
      "sqm": 68,
      "rooms": 3,
      "address": "Zárubova, Kamýk, Praha",
      "zone": "Kamýk",
      "url": "https://www.sreality.cz/detail/pronajem/byt/3+kk/praha-kamyk-zarubova/1999381324",
      "listing_published_at": "2025-11-20",
      "listing_updated_at": "2026-07-12"
    },
    {
      "id": "sr_3287253068",
      "price": 21900,
      "lat": 50.0665530945484,
      "lng": 14.4695164610315,
      "sqm": 54,
      "rooms": 2,
      "address": "U Slavie, Vršovice, Praha",
      "zone": "Vršovice",
      "url": "https://www.sreality.cz/detail/pronajem/byt/2+1/praha-vrsovice-u-slavie/3287253068",
      "listing_published_at": "2026-05-31",
      "listing_updated_at": "2026-07-12"
    },
    {
      "id": "sr_3505356876",
      "price": 26990,
      "lat": 50.0243472717577,
      "lng": 14.4330270335741,
      "sqm": 62,
      "rooms": 3,
      "address": "Jílovská, Braník, Praha",
      "zone": "Braník",
      "url": "https://www.sreality.cz/detail/pronajem/byt/3+kk/praha-branik-jilovska/3505356876",
      "listing_published_at": "2026-05-31",
      "listing_updated_at": "2026-07-12"
    },
    {
      "id": "sr_2350547020",
      "price": 23900,
      "lat": 50.0517807854053,
      "lng": 14.442018876479,
      "sqm": 70,
      "rooms": 2,
      "address": "Doudlebská, Nusle, Praha",
      "zone": "Nusle",
      "url": "https://www.sreality.cz/detail/pronajem/byt/2+kk/praha-nusle-doudlebska/2350547020",
      "listing_published_at": "2026-05-27",
      "listing_updated_at": "2026-07-12"
    },
    {
      "id": "sr_990543948",
      "price": 19500,
      "lat": 50.1041313330879,
      "lng": 14.5282466457973,
      "sqm": 54,
      "rooms": 2,
      "address": "Poděbradská, Hloubětín, Praha",
      "zone": "Hloubětín",
      "url": "https://www.sreality.cz/detail/pronajem/byt/2+1/praha-hloubetin-podebradska/990543948",
      "listing_published_at": "2026-05-27",
      "listing_updated_at": "2026-07-12"
    },
    {
      "id": "sr_977961036",
      "price": 22400,
      "lat": 50.0713321743818,
      "lng": 14.3461257333278,
      "sqm": 48,
      "rooms": 2,
      "address": "Kudrnova, Motol, Praha",
      "zone": "Motol",
      "url": "https://www.sreality.cz/detail/pronajem/byt/2+kk/praha-motol-kudrnova/977961036",
      "listing_published_at": "2026-05-27",
      "listing_updated_at": "2026-07-12"
    },
    {
      "id": "sr_2459664460",
      "price": 30000,
      "lat": 50.0914113472042,
      "lng": 14.3023614171172,
      "sqm": 77,
      "rooms": 3,
      "address": "Dědinská, Ruzyně, Praha",
      "zone": "Ruzyně",
      "url": "https://www.sreality.cz/detail/pronajem/byt/3+kk/praha-ruzyne-dedinska/2459664460",
      "listing_published_at": "2026-05-27",
      "listing_updated_at": "2026-07-12"
    },
    {
      "id": "sr_818643020",
      "price": 32900,
      "lat": 50.1031681370238,
      "lng": 14.507174749626,
      "sqm": 82,
      "rooms": 3,
      "address": "Gerstelova, Vysočany, Praha",
      "zone": "Vysočany",
      "url": "https://www.sreality.cz/detail/pronajem/byt/3+kk/praha-vysocany-gerstelova/818643020",
      "listing_published_at": "2026-05-26",
      "listing_updated_at": "2026-07-12"
    },
    {
      "id": "sr_3650392140",
      "price": 18000,
      "lat": 50.0603759152644,
      "lng": 14.4969659757118,
      "sqm": 36,
      "rooms": 2,
      "address": "Želivecká, Záběhlice, Praha",
      "zone": "Záběhlice",
      "url": "https://www.sreality.cz/detail/pronajem/byt/2+kk/praha-zabehlice-zelivecka/3650392140",
      "listing_published_at": "2026-05-26",
      "listing_updated_at": "2026-07-12"
    },
    {
      "id": "sr_843354188",
      "price": 26990,
      "lat": 50.0244791459251,
      "lng": 14.4945891887672,
      "sqm": 78,
      "rooms": 3,
      "address": "Láskova, Chodov, Praha",
      "zone": "Chodov",
      "url": "https://www.sreality.cz/detail/pronajem/byt/3+1/praha-chodov-laskova/843354188",
      "listing_published_at": "2026-05-25",
      "listing_updated_at": "2026-07-12"
    },
    {
      "id": "sr_1363447884",
      "price": 18600,
      "lat": 50.0895343013349,
      "lng": 14.3847602410593,
      "sqm": 43,
      "rooms": 2,
      "address": "Na Hubálce, Střešovice, Praha",
      "zone": "Střešovice",
      "url": "https://www.sreality.cz/detail/pronajem/byt/2+1/praha-stresovice-na-hubalce/1363447884",
      "listing_published_at": "2026-05-25",
      "listing_updated_at": "2026-07-12"
    },
    {
      "id": "sr_3123089484",
      "price": 21500,
      "lat": 50.0768930204613,
      "lng": 14.4649289485697,
      "sqm": 48,
      "rooms": 2,
      "address": "Písecká, Vinohrady, Praha",
      "zone": "Vinohrady",
      "url": "https://www.sreality.cz/detail/pronajem/byt/2+kk/praha-vinohrady-pisecka/3123089484",
      "listing_published_at": "2026-05-22",
      "listing_updated_at": "2026-07-12"
    },
    {
      "id": "sr_1012745036",
      "price": 24900,
      "lat": 49.9851742435094,
      "lng": 14.3661707339099,
      "sqm": 74,
      "rooms": 2,
      "address": "Věštínská, Radotín, Praha",
      "zone": "Radotín",
      "url": "https://www.sreality.cz/detail/pronajem/byt/2+kk/praha-radotin-vestinska/1012745036",
      "listing_published_at": "2026-03-24",
      "listing_updated_at": "2026-07-12"
    },
    {
      "id": "sr_3775041612",
      "price": 18900,
      "lat": 50.1041313330879,
      "lng": 14.5282466457973,
      "sqm": 37,
      "rooms": 1,
      "address": "Poděbradská, Hloubětín, Praha",
      "zone": "Hloubětín",
      "url": "https://www.sreality.cz/detail/pronajem/byt/1+kk/praha-hloubetin-podebradska/3775041612",
      "listing_published_at": "2026-05-18",
      "listing_updated_at": "2026-07-12"
    },
    {
      "id": "sr_4063400012",
      "price": 23900,
      "lat": 50.077423085965,
      "lng": 14.4703570764382,
      "sqm": 47,
      "rooms": 2,
      "address": "Kouřimská, Vinohrady, Praha",
      "zone": "Vinohrady",
      "url": "https://www.sreality.cz/detail/pronajem/byt/2+1/praha-vinohrady-kourimska/4063400012",
      "listing_published_at": "2026-05-18",
      "listing_updated_at": "2026-07-12"
    },
    {
      "id": "sr_2668859468",
      "price": 17990,
      "lat": 50.0658419938982,
      "lng": 14.4637430155239,
      "sqm": 34,
      "rooms": 1,
      "address": "Baškirská, Vršovice, Praha",
      "zone": "Vršovice",
      "url": "https://www.sreality.cz/detail/pronajem/byt/1+kk/praha-vrsovice-baskirska/2668859468",
      "listing_published_at": "2026-05-18",
      "listing_updated_at": "2026-07-12"
    },
    {
      "id": "sr_4151087180",
      "price": 23700,
      "lat": 50.109680765763,
      "lng": 14.47679605646,
      "sqm": 51,
      "rooms": 3,
      "address": "Pivovarnická, Libeň, Praha",
      "zone": "Libeň",
      "url": "https://www.sreality.cz/detail/pronajem/byt/3+kk/praha-liben-pivovarnicka/4151087180",
      "listing_published_at": "2026-05-15",
      "listing_updated_at": "2026-07-12"
    },
    {
      "id": "sr_3686699084",
      "price": 16900,
      "lat": 50.0255237202607,
      "lng": 14.5117230335547,
      "sqm": 29,
      "rooms": 1,
      "address": "Šalounova, Chodov, Praha",
      "zone": "Chodov",
      "url": "https://www.sreality.cz/detail/pronajem/byt/1+kk/praha-chodov-salounova/3686699084",
      "listing_published_at": "2026-05-14",
      "listing_updated_at": "2026-07-12"
    },
    {
      "id": "sr_1823379532",
      "price": 10900,
      "lat": 50.085710763185,
      "lng": 14.4502951508619,
      "sqm": 10,
      "rooms": 1,
      "address": "Cimburkova, Žižkov, Praha",
      "zone": "Žižkov",
      "url": "https://www.sreality.cz/detail/pronajem/byt/1+kk/praha-zizkov-cimburkova/1823379532",
      "listing_published_at": "2026-05-14",
      "listing_updated_at": "2026-07-12"
    },
    {
      "id": "sr_1717870668",
      "price": 16900,
      "lat": 50.0289809056467,
      "lng": 14.6003064350066,
      "sqm": 24,
      "rooms": 1,
      "address": "Salačova, Uhříněves, Praha",
      "zone": "Uhříněves",
      "url": "https://www.sreality.cz/detail/pronajem/byt/1+kk/praha-uhrineves-salacova/1717870668",
      "listing_published_at": "2026-05-07",
      "listing_updated_at": "2026-07-12"
    },
    {
      "id": "sr_2375131212",
      "price": 22900,
      "lat": 50.080628,
      "lng": 14.496477,
      "sqm": 54,
      "rooms": 2,
      "address": "Nad úžlabinou, Malešice, Praha",
      "zone": "Malešice",
      "url": "https://www.sreality.cz/detail/pronajem/byt/2+1/praha-malesice-nad-uzlabinou/2375131212",
      "listing_published_at": "2026-05-04",
      "listing_updated_at": "2026-07-12"
    },
    {
      "id": "sr_1138925644",
      "price": 17500,
      "lat": 50.090731937087,
      "lng": 14.476322447081,
      "sqm": 22,
      "rooms": 1,
      "address": "Biskupcova, Žižkov, Praha",
      "zone": "Žižkov",
      "url": "https://www.sreality.cz/detail/pronajem/byt/1+kk/praha-zizkov-biskupcova/1138925644",
      "listing_published_at": "2026-04-30",
      "listing_updated_at": "2026-07-12"
    },
    {
      "id": "sr_3473055820",
      "price": 16900,
      "lat": 50.1041499659145,
      "lng": 14.5129307632437,
      "sqm": 30,
      "rooms": 1,
      "address": "Podkovářská, Vysočany, Praha",
      "zone": "Vysočany",
      "url": "https://www.sreality.cz/detail/pronajem/byt/1+kk/praha-vysocany-podkovarska/3473055820",
      "listing_published_at": "2026-04-30",
      "listing_updated_at": "2026-07-12"
    },
    {
      "id": "sr_178036812",
      "price": 20000,
      "lat": 50.0886958242266,
      "lng": 14.4828411954616,
      "sqm": 32,
      "rooms": 1,
      "address": "Olgy Havlové, Žižkov, Praha",
      "zone": "Žižkov",
      "url": "https://www.sreality.cz/detail/pronajem/byt/1+kk/praha-zizkov-olgy-havlove/178036812",
      "listing_published_at": "2026-04-29",
      "listing_updated_at": "2026-07-12"
    },
    {
      "id": "sr_3533611084",
      "price": 31900,
      "lat": 50.006672816361,
      "lng": 14.4533104275833,
      "sqm": 71,
      "rooms": 3,
      "address": "Zimova, Kamýk, Praha",
      "zone": "Kamýk",
      "url": "https://www.sreality.cz/detail/pronajem/byt/3+kk/praha-kamyk-zimova/3533611084",
      "listing_published_at": "2026-04-28",
      "listing_updated_at": "2026-07-12"
    },
    {
      "id": "sr_342794316",
      "price": 20000,
      "lat": 50.1041313330824,
      "lng": 14.5282466457732,
      "sqm": 32,
      "rooms": 1,
      "address": "Poděbradská, Hloubětín, Praha",
      "zone": "Hloubětín",
      "url": "https://www.sreality.cz/detail/pronajem/byt/1+kk/praha-hloubetin-podebradska/342794316",
      "listing_published_at": "2026-04-27",
      "listing_updated_at": "2026-07-12"
    },
    {
      "id": "sr_3132403788",
      "price": 23700,
      "lat": 50.0541093048342,
      "lng": 14.419070698077,
      "sqm": 50,
      "rooms": 2,
      "address": "Podolská, Podolí, Praha",
      "zone": "Podolí",
      "url": "https://www.sreality.cz/detail/pronajem/byt/2+1/praha-podoli-podolska/3132403788",
      "listing_published_at": "2026-04-21",
      "listing_updated_at": "2026-07-12"
    },
    {
      "id": "sr_866820172",
      "price": 25900,
      "lat": 50.1320857011882,
      "lng": 14.4223128289848,
      "sqm": 72,
      "rooms": 3,
      "address": "Hlivická, Bohnice, Praha",
      "zone": "Bohnice",
      "url": "https://www.sreality.cz/detail/pronajem/byt/3+kk/praha-bohnice-hlivicka/866820172",
      "listing_published_at": "2026-04-23",
      "listing_updated_at": "2026-07-12"
    },
    {
      "id": "sr_1776984140",
      "price": 17000,
      "lat": 50.071123104509,
      "lng": 14.4104580050611,
      "sqm": 37,
      "rooms": 1,
      "address": "Hořejší nábřeží, Smíchov, Praha",
      "zone": "Smíchov",
      "url": "https://www.sreality.cz/detail/pronajem/byt/1+1/praha-smichov-horejsi-nabrezi/1776984140",
      "listing_published_at": "2026-04-23",
      "listing_updated_at": "2026-07-12"
    },
    {
      "id": "sr_1414176844",
      "price": 14990,
      "lat": 50.0587031778886,
      "lng": 14.4513870182385,
      "sqm": 25,
      "rooms": 1,
      "address": "Adamovská, Michle, Praha",
      "zone": "Michle",
      "url": "https://www.sreality.cz/detail/pronajem/byt/1+kk/praha-michle-adamovska/1414176844",
      "listing_published_at": "2026-04-22",
      "listing_updated_at": "2026-07-12"
    },
    {
      "id": "sr_1699389516",
      "price": 18900,
      "lat": 50.10448,
      "lng": 14.478716,
      "sqm": 50,
      "rooms": 2,
      "address": "Novákových, Libeň, Praha",
      "zone": "Libeň",
      "url": "https://www.sreality.cz/detail/pronajem/byt/2+kk/praha-liben-novakovych/1699389516",
      "listing_published_at": "2026-04-22",
      "listing_updated_at": "2026-07-12"
    },
    {
      "id": "sr_896180300",
      "price": 31900,
      "lat": 50.1032951084513,
      "lng": 14.4541487911805,
      "sqm": 43,
      "rooms": 1,
      "address": "V Háji, Holešovice, Praha",
      "zone": "Holešovice",
      "url": "https://www.sreality.cz/detail/pronajem/byt/1+kk/praha-holesovice-v-haji/896180300",
      "listing_published_at": "2026-04-22",
      "listing_updated_at": "2026-07-12"
    },
    {
      "id": "sr_802336844",
      "price": 24900,
      "lat": 50.0430394545336,
      "lng": 14.5560760727255,
      "sqm": 82,
      "rooms": 3,
      "address": "Milánská, Horní Měcholupy, Praha",
      "zone": "Horní Měcholupy",
      "url": "https://www.sreality.cz/detail/pronajem/byt/3+1/praha-horni-mecholupy-milanska/802336844",
      "listing_published_at": "2026-04-15",
      "listing_updated_at": "2026-07-12"
    },
    {
      "id": "sr_393130060",
      "price": 21500,
      "lat": 50.0562512968259,
      "lng": 14.4476143275615,
      "sqm": 53,
      "rooms": 2,
      "address": "Družstevní ochoz, Nusle, Praha",
      "zone": "Nusle",
      "url": "https://www.sreality.cz/detail/pronajem/byt/2+1/praha-nusle-druzstevni-ochoz/393130060",
      "listing_published_at": "2026-04-10",
      "listing_updated_at": "2026-07-12"
    },
    {
      "id": "sr_2888806476",
      "price": 22500,
      "lat": 50.0577763734842,
      "lng": 14.2918119731691,
      "sqm": 51,
      "rooms": 2,
      "address": "U Radosti, Třebonice, Praha",
      "zone": "Třebonice",
      "url": "https://www.sreality.cz/detail/pronajem/byt/2+kk/praha-trebonice-u-radosti/2888806476",
      "listing_published_at": "2026-04-09",
      "listing_updated_at": "2026-07-12"
    },
    {
      "id": "sr_2955915340",
      "price": 27000,
      "lat": 50.0364683883507,
      "lng": 14.3695429785478,
      "sqm": 70,
      "rooms": 3,
      "address": "Lamačova, Hlubočepy, Praha",
      "zone": "Hlubočepy",
      "url": "https://www.sreality.cz/detail/pronajem/byt/3+1/praha-hlubocepy-lamacova/2955915340",
      "listing_published_at": "2026-04-09",
      "listing_updated_at": "2026-07-12"
    },
    {
      "id": "sr_482914380",
      "price": 23700,
      "lat": 50.0562804104107,
      "lng": 14.2917647603551,
      "sqm": 51,
      "rooms": 2,
      "address": "Do zahrádek I, Třebonice, Praha",
      "zone": "Třebonice",
      "url": "https://www.sreality.cz/detail/pronajem/byt/2+kk/praha-trebonice-do-zahradek-i/482914380",
      "listing_published_at": "2026-04-09",
      "listing_updated_at": "2026-07-12"
    },
    {
      "id": "sr_151274316",
      "price": 17490,
      "lat": 50.0489713631177,
      "lng": 14.4577097669082,
      "sqm": 28,
      "rooms": 1,
      "address": "Jemnická, Michle, Praha",
      "zone": "Michle",
      "url": "https://www.sreality.cz/detail/pronajem/byt/1+kk/praha-michle-jemnicka/151274316",
      "listing_published_at": "2026-04-03",
      "listing_updated_at": "2026-07-12"
    },
    {
      "id": "sr_1095570252",
      "price": 20500,
      "lat": 50.057518,
      "lng": 14.554397,
      "sqm": 56,
      "rooms": 2,
      "address": "V Osikách, Dolní Měcholupy, Praha",
      "zone": "Dolní Měcholupy",
      "url": "https://www.sreality.cz/detail/pronajem/byt/2+kk/praha-dolni-mecholupy-v-osikach/1095570252",
      "listing_published_at": "2025-12-10",
      "listing_updated_at": "2026-07-12"
    },
    {
      "id": "sr_503595852",
      "price": 17500,
      "lat": 50.0553196760548,
      "lng": 14.5054009891558,
      "sqm": 51,
      "rooms": 2,
      "address": "Zvonková, Záběhlice, Praha",
      "zone": "Záběhlice",
      "url": "https://www.sreality.cz/detail/pronajem/byt/2+1/praha-zabehlice-zvonkova/503595852",
      "listing_published_at": "2026-04-03",
      "listing_updated_at": "2026-07-12"
    },
    {
      "id": "sr_984630092",
      "price": 17200,
      "lat": 50.0739593562898,
      "lng": 14.3945719445537,
      "sqm": 35,
      "rooms": 1,
      "address": "Holečkova, Smíchov, Praha",
      "zone": "Smíchov",
      "url": "https://www.sreality.cz/detail/pronajem/byt/1+kk/praha-smichov-holeckova/984630092",
      "listing_published_at": "2026-03-30",
      "listing_updated_at": "2026-07-12"
    },
    {
      "id": "sr_891306828",
      "price": 16000,
      "lat": 50.0508015062906,
      "lng": 14.5443783851138,
      "sqm": 39,
      "rooms": 1,
      "address": "Gercenova, Hostivař, Praha",
      "zone": "Hostivař",
      "url": "https://www.sreality.cz/detail/pronajem/byt/1+1/praha-hostivar-gercenova/891306828",
      "listing_published_at": "2026-03-30",
      "listing_updated_at": "2026-07-12"
    },
    {
      "id": "sr_178078540",
      "price": 31000,
      "lat": 50.0554172256282,
      "lng": 14.3505218512131,
      "sqm": 68,
      "rooms": 3,
      "address": "Břežánecká, Jinonice, Praha",
      "zone": "Jinonice",
      "url": "https://www.sreality.cz/detail/pronajem/byt/3+kk/praha-jinonice-brezanecka/178078540",
      "listing_published_at": "2026-03-25",
      "listing_updated_at": "2026-07-12"
    },
    {
      "id": "sr_3566093132",
      "price": 24900,
      "lat": 50.0425360420221,
      "lng": 14.549793696578,
      "sqm": 70,
      "rooms": 3,
      "address": "Padovská, Horní Měcholupy, Praha",
      "zone": "Horní Měcholupy",
      "url": "https://www.sreality.cz/detail/pronajem/byt/3+kk/praha-horni-mecholupy-padovska/3566093132",
      "listing_published_at": "2026-03-24",
      "listing_updated_at": "2026-07-12"
    },
    {
      "id": "sr_1537233740",
      "price": 18500,
      "lat": 50.0213166667,
      "lng": 14.5876188889,
      "sqm": 44,
      "rooms": 1,
      "address": "K dálnici, Pitkovice, Praha",
      "zone": "Pitkovice",
      "url": "https://www.sreality.cz/detail/pronajem/byt/1+kk/praha-pitkovice-k-dalnici/1537233740",
      "listing_published_at": "2026-03-13",
      "listing_updated_at": "2026-07-12"
    },
    {
      "id": "sr_4243940172",
      "price": 21900,
      "lat": 50.0990396943576,
      "lng": 14.3551134421452,
      "sqm": 69,
      "rooms": 2,
      "address": "Tibetská, Vokovice, Praha",
      "zone": "Vokovice",
      "url": "https://www.sreality.cz/detail/pronajem/byt/2+kk/praha-vokovice-tibetska/4243940172",
      "listing_published_at": "2026-02-27",
      "listing_updated_at": "2026-07-12"
    },
    {
      "id": "sr_2577883980",
      "price": 19900,
      "lat": 50.1459057875206,
      "lng": 14.4761186413529,
      "sqm": 44,
      "rooms": 3,
      "address": "Šenovská, Ďáblice, Praha",
      "zone": "Ďáblice",
      "url": "https://www.sreality.cz/detail/pronajem/byt/3+kk/praha-dablice-senovska/2577883980",
      "listing_published_at": "2026-02-25",
      "listing_updated_at": "2026-07-12"
    },
    {
      "id": "sr_2814750796",
      "price": 18700,
      "lat": 50.0962788436478,
      "lng": 14.3598286644428,
      "sqm": 36,
      "rooms": 1,
      "address": "Kladenská, Vokovice, Praha",
      "zone": "Vokovice",
      "url": "https://www.sreality.cz/detail/pronajem/byt/1+1/praha-vokovice-kladenska/2814750796",
      "listing_published_at": "2026-04-20",
      "listing_updated_at": "2026-07-12"
    },
    {
      "id": "sr_979305292",
      "price": 19000,
      "lat": 50.0465458282155,
      "lng": 14.4418763359568,
      "sqm": 45,
      "rooms": 2,
      "address": "U nových domů II, Krč, Praha",
      "zone": "Krč",
      "url": "https://www.sreality.cz/detail/pronajem/byt/2+kk/praha-krc-u-novych-domu-ii/979305292",
      "listing_published_at": "2026-01-08",
      "listing_updated_at": "2026-07-12"
    },
    {
      "id": "sr_1706270796",
      "price": 24600,
      "lat": 50.0646273088772,
      "lng": 14.5108609927858,
      "sqm": 32,
      "rooms": 1,
      "address": "Strašnice, Praha",
      "zone": "Strašnice",
      "url": "https://www.sreality.cz/detail/pronajem/byt/1+kk/praha-strasnice/1706270796",
      "listing_published_at": "2026-04-30",
      "listing_updated_at": "2026-07-12"
    },
    {
      "id": "sr_3561136204",
      "price": 64850,
      "lat": 50.0646273088772,
      "lng": 14.5108609927858,
      "sqm": 115,
      "rooms": 4,
      "address": "Strašnice, Praha",
      "zone": "Strašnice",
      "url": "https://www.sreality.cz/detail/pronajem/byt/4+kk/praha-strasnice/3561136204",
      "listing_published_at": "2026-04-30",
      "listing_updated_at": "2026-07-12"
    },
    {
      "id": "sr_3473928268",
      "price": 35000,
      "lat": 50.0707554596788,
      "lng": 14.4343138454783,
      "sqm": 50,
      "rooms": 2,
      "address": "Šafaříkova, Vinohrady, Praha",
      "zone": "Vinohrady",
      "url": "https://www.sreality.cz/detail/pronajem/byt/2+kk/praha-vinohrady-safarikova/3473928268",
      "listing_published_at": "2026-06-17",
      "listing_updated_at": "2026-07-12"
    },
    {
      "id": "sr_1441525836",
      "price": 22000,
      "lat": 50.0769320024,
      "lng": 14.4056741079,
      "sqm": 35,
      "rooms": 1,
      "address": "Pavla Švandy ze Semčic, Smíchov, Praha",
      "zone": "Smíchov",
      "url": "https://www.sreality.cz/detail/pronajem/byt/1+1/praha-smichov-pavla-svandy-ze-semcic/1441525836",
      "listing_published_at": "2026-06-12",
      "listing_updated_at": "2026-07-12"
    },
    {
      "id": "sr_1813180492",
      "price": 89000,
      "lat": 50.0707554596788,
      "lng": 14.4343138454783,
      "sqm": 120,
      "rooms": 4,
      "address": "Šafaříkova, Vinohrady, Praha",
      "zone": "Vinohrady",
      "url": "https://www.sreality.cz/detail/pronajem/byt/4+kk/praha-vinohrady-safarikova/1813180492",
      "listing_published_at": "2026-06-23",
      "listing_updated_at": "2026-07-12"
    },
    {
      "id": "sr_2910511180",
      "price": 19500,
      "lat": 50.1042166,
      "lng": 14.5250451,
      "sqm": 28,
      "rooms": 1,
      "address": "Poděbradská, Hloubětín, Praha",
      "zone": "Hloubětín",
      "url": "https://www.sreality.cz/detail/pronajem/byt/1+kk/praha-hloubetin-podebradska/2910511180",
      "listing_published_at": "2026-07-02",
      "listing_updated_at": "2026-07-12"
    },
    {
      "id": "sr_515760204",
      "price": 20500,
      "lat": 50.091737,
      "lng": 14.328695,
      "sqm": 50,
      "rooms": 2,
      "address": "Za Vokovickou vozovnou, Praha",
      "zone": "Za Vokovickou vozovnou",
      "url": "https://www.sreality.cz/detail/pronajem/byt/2+kk/praha-za-vokovickou-vozovnou/515760204",
      "listing_published_at": "2026-07-10",
      "listing_updated_at": "2026-07-12"
    },
    {
      "id": "sr_55636044",
      "price": 25000,
      "lat": 50.110058,
      "lng": 14.558393,
      "sqm": 61,
      "rooms": 3,
      "address": "Lipnická, Kyje, Praha",
      "zone": "Kyje",
      "url": "https://www.sreality.cz/detail/pronajem/byt/3+kk/praha-kyje-lipnicka/55636044",
      "listing_published_at": "2026-06-25",
      "listing_updated_at": "2026-07-12"
    },
    {
      "id": "sr_384860236",
      "price": 25000,
      "lat": 50.0679332607,
      "lng": 14.4961430539,
      "sqm": 65,
      "rooms": 3,
      "address": "Nučická, Strašnice, Praha",
      "zone": "Strašnice",
      "url": "https://www.sreality.cz/detail/pronajem/byt/3+kk/praha-strasnice-nucicka/384860236",
      "listing_published_at": "2026-06-08",
      "listing_updated_at": "2026-07-12"
    },
    {
      "id": "sr_1778286668",
      "price": 17500,
      "lat": 50.0660236533797,
      "lng": 14.4334968264398,
      "sqm": 28,
      "rooms": 1,
      "address": "Na Folimance, Vinohrady, Praha",
      "zone": "Vinohrady",
      "url": "https://www.sreality.cz/detail/pronajem/byt/1+kk/praha-vinohrady-na-folimance/1778286668",
      "listing_published_at": "2026-06-01",
      "listing_updated_at": "2026-07-12"
    },
    {
      "id": "sr_1744625740",
      "price": 35000,
      "lat": 50.094793106286446,
      "lng": 14.454208826173087,
      "sqm": 59,
      "rooms": 2,
      "address": "Sokolovská, Karlín, Praha",
      "zone": "Karlín",
      "url": "https://www.sreality.cz/detail/pronajem/byt/2+kk/praha-karlin-sokolovska/1744625740",
      "listing_published_at": "2026-07-12",
      "listing_updated_at": "2026-07-12"
    },
    {
      "id": "sr_2714480716",
      "price": 16900,
      "lat": 50.046899,
      "lng": 14.463115,
      "sqm": 48,
      "rooms": null,
      "address": "Na úlehli, Michle, Praha",
      "zone": "Michle",
      "url": "https://www.sreality.cz/detail/pronajem/byt/Pokoj/praha-michle-na-ulehli/2714480716",
      "listing_published_at": "2026-04-06",
      "listing_updated_at": "2026-07-12"
    },
    {
      "id": "sr_3623673932",
      "price": 18000,
      "lat": 50.08439818718963,
      "lng": 14.502981537589553,
      "sqm": 56,
      "rooms": 2,
      "address": "Bydžovského, Malešice, Praha",
      "zone": "Malešice",
      "url": "https://www.sreality.cz/detail/pronajem/byt/2+1/praha-malesice-bydzovskeho/3623673932",
      "listing_published_at": "2026-07-12",
      "listing_updated_at": "2026-07-12"
    },
    {
      "id": "sr_1830481996",
      "price": 16500,
      "lat": 50.051983,
      "lng": 14.337444,
      "sqm": 35,
      "rooms": 1,
      "address": "Kodymova, Stodůlky, Praha",
      "zone": "Stodůlky",
      "url": "https://www.sreality.cz/detail/pronajem/byt/1+kk/praha-stodulky-kodymova/1830481996",
      "listing_published_at": "2026-06-14",
      "listing_updated_at": "2026-07-12"
    },
    {
      "id": "sr_3841777740",
      "price": 27900,
      "lat": 50.10347428359085,
      "lng": 14.523462646348827,
      "sqm": 64,
      "rooms": 2,
      "address": "Poděbradská, Hloubětín, Praha",
      "zone": "Hloubětín",
      "url": "https://www.sreality.cz/detail/pronajem/byt/2+kk/praha-hloubetin-podebradska/3841777740",
      "listing_published_at": "2026-07-12",
      "listing_updated_at": "2026-07-12"
    },
    {
      "id": "sr_100458572",
      "price": 17000,
      "lat": 50.022947488442924,
      "lng": 14.56334547153017,
      "sqm": 36,
      "rooms": 1,
      "address": "Křeslice, Praha",
      "zone": "Křeslice",
      "url": "https://www.sreality.cz/detail/pronajem/byt/1+1/praha-kreslice/100458572",
      "listing_published_at": "2026-07-12",
      "listing_updated_at": "2026-07-12"
    },
    {
      "id": "sr_1442635852",
      "price": 19000,
      "lat": 50.0488064,
      "lng": 14.4445177,
      "sqm": 38,
      "rooms": 1,
      "address": "Hanusova, Michle, Praha",
      "zone": "Michle",
      "url": "https://www.sreality.cz/detail/pronajem/byt/1+kk/praha-michle-hanusova/1442635852",
      "listing_published_at": "2026-07-12",
      "listing_updated_at": "2026-07-12"
    },
    {
      "id": "sr_706187340",
      "price": 119000,
      "lat": 50.0896964866356,
      "lng": 14.4192367025335,
      "sqm": 184,
      "rooms": 4,
      "address": "Pařížská, Josefov, Praha",
      "zone": "Josefov",
      "url": "https://www.sreality.cz/detail/pronajem/byt/4+1/praha-josefov-parizska/706187340",
      "listing_published_at": "2026-05-21",
      "listing_updated_at": "2026-07-12"
    },
    {
      "id": "sr_3405099084",
      "price": 25000,
      "lat": 50.1202823591365,
      "lng": 14.4410500536835,
      "sqm": 58,
      "rooms": 2,
      "address": "Trojská, Troja, Praha",
      "zone": "Troja",
      "url": "https://www.sreality.cz/detail/pronajem/byt/2+kk/praha-troja-trojska/3405099084",
      "listing_published_at": "2026-04-20",
      "listing_updated_at": "2026-07-12"
    },
    {
      "id": "sr_513314892",
      "price": 21500,
      "lat": 50.094603,
      "lng": 14.452829,
      "sqm": 40,
      "rooms": 2,
      "address": "Sokolovská, Karlín, Praha",
      "zone": "Karlín",
      "url": "https://www.sreality.cz/detail/pronajem/byt/2+kk/praha-karlin-sokolovska/513314892",
      "listing_published_at": "2026-05-12",
      "listing_updated_at": "2026-07-12"
    },
    {
      "id": "sr_2419987276",
      "price": 19500,
      "lat": 50.1042166,
      "lng": 14.5250451,
      "sqm": 28,
      "rooms": 1,
      "address": "Poděbradská, Hloubětín, Praha",
      "zone": "Hloubětín",
      "url": "https://www.sreality.cz/detail/pronajem/byt/1+kk/praha-hloubetin-podebradska/2419987276",
      "listing_published_at": "2025-12-09",
      "listing_updated_at": "2026-07-12"
    },
    {
      "id": "sr_1558507596",
      "price": 18500,
      "lat": 50.085543,
      "lng": 14.372989,
      "sqm": 41,
      "rooms": 1,
      "address": "Mládeže, Břevnov, Praha",
      "zone": "Břevnov",
      "url": "https://www.sreality.cz/detail/pronajem/byt/1+kk/praha-brevnov-mladeze/1558507596",
      "listing_published_at": "2026-07-01",
      "listing_updated_at": "2026-07-12"
    },
    {
      "id": "sr_3144192076",
      "price": 18000,
      "lat": 50.123581,
      "lng": 14.483103,
      "sqm": 32,
      "rooms": 1,
      "address": "Střížkovská, Střížkov, Praha",
      "zone": "Střížkov",
      "url": "https://www.sreality.cz/detail/pronajem/byt/1+kk/praha-strizkov-strizkovska/3144192076",
      "listing_published_at": "2026-05-12",
      "listing_updated_at": "2026-07-12"
    },
    {
      "id": "sr_2666889292",
      "price": 17800,
      "lat": 50.105737,
      "lng": 14.488793,
      "sqm": 31,
      "rooms": 1,
      "address": "U Svobodárny, Libeň, Praha",
      "zone": "Libeň",
      "url": "https://www.sreality.cz/detail/pronajem/byt/1+kk/praha-liben-u-svobodarny/2666889292",
      "listing_published_at": "2026-06-10",
      "listing_updated_at": "2026-07-12"
    },
    {
      "id": "sr_242610252",
      "price": 37000,
      "lat": 50.066992,
      "lng": 14.449761,
      "sqm": 82,
      "rooms": 2,
      "address": "Sámova, Vršovice, Praha",
      "zone": "Vršovice",
      "url": "https://www.sreality.cz/detail/pronajem/byt/2+kk/praha-vrsovice-samova/242610252",
      "listing_published_at": "2026-06-29",
      "listing_updated_at": "2026-07-12"
    },
    {
      "id": "sr_1416527948",
      "price": 37900,
      "lat": 50.1130683741,
      "lng": 14.5039858446,
      "sqm": 75,
      "rooms": 3,
      "address": "Odkolkova, Vysočany, Praha",
      "zone": "Vysočany",
      "url": "https://www.sreality.cz/detail/pronajem/byt/3+kk/praha-vysocany-odkolkova/1416527948",
      "listing_published_at": "2026-06-01",
      "listing_updated_at": "2026-07-12"
    },
    {
      "id": "sr_954916940",
      "price": 24900,
      "lat": 50.1042166903,
      "lng": 14.5250451823,
      "sqm": 50,
      "rooms": 2,
      "address": "Poděbradská, Hloubětín, Praha",
      "zone": "Hloubětín",
      "url": "https://www.sreality.cz/detail/pronajem/byt/2+kk/praha-hloubetin-podebradska/954916940",
      "listing_published_at": "2026-07-03",
      "listing_updated_at": "2026-07-12"
    },
    {
      "id": "sr_2001723468",
      "price": 15000,
      "lat": 50.08218425326775,
      "lng": 14.45229764420428,
      "sqm": 35,
      "rooms": 1,
      "address": "Čajkovského, Žižkov, Praha",
      "zone": "Žižkov",
      "url": "https://www.sreality.cz/detail/pronajem/byt/1+kk/praha-zizkov-cajkovskeho/2001723468",
      "listing_published_at": "2026-07-07",
      "listing_updated_at": "2026-07-12"
    },
    {
      "id": "sr_1324146764",
      "price": 50000,
      "lat": 50.050057374092916,
      "lng": 14.455852928721399,
      "sqm": 111,
      "rooms": 3,
      "address": "Baarova, Michle, Praha",
      "zone": "Michle",
      "url": "https://www.sreality.cz/detail/pronajem/byt/3+kk/praha-michle-baarova/1324146764",
      "listing_published_at": "2026-07-12",
      "listing_updated_at": "2026-07-12"
    },
    {
      "id": "sr_1396953676",
      "price": 28500,
      "lat": 50.1130683741,
      "lng": 14.5039858446,
      "sqm": 58,
      "rooms": 2,
      "address": "Odkolkova, Vysočany, Praha",
      "zone": "Vysočany",
      "url": "https://www.sreality.cz/detail/pronajem/byt/2+kk/praha-vysocany-odkolkova/1396953676",
      "listing_published_at": "2024-11-13",
      "listing_updated_at": "2026-07-12"
    },
    {
      "id": "sr_2344742988",
      "price": 19990,
      "lat": 50.0837816667,
      "lng": 14.5625361111,
      "sqm": 32,
      "rooms": 1,
      "address": "U Hostavického potoka, Hostavice, Praha",
      "zone": "Hostavice",
      "url": "https://www.sreality.cz/detail/pronajem/byt/1+kk/praha-hostavice-u-hostavickeho-potoka/2344742988",
      "listing_published_at": "2026-06-24",
      "listing_updated_at": "2026-07-12"
    },
    {
      "id": "sr_485285964",
      "price": 26900,
      "lat": 50.141627823048346,
      "lng": 14.431794499796002,
      "sqm": 73,
      "rooms": 3,
      "address": "Křivenická, Čimice, Praha",
      "zone": "Čimice",
      "url": "https://www.sreality.cz/detail/pronajem/byt/3+kk/praha-cimice-krivenicka/485285964",
      "listing_published_at": "2026-07-12",
      "listing_updated_at": "2026-07-12"
    },
    {
      "id": "sr_3902165836",
      "price": 30000,
      "lat": 50.084686,
      "lng": 14.485044,
      "sqm": 60,
      "rooms": 2,
      "address": "Zvěřinova, Strašnice, Praha",
      "zone": "Strašnice",
      "url": "https://www.sreality.cz/detail/pronajem/byt/2+kk/praha-strasnice-zverinova/3902165836",
      "listing_published_at": "2026-03-16",
      "listing_updated_at": "2026-07-12"
    },
    {
      "id": "sr_1307369548",
      "price": 39000,
      "lat": 50.1380306767052,
      "lng": 14.4281466473121,
      "sqm": 86,
      "rooms": 3,
      "address": "Hrašeho, Čimice, Praha",
      "zone": "Čimice",
      "url": "https://www.sreality.cz/detail/pronajem/byt/3+kk/praha-cimice-hraseho/1307369548",
      "listing_published_at": "2026-07-12",
      "listing_updated_at": "2026-07-12"
    },
    {
      "id": "sr_2649546828",
      "price": 18500,
      "lat": 50.10316813702375,
      "lng": 14.507174749625962,
      "sqm": 35,
      "rooms": 1,
      "address": "Gerstelova, Vysočany, Praha",
      "zone": "Vysočany",
      "url": "https://www.sreality.cz/detail/pronajem/byt/1+kk/praha-vysocany-gerstelova/2649546828",
      "listing_published_at": "2026-07-12",
      "listing_updated_at": "2026-07-12"
    },
    {
      "id": "sr_2986078284",
      "price": 39000,
      "lat": 50.1016793103812,
      "lng": 14.5294400556338,
      "sqm": 86,
      "rooms": 3,
      "address": "Nademlejnská, Hloubětín, Praha",
      "zone": "Hloubětín",
      "url": "https://www.sreality.cz/detail/pronajem/byt/3+kk/praha-hloubetin-nademlejnska/2986078284",
      "listing_published_at": "2026-06-12",
      "listing_updated_at": "2026-07-12"
    },
    {
      "id": "sr_2101407820",
      "price": 36000,
      "lat": 50.1199033332,
      "lng": 14.462407188,
      "sqm": 93,
      "rooms": 3,
      "address": "U Stírky, Libeň, Praha",
      "zone": "Libeň",
      "url": "https://www.sreality.cz/detail/pronajem/byt/3+kk/praha-liben-u-stirky/2101407820",
      "listing_published_at": "2026-06-25",
      "listing_updated_at": "2026-07-12"
    },
    {
      "id": "sr_4138963020",
      "price": 86500,
      "lat": 50.0764301567,
      "lng": 14.4366095133,
      "sqm": 170,
      "rooms": 5,
      "address": "Ibsenova, Vinohrady, Praha",
      "zone": "Vinohrady",
      "url": "https://www.sreality.cz/detail/pronajem/byt/5+1/praha-vinohrady-ibsenova/4138963020",
      "listing_published_at": "2026-05-18",
      "listing_updated_at": "2026-07-12"
    },
    {
      "id": "sr_3427721292",
      "price": 35000,
      "lat": 50.08594,
      "lng": 14.429825,
      "sqm": 83,
      "rooms": 2,
      "address": "Senovážné náměstí, Nové Město, Praha",
      "zone": "Nové Město",
      "url": "https://www.sreality.cz/detail/pronajem/byt/2+kk/praha-nove-mesto-senovazne-namesti/3427721292",
      "listing_published_at": "2026-07-08",
      "listing_updated_at": "2026-07-12"
    },
    {
      "id": "sr_1296883788",
      "price": 30000,
      "lat": 50.07009307328011,
      "lng": 14.38348813066292,
      "sqm": 48,
      "rooms": 2,
      "address": "Vrchlického, Košíře, Praha",
      "zone": "Košíře",
      "url": "https://www.sreality.cz/detail/pronajem/byt/2+kk/praha-kosire-vrchlickeho/1296883788",
      "listing_published_at": "2026-07-10",
      "listing_updated_at": "2026-07-12"
    },
    {
      "id": "sr_1865781324",
      "price": 12515,
      "lat": 50.074324555251835,
      "lng": 14.436556401521626,
      "sqm": 14,
      "rooms": null,
      "address": "Americká, Vinohrady, Praha",
      "zone": "Vinohrady",
      "url": "https://www.sreality.cz/detail/pronajem/byt/Pokoj/praha-vinohrady-americka/1865781324",
      "listing_published_at": "2026-05-25",
      "listing_updated_at": "2026-07-12"
    },
    {
      "id": "sr_2989854796",
      "price": 20970,
      "lat": 50.07402201739318,
      "lng": 14.433116131960555,
      "sqm": 46,
      "rooms": 2,
      "address": "Rumunská, Vinohrady, Praha",
      "zone": "Vinohrady",
      "url": "https://www.sreality.cz/detail/pronajem/byt/2+kk/praha-vinohrady-rumunska/2989854796",
      "listing_published_at": "2026-05-24",
      "listing_updated_at": "2026-07-12"
    },
    {
      "id": "sr_3018645580",
      "price": 26000,
      "lat": 50.0891512391157,
      "lng": 14.3510258436169,
      "sqm": 67,
      "rooms": 3,
      "address": "Na Petřinách, Břevnov, Praha",
      "zone": "Břevnov",
      "url": "https://www.sreality.cz/detail/pronajem/byt/3+kk/praha-brevnov-na-petrinach/3018645580",
      "listing_published_at": "2026-07-12",
      "listing_updated_at": "2026-07-12"
    },
    {
      "id": "sr_322835276",
      "price": 20900,
      "lat": 50.1042166903,
      "lng": 14.5250451823,
      "sqm": 43,
      "rooms": 1,
      "address": "Poděbradská, Hloubětín, Praha",
      "zone": "Hloubětín",
      "url": "https://www.sreality.cz/detail/pronajem/byt/1+kk/praha-hloubetin-podebradska/322835276",
      "listing_published_at": "2025-12-09",
      "listing_updated_at": "2026-07-12"
    },
    {
      "id": "sr_1842004812",
      "price": 36000,
      "lat": 50.0777423961,
      "lng": 14.5053247188,
      "sqm": 82,
      "rooms": 3,
      "address": "Černokostelecká, Strašnice, Praha",
      "zone": "Strašnice",
      "url": "https://www.sreality.cz/detail/pronajem/byt/3+1/praha-strasnice-cernokostelecka/1842004812",
      "listing_published_at": "2025-10-08",
      "listing_updated_at": "2026-07-12"
    },
    {
      "id": "sr_842482508",
      "price": 18490,
      "lat": 50.1041313330879,
      "lng": 14.5282466457973,
      "sqm": 32,
      "rooms": 1,
      "address": "Poděbradská, Hloubětín, Praha",
      "zone": "Hloubětín",
      "url": "https://www.sreality.cz/detail/pronajem/byt/1+kk/praha-hloubetin-podebradska/842482508",
      "listing_published_at": "2026-03-31",
      "listing_updated_at": "2026-07-12"
    },
    {
      "id": "sr_837607500",
      "price": 18000,
      "lat": 50.071099,
      "lng": 14.435683,
      "sqm": 52,
      "rooms": 2,
      "address": "Londýnská, Vinohrady, Praha",
      "zone": "Vinohrady",
      "url": "https://www.sreality.cz/detail/pronajem/byt/2+kk/praha-vinohrady-londynska/837607500",
      "listing_published_at": "2026-07-12",
      "listing_updated_at": "2026-07-12"
    },
    {
      "id": "sr_2840760396",
      "price": 50000,
      "lat": 50.0782708357338,
      "lng": 14.4143868835604,
      "sqm": 114,
      "rooms": 3,
      "address": "Masarykovo nábřeží, Nové Město, Praha",
      "zone": "Nové Město",
      "url": "https://www.sreality.cz/detail/pronajem/byt/3+1/praha-nove-mesto-masarykovo-nabrezi/2840760396",
      "listing_published_at": "2026-05-18",
      "listing_updated_at": "2026-07-12"
    },
    {
      "id": "sr_241991756",
      "price": 44000,
      "lat": 50.0821795669115,
      "lng": 14.4044812194629,
      "sqm": 98,
      "rooms": 3,
      "address": "Újezd, Malá Strana, Praha",
      "zone": "Malá Strana",
      "url": "https://www.sreality.cz/detail/pronajem/byt/3+kk/praha-mala-strana-ujezd/241991756",
      "listing_published_at": "2026-06-02",
      "listing_updated_at": "2026-07-12"
    },
    {
      "id": "sr_3818824268",
      "price": 79000,
      "lat": 50.0872492549852,
      "lng": 14.4002659712691,
      "sqm": 170,
      "rooms": 4,
      "address": "Vlašská, Malá Strana, Praha",
      "zone": "Malá Strana",
      "url": "https://www.sreality.cz/detail/pronajem/byt/4+1/praha-mala-strana-vlasska/3818824268",
      "listing_published_at": "2024-08-02",
      "listing_updated_at": "2026-07-12"
    },
    {
      "id": "sr_2878436172",
      "price": 29385,
      "lat": 50.0787329973142,
      "lng": 14.4253690800295,
      "sqm": 71,
      "rooms": 2,
      "address": "Štěpánská, Nové Město, Praha",
      "zone": "Nové Město",
      "url": "https://www.sreality.cz/detail/pronajem/byt/2+kk/praha-nove-mesto-stepanska/2878436172",
      "listing_published_at": "2026-02-04",
      "listing_updated_at": "2026-07-12"
    },
    {
      "id": "sr_733868108",
      "price": 40000,
      "lat": 50.0894577187,
      "lng": 14.4033478765866,
      "sqm": 85,
      "rooms": 3,
      "address": "Sněmovní, Malá Strana, Praha",
      "zone": "Malá Strana",
      "url": "https://www.sreality.cz/detail/pronajem/byt/3+1/praha-mala-strana-snemovni/733868108",
      "listing_published_at": "2026-06-19",
      "listing_updated_at": "2026-07-12"
    },
    {
      "id": "sr_428859468",
      "price": 45000,
      "lat": 50.0810584476935,
      "lng": 14.4224205032109,
      "sqm": 100,
      "rooms": 3,
      "address": "Jungmannova, Nové Město, Praha",
      "zone": "Nové Město",
      "url": "https://www.sreality.cz/detail/pronajem/byt/3+kk/praha-nove-mesto-jungmannova/428859468",
      "listing_published_at": "2026-07-08",
      "listing_updated_at": "2026-07-12"
    },
    {
      "id": "sr_1771954252",
      "price": 29900,
      "lat": 50.0554249180659,
      "lng": 14.381661553138,
      "sqm": 49,
      "rooms": 2,
      "address": "U Komína, Radlice, Praha",
      "zone": "Radlice",
      "url": "https://www.sreality.cz/detail/pronajem/byt/2+kk/praha-radlice-u-komina/1771954252",
      "listing_published_at": "2026-07-10",
      "listing_updated_at": "2026-07-12"
    },
    {
      "id": "sr_1336087372",
      "price": 50000,
      "lat": 50.0860624120387,
      "lng": 14.4325943463367,
      "sqm": 135,
      "rooms": 4,
      "address": "Senovážné náměstí, Nové Město, Praha",
      "zone": "Nové Město",
      "url": "https://www.sreality.cz/detail/pronajem/byt/4+kk/praha-nove-mesto-senovazne-namesti/1336087372",
      "listing_published_at": "2025-12-15",
      "listing_updated_at": "2026-07-12"
    },
    {
      "id": "sr_1231597644",
      "price": 10000,
      "lat": 50.0898791,
      "lng": 14.6102798,
      "sqm": 14,
      "rooms": 1,
      "address": "Podnikatelská, Běchovice, Praha",
      "zone": "Běchovice",
      "url": "https://www.sreality.cz/detail/pronajem/byt/1+kk/praha-bechovice-podnikatelska/1231597644",
      "listing_published_at": "2026-04-08",
      "listing_updated_at": "2026-07-12"
    },