{
  "fetched_at": "2026-07-18T08:04:41.657Z",
  "active_count": 190,
  "listings": [
    {
      "id": "sr_3530289228",
      "price": 26000,
      "lat": 50.0714820609547,
      "lng": 14.4423477076226,
      "sqm": 48,
      "rooms": 2,
      "address": "Na Kozačce, Vinohrady, Praha",
      "zone": "Vinohrady",
      "url": "https://www.sreality.cz/detail/pronajem/byt/2+kk/praha-vinohrady-na-kozacce/3530289228",
      "listing_published_at": "2026-06-12",
      "listing_updated_at": "2026-07-18"
    },
    {
      "id": "sr_2828197964",
      "price": 30000,
      "lat": 50.0841944009487,
      "lng": 14.4571370952232,
      "sqm": 73,
      "rooms": 2,
      "address": "Prokopova, Žižkov, Praha",
      "zone": "Žižkov",
      "url": "https://www.sreality.cz/detail/pronajem/byt/2+kk/praha-zizkov-prokopova/2828197964",
      "listing_published_at": "2026-07-15",
      "listing_updated_at": "2026-07-18"
    },
    {
      "id": "sr_3595231308",
      "price": 29000,
      "lat": 50.0759006805977,
      "lng": 14.3320825920895,
      "sqm": 80,
      "rooms": 3,
      "address": "Bělohorská, Břevnov, Praha",
      "zone": "Břevnov",
      "url": "https://www.sreality.cz/detail/pronajem/byt/3+1/praha-brevnov-belohorska/3595231308",
      "listing_published_at": "2026-07-02",
      "listing_updated_at": "2026-07-18"
    },
    {
      "id": "sr_4252037196",
      "price": 25000,
      "lat": 50.0906032850801,
      "lng": 14.4428165428427,
      "sqm": 45,
      "rooms": 2,
      "address": "Prvního pluku, Karlín, Praha",
      "zone": "Karlín",
      "url": "https://www.sreality.cz/detail/pronajem/byt/2+kk/praha-karlin-prvniho-pluku/4252037196",
      "listing_published_at": "2026-06-25",
      "listing_updated_at": "2026-07-18"
    },
    {
      "id": "sr_3553747020",
      "price": 20000,
      "lat": 50.072521,
      "lng": 14.394203,
      "sqm": 45,
      "rooms": 1,
      "address": "Plzeňská, Smíchov, Praha",
      "zone": "Smíchov",
      "url": "https://www.sreality.cz/detail/pronajem/byt/1+1/praha-smichov-plzenska/3553747020",
      "listing_published_at": "2026-07-15",
      "listing_updated_at": "2026-07-18"
    },
    {
      "id": "sr_184803404",
      "price": 21000,
      "lat": 50.066284,
      "lng": 14.4278892,
      "sqm": 35,
      "rooms": 1,
      "address": "Sekaninova, Nusle, Praha",
      "zone": "Nusle",
      "url": "https://www.sreality.cz/detail/pronajem/byt/1+kk/praha-nusle-sekaninova/184803404",
      "listing_published_at": "2026-07-13",
      "listing_updated_at": "2026-07-18"
    },
    {
      "id": "sr_447471692",
      "price": 24000,
      "lat": 50.077257,
      "lng": 14.423463,
      "sqm": 23,
      "rooms": 1,
      "address": "Žitná, Nové Město, Praha",
      "zone": "Nové Město",
      "url": "https://www.sreality.cz/detail/pronajem/byt/1+kk/praha-nove-mesto-zitna/447471692",
      "listing_published_at": "2026-07-02",
      "listing_updated_at": "2026-07-18"
    },
    {
      "id": "sr_3059740748",
      "price": 22400,
      "lat": 50.021378,
      "lng": 14.41349,
      "sqm": 41,
      "rooms": 2,
      "address": "Pod Lysinami, Hodkovičky, Praha",
      "zone": "Hodkovičky",
      "url": "https://www.sreality.cz/detail/pronajem/byt/2+kk/praha-hodkovicky-pod-lysinami/3059740748",
      "listing_published_at": "2026-06-17",
      "listing_updated_at": "2026-07-18"
    },
    {
      "id": "sr_909701196",
      "price": 30700,
      "lat": 50.069554,
      "lng": 14.484071,
      "sqm": 72,
      "rooms": 3,
      "address": "U Hranic, Strašnice, Praha",
      "zone": "Strašnice",
      "url": "https://www.sreality.cz/detail/pronajem/byt/3+kk/praha-strasnice-u-hranic/909701196",
      "listing_published_at": "2026-06-16",
      "listing_updated_at": "2026-07-18"
    },
    {
      "id": "sr_3729846348",
      "price": 43000,
      "lat": 50.053656,
      "lng": 14.418972,
      "sqm": 88,
      "rooms": 3,
      "address": "U Kublova, Podolí, Praha",
      "zone": "Podolí",
      "url": "https://www.sreality.cz/detail/pronajem/byt/3+kk/praha-podoli-u-kublova/3729846348",
      "listing_published_at": "2026-06-25",
      "listing_updated_at": "2026-07-18"
    },
    {
      "id": "sr_143319116",
      "price": 28000,
      "lat": 50.00782308551539,
      "lng": 14.45536856303421,
      "sqm": 71,
      "rooms": 3,
      "address": "Kramperova, Kamýk, Praha",
      "zone": "Kamýk",
      "url": "https://www.sreality.cz/detail/pronajem/byt/3+kk/praha-kamyk-kramperova/143319116",
      "listing_published_at": "2026-07-03",
      "listing_updated_at": "2026-07-18"
    },
    {
      "id": "sr_2144101196",
      "price": 60000,
      "lat": 50.0683130945,
      "lng": 14.4155029527,
      "sqm": 105,
      "rooms": 3,
      "address": "Na Hrobci, Nové Město, Praha",
      "zone": "Nové Město",
      "url": "https://www.sreality.cz/detail/pronajem/byt/3+1/praha-nove-mesto-na-hrobci/2144101196",
      "listing_published_at": "2026-02-19",
      "listing_updated_at": "2026-07-18"
    },
    {
      "id": "sr_54124620",
      "price": 16000,
      "lat": 50.067177,
      "lng": 14.448734,
      "sqm": 43,
      "rooms": 1,
      "address": "U Vršovického nádraží, Vršovice, Praha",
      "zone": "Vršovice",
      "url": "https://www.sreality.cz/detail/pronajem/byt/1+kk/praha-vrsovice-u-vrsovickeho-nadrazi/54124620",
      "listing_published_at": "2026-07-04",
      "listing_updated_at": "2026-07-18"
    },
    {
      "id": "sr_3037192268",
      "price": 34500,
      "lat": 50.0858831730193,
      "lng": 14.4669743040463,
      "sqm": 98,
      "rooms": 2,
      "address": "Malešická, Žižkov, Praha",
      "zone": "Žižkov",
      "url": "https://www.sreality.cz/detail/pronajem/byt/2+kk/praha-zizkov-malesicka/3037192268",
      "listing_published_at": "2026-07-17",
      "listing_updated_at": "2026-07-18"
    },
    {
      "id": "sr_3835752524",
      "price": 24500,
      "lat": 50.104638,
      "lng": 14.397226,
      "sqm": 47,
      "rooms": 2,
      "address": "Lotyšská, Bubeneč, Praha",
      "zone": "Bubeneč",
      "url": "https://www.sreality.cz/detail/pronajem/byt/2+1/praha-bubenec-lotysska/3835752524",
      "listing_published_at": "2026-06-25",
      "listing_updated_at": "2026-07-18"
    },
    {
      "id": "sr_3913801804",
      "price": 30000,
      "lat": 50.09142364416144,
      "lng": 14.449130813324274,
      "sqm": 67,
      "rooms": 2,
      "address": "Kollárova, Karlín, Praha",
      "zone": "Karlín",
      "url": "https://www.sreality.cz/detail/pronajem/byt/2+kk/praha-karlin-kollarova/3913801804",
      "listing_published_at": "2026-07-17",
      "listing_updated_at": "2026-07-18"
    },
    {
      "id": "sr_2524414028",
      "price": 16000,
      "lat": 50.1028946425481,
      "lng": 14.4446964827231,
      "sqm": 22,
      "rooms": null,
      "address": "Dělnická, Holešovice, Praha",
      "zone": "Holešovice",
      "url": "https://www.sreality.cz/detail/pronajem/byt/Pokoj/praha-holesovice-delnicka/2524414028",
      "listing_published_at": "2026-06-08",
      "listing_updated_at": "2026-07-18"
    },
    {
      "id": "sr_1604509772",
      "price": 28000,
      "lat": 50.0732801460237,
      "lng": 14.3965390829381,
      "sqm": 66,
      "rooms": 2,
      "address": "Grafická, Smíchov, Praha",
      "zone": "Smíchov",
      "url": "https://www.sreality.cz/detail/pronajem/byt/2+kk/praha-smichov-graficka/1604509772",
      "listing_published_at": "2026-07-14",
      "listing_updated_at": "2026-07-18"
    },
    {
      "id": "sr_2583883852",
      "price": 33000,
      "lat": 50.0686774730446,
      "lng": 14.4402330716014,
      "sqm": 75,
      "rooms": 2,
      "address": "Perucká, Vinohrady, Praha",
      "zone": "Vinohrady",
      "url": "https://www.sreality.cz/detail/pronajem/byt/2+kk/praha-vinohrady-perucka/2583883852",
      "listing_published_at": "2026-06-23",
      "listing_updated_at": "2026-07-18"
    },
    {
      "id": "sr_4157112396",
      "price": 32000,
      "lat": 50.082983740343,
      "lng": 14.3586418641774,
      "sqm": 111,
      "rooms": 2,
      "address": "Bělohorská, Břevnov, Praha",
      "zone": "Břevnov",
      "url": "https://www.sreality.cz/detail/pronajem/byt/2+kk/praha-brevnov-belohorska/4157112396",
      "listing_published_at": "2026-05-29",
      "listing_updated_at": "2026-07-18"
    },
    {
      "id": "sr_2472796236",
      "price": 22000,
      "lat": 50.09073193708704,
      "lng": 14.476322447080959,
      "sqm": 46,
      "rooms": 2,
      "address": "Biskupcova, Žižkov, Praha",
      "zone": "Žižkov",
      "url": "https://www.sreality.cz/detail/pronajem/byt/2+kk/praha-zizkov-biskupcova/2472796236",
      "listing_published_at": "2026-07-13",
      "listing_updated_at": "2026-07-18"
    },
    {
      "id": "sr_3934773324",
      "price": 16900,
      "lat": 50.07107403273,
      "lng": 14.4458306135105,
      "sqm": 31,
      "rooms": 1,
      "address": "Kozácká, Vršovice, Praha",
      "zone": "Vršovice",
      "url": "https://www.sreality.cz/detail/pronajem/byt/1+kk/praha-vrsovice-kozacka/3934773324",
      "listing_published_at": "2026-07-18",
      "listing_updated_at": "2026-07-18"
    },
    {
      "id": "sr_444891212",
      "price": 29000,
      "lat": 50.0945311999386,
      "lng": 14.4472171576989,
      "sqm": 57,
      "rooms": 2,
      "address": "Rohanské nábřeží, Karlín, Praha",
      "zone": "Karlín",
      "url": "https://www.sreality.cz/detail/pronajem/byt/2+kk/praha-karlin-rohanske-nabrezi/444891212",
      "listing_published_at": "2026-06-11",
      "listing_updated_at": "2026-07-18"
    },
    {
      "id": "sr_2387730508",
      "price": 18000,
      "lat": 50.01456893702172,
      "lng": 14.443926092955493,
      "sqm": 42,
      "rooms": 2,
      "address": "Cílkova, Kamýk, Praha",
      "zone": "Kamýk",
      "url": "https://www.sreality.cz/detail/pronajem/byt/2+kk/praha-kamyk-cilkova/2387730508",
      "listing_published_at": "2026-07-15",
      "listing_updated_at": "2026-07-18"
    },
    {
      "id": "sr_645955660",
      "price": 59000,
      "lat": 50.0859123,
      "lng": 14.4312661,
      "sqm": 130,
      "rooms": 4,
      "address": "Senovážné náměstí, Nové Město, Praha",
      "zone": "Nové Město",
      "url": "https://www.sreality.cz/detail/pronajem/byt/4+kk/praha-nove-mesto-senovazne-namesti/645955660",
      "listing_published_at": "2026-06-08",
      "listing_updated_at": "2026-07-18"
    },
    {
      "id": "sr_2972098636",
      "price": 99800,
      "lat": 50.0785821400692,
      "lng": 14.4499726485309,
      "sqm": 107,
      "rooms": 4,
      "address": "náměstí Jiřího z Poděbrad, Vinohrady, Praha",
      "zone": "Vinohrady",
      "url": "https://www.sreality.cz/detail/pronajem/byt/4+kk/praha-vinohrady-namesti-jiriho-z-podebrad/2972098636",
      "listing_published_at": "2026-05-05",
      "listing_updated_at": "2026-07-18"
    },
    {
      "id": "sr_3566264396",
      "price": 23900,
      "lat": 50.1290588304831,
      "lng": 14.4783040490488,
      "sqm": 48,
      "rooms": 2,
      "address": "Třebenická, Kobylisy, Praha",
      "zone": "Kobylisy",
      "url": "https://www.sreality.cz/detail/pronajem/byt/2+kk/praha-kobylisy-trebenicka/3566264396",
      "listing_published_at": "2026-07-16",
      "listing_updated_at": "2026-07-18"
    },
    {
      "id": "sr_1794150476",
      "price": 103930,
      "lat": 50.0784970034736,
      "lng": 14.4501973953258,
      "sqm": 118,
      "rooms": 4,
      "address": "náměstí Jiřího z Poděbrad, Vinohrady, Praha",
      "zone": "Vinohrady",
      "url": "https://www.sreality.cz/detail/pronajem/byt/4+kk/praha-vinohrady-namesti-jiriho-z-podebrad/1794150476",
      "listing_published_at": "2026-05-20",
      "listing_updated_at": "2026-07-18"
    },
    {
      "id": "sr_2858959692",
      "price": 44800,
      "lat": 50.0784970034736,
      "lng": 14.4501973953258,
      "sqm": 93,
      "rooms": 3,
      "address": "náměstí Jiřího z Poděbrad, Vinohrady, Praha",
      "zone": "Vinohrady",
      "url": "https://www.sreality.cz/detail/pronajem/byt/3+kk/praha-vinohrady-namesti-jiriho-z-podebrad/2858959692",
      "listing_published_at": "2026-03-20",
      "listing_updated_at": "2026-07-18"
    },
    {
      "id": "sr_13390668",
      "price": 39000,
      "lat": 50.087026926285596,
      "lng": 14.39704290293089,
      "sqm": 73,
      "rooms": 2,
      "address": "Vlašská, Malá Strana, Praha",
      "zone": "Malá Strana",
      "url": "https://www.sreality.cz/detail/pronajem/byt/2+1/praha-mala-strana-vlasska/13390668",
      "listing_published_at": "2026-03-09",
      "listing_updated_at": "2026-07-18"
    },
    {
      "id": "sr_3657560140",
      "price": 90000,
      "lat": 50.087026926285596,
      "lng": 14.39704290293089,
      "sqm": 178,
      "rooms": 4,
      "address": "Vlašská, Praha",
      "zone": "Vlašská",
      "url": "https://www.sreality.cz/detail/pronajem/byt/4+kk/praha-vlasska/3657560140",
      "listing_published_at": "2026-06-24",
      "listing_updated_at": "2026-07-18"
    },
    {
      "id": "sr_1433985100",
      "price": 42000,
      "lat": 50.07798660381497,
      "lng": 14.408157412367508,
      "sqm": 83,
      "rooms": 3,
      "address": "Janáčkovo nábřeží, Smíchov, Praha",
      "zone": "Smíchov",
      "url": "https://www.sreality.cz/detail/pronajem/byt/3+kk/praha-smichov-janackovo-nabrezi/1433985100",
      "listing_published_at": "2026-07-06",
      "listing_updated_at": "2026-07-18"
    },
    {
      "id": "sr_2519720012",
      "price": 35000,
      "lat": 50.08217956691154,
      "lng": 14.404481219462888,
      "sqm": 75,
      "rooms": 2,
      "address": "Újezd, Praha",
      "zone": "Újezd",
      "url": "https://www.sreality.cz/detail/pronajem/byt/2+kk/praha-ujezd/2519720012",
      "listing_published_at": "2026-07-07",
      "listing_updated_at": "2026-07-18"
    },
    {
      "id": "sr_868037452",
      "price": 68000,
      "lat": 50.0879499,
      "lng": 14.4095188,
      "sqm": 110,
      "rooms": 3,
      "address": "U lužického semináře, Malá Strana, Praha",
      "zone": "Malá Strana",
      "url": "https://www.sreality.cz/detail/pronajem/byt/3+1/praha-mala-strana-u-luzickeho-seminare/868037452",
      "listing_published_at": "2025-10-31",
      "listing_updated_at": "2026-07-18"
    },
    {
      "id": "sr_3765534796",
      "price": 26500,
      "lat": 50.0772151553,
      "lng": 14.4612781778,
      "sqm": 85,
      "rooms": 2,
      "address": "Jičínská, Vinohrady, Praha",
      "zone": "Vinohrady",
      "url": "https://www.sreality.cz/detail/pronajem/byt/2+1/praha-vinohrady-jicinska/3765534796",
      "listing_published_at": "2026-06-05",
      "listing_updated_at": "2026-07-18"
    },
    {
      "id": "sr_7193420",
      "price": 51000,
      "lat": 50.0919567,
      "lng": 14.4227428,
      "sqm": 69,
      "rooms": 2,
      "address": "U milosrdných, Staré Město, Praha",
      "zone": "Staré Město",
      "url": "https://www.sreality.cz/detail/pronajem/byt/2+kk/praha-stare-mesto-u-milosrdnych/7193420",
      "listing_published_at": "2025-10-13",
      "listing_updated_at": "2026-07-18"
    },
    {
      "id": "sr_1228398668",
      "price": 37500,
      "lat": 50.0933303255798,
      "lng": 14.5059665587185,
      "sqm": 83,
      "rooms": 3,
      "address": "Učňovská, Hrdlořezy, Praha",
      "zone": "Hrdlořezy",
      "url": "https://www.sreality.cz/detail/pronajem/byt/3+kk/praha-hrdlorezy-ucnovska/1228398668",
      "listing_published_at": "2026-07-17",
      "listing_updated_at": "2026-07-18"
    },
    {
      "id": "sr_3508969548",
      "price": 64800,
      "lat": 50.0785821400692,
      "lng": 14.4499726485309,
      "sqm": 92,
      "rooms": 3,
      "address": "náměstí Jiřího z Poděbrad, Vinohrady, Praha",
      "zone": "Vinohrady",
      "url": "https://www.sreality.cz/detail/pronajem/byt/3+kk/praha-vinohrady-namesti-jiriho-z-podebrad/3508969548",
      "listing_published_at": "2026-05-05",
      "listing_updated_at": "2026-07-18"
    },
    {
      "id": "sr_1377927244",
      "price": 42000,
      "lat": 50.0793628529,
      "lng": 14.4197537042,
      "sqm": 92,
      "rooms": 3,
      "address": "Spálená, Nové Město, Praha",
      "zone": "Nové Město",
      "url": "https://www.sreality.cz/detail/pronajem/byt/3+kk/praha-nove-mesto-spalena/1377927244",
      "listing_published_at": "2026-06-05",
      "listing_updated_at": "2026-07-18"
    },
    {
      "id": "sr_1437287244",
      "price": 60000,
      "lat": 50.068272,
      "lng": 14.416012,
      "sqm": 105,
      "rooms": 3,
      "address": "Na Hrobci, Nové Město, Praha",
      "zone": "Nové Město",
      "url": "https://www.sreality.cz/detail/pronajem/byt/3+1/praha-nove-mesto-na-hrobci/1437287244",
      "listing_published_at": "2026-03-18",
      "listing_updated_at": "2026-07-18"
    },
    {
      "id": "sr_2498682956",
      "price": 60000,
      "lat": 50.049055953,
      "lng": 14.4359707931,
      "sqm": 91,
      "rooms": 2,
      "address": "Milevská, Krč, Praha",
      "zone": "Krč",
      "url": "https://www.sreality.cz/detail/pronajem/byt/2+kk/praha-krc-milevska/2498682956",
      "listing_published_at": "2026-07-09",
      "listing_updated_at": "2026-07-18"
    },
    {
      "id": "sr_4190957644",
      "price": 24000,
      "lat": 50.04196718419333,
      "lng": 14.503488189947522,
      "sqm": 56,
      "rooms": 2,
      "address": "Nebřenická, Chodov, Praha",
      "zone": "Chodov",
      "url": "https://www.sreality.cz/detail/pronajem/byt/2+kk/praha-chodov-nebrenicka/4190957644",
      "listing_published_at": "2026-06-22",
      "listing_updated_at": "2026-07-18"
    },
    {
      "id": "sr_979911500",
      "price": 49800,
      "lat": 50.0784970034736,
      "lng": 14.4501973953258,
      "sqm": 60,
      "rooms": 2,
      "address": "náměstí Jiřího z Poděbrad, Vinohrady, Praha",
      "zone": "Vinohrady",
      "url": "https://www.sreality.cz/detail/pronajem/byt/2+kk/praha-vinohrady-namesti-jiriho-z-podebrad/979911500",
      "listing_published_at": "2026-03-20",
      "listing_updated_at": "2026-07-18"
    },
    {
      "id": "sr_3492118604",
      "price": 38000,
      "lat": 50.1035423674072,
      "lng": 14.5074613390914,
      "sqm": 70,
      "rooms": 2,
      "address": "Gerstelova, Vysočany, Praha",
      "zone": "Vysočany",
      "url": "https://www.sreality.cz/detail/pronajem/byt/2+kk/praha-vysocany-gerstelova/3492118604",
      "listing_published_at": "2026-06-10",
      "listing_updated_at": "2026-07-18"
    },
    {
      "id": "sr_573300812",
      "price": 24800,
      "lat": 50.099825,
      "lng": 14.3962555556,
      "sqm": 35,
      "rooms": 1,
      "address": "Vítězné náměstí, Bubeneč, Praha",
      "zone": "Bubeneč",
      "url": "https://www.sreality.cz/detail/pronajem/byt/1+kk/praha-bubenec-vitezne-namesti/573300812",
      "listing_published_at": "2026-07-01",
      "listing_updated_at": "2026-07-18"
    },
    {
      "id": "sr_2441773132",
      "price": 21000,
      "lat": 50.09635452600942,
      "lng": 14.343954433146903,
      "sqm": 49,
      "rooms": 2,
      "address": "Ke dvoru, Vokovice, Praha",
      "zone": "Vokovice",
      "url": "https://www.sreality.cz/detail/pronajem/byt/2+kk/praha-vokovice-ke-dvoru/2441773132",
      "listing_published_at": "2026-05-27",
      "listing_updated_at": "2026-07-18"
    },
    {
      "id": "sr_2494492748",
      "price": 17500,
      "lat": 50.038348,
      "lng": 14.31745,
      "sqm": 33,
      "rooms": 1,
      "address": "Jáchymovská, Řeporyje, Praha",
      "zone": "Řeporyje",
      "url": "https://www.sreality.cz/detail/pronajem/byt/1+kk/praha-reporyje-jachymovska/2494492748",
      "listing_published_at": "2026-06-18",
      "listing_updated_at": "2026-07-18"
    },
    {
      "id": "sr_1822457932",
      "price": 16490,
      "lat": 50.098811,
      "lng": 14.481522,
      "sqm": 27,
      "rooms": 1,
      "address": "Novovysočanská, Libeň, Praha",
      "zone": "Libeň",
      "url": "https://www.sreality.cz/detail/pronajem/byt/1+kk/praha-liben-novovysocanska/1822457932",
      "listing_published_at": "2026-06-08",
      "listing_updated_at": "2026-07-18"
    },
    {
      "id": "sr_2793136204",
      "price": 40000,
      "lat": 50.07272560174964,
      "lng": 14.445031277094282,
      "sqm": 87,
      "rooms": 3,
      "address": "Slovenská, Vinohrady, Praha",
      "zone": "Vinohrady",
      "url": "https://www.sreality.cz/detail/pronajem/byt/3+kk/praha-vinohrady-slovenska/2793136204",
      "listing_published_at": "2026-07-01",
      "listing_updated_at": "2026-07-18"
    },
    {
      "id": "sr_3341058124",
      "price": 17900,
      "lat": 50.103541,
      "lng": 14.524761,
      "sqm": 33,
      "rooms": 1,
      "address": "Poděbradská, Hloubětín, Praha",
      "zone": "Hloubětín",
      "url": "https://www.sreality.cz/detail/pronajem/byt/1+kk/praha-hloubetin-podebradska/3341058124",
      "listing_published_at": "2026-06-11",
      "listing_updated_at": "2026-07-18"
    },
    {
      "id": "sr_3758551116",
      "price": 18900,
      "lat": 50.055408,
      "lng": 14.381877,
      "sqm": 39,
      "rooms": 1,
      "address": "U Komína, Radlice, Praha",
      "zone": "Radlice",
      "url": "https://www.sreality.cz/detail/pronajem/byt/1+kk/praha-radlice-u-komina/3758551116",
      "listing_published_at": "2026-06-29",
      "listing_updated_at": "2026-07-18"
    },
    {
      "id": "sr_2052120652",
      "price": 20000,
      "lat": 50.141134,
      "lng": 14.449454,
      "sqm": 36,
      "rooms": 1,
      "address": "Za Pískovnou, Dolní Chabry, Praha",
      "zone": "Dolní Chabry",
      "url": "https://www.sreality.cz/detail/pronajem/byt/1+kk/praha-dolni-chabry-za-piskovnou/2052120652",
      "listing_published_at": "2026-07-16",
      "listing_updated_at": "2026-07-18"
    },
    {
      "id": "sr_2408046668",
      "price": 14500,
      "lat": 50.04653179837451,
      "lng": 14.51393915200838,
      "sqm": 30,
      "rooms": 1,
      "address": "Tesaříkova, Hostivař, Praha",
      "zone": "Hostivař",
      "url": "https://www.sreality.cz/detail/pronajem/byt/1+1/praha-hostivar-tesarikova/2408046668",
      "listing_published_at": "2026-07-18",
      "listing_updated_at": "2026-07-18"
    },
    {
      "id": "sr_423669836",
      "price": 26800,
      "lat": 50.0534520378595,
      "lng": 14.4097156630624,
      "sqm": 43,
      "rooms": 1,
      "address": "U Lihovaru, Smíchov, Praha",
      "zone": "Smíchov",
      "url": "https://www.sreality.cz/detail/pronajem/byt/1+kk/praha-smichov-u-lihovaru/423669836",
      "listing_published_at": "2026-04-16",
      "listing_updated_at": "2026-07-18"
    },
    {
      "id": "sr_542150732",
      "price": 58000,
      "lat": 50.0534520378595,
      "lng": 14.4097156630624,
      "sqm": 94,
      "rooms": 3,
      "address": "U Lihovaru, Smíchov, Praha",
      "zone": "Smíchov",
      "url": "https://www.sreality.cz/detail/pronajem/byt/3+kk/praha-smichov-u-lihovaru/542150732",
      "listing_published_at": "2026-05-20",
      "listing_updated_at": "2026-07-18"
    },
    {
      "id": "sr_3366158412",
      "price": 58500,
      "lat": 50.0534520378595,
      "lng": 14.4097156630624,
      "sqm": 103,
      "rooms": 3,
      "address": "U Lihovaru, Smíchov, Praha",
      "zone": "Smíchov",
      "url": "https://www.sreality.cz/detail/pronajem/byt/3+kk/praha-smichov-u-lihovaru/3366158412",
      "listing_published_at": "2026-06-04",
      "listing_updated_at": "2026-07-18"
    },
    {
      "id": "sr_1999368268",
      "price": 34900,
      "lat": 50.0534520378595,
      "lng": 14.4097156630624,
      "sqm": 55,
      "rooms": 2,
      "address": "U Lihovaru, Smíchov, Praha",
      "zone": "Smíchov",
      "url": "https://www.sreality.cz/detail/pronajem/byt/2+kk/praha-smichov-u-lihovaru/1999368268",
      "listing_published_at": "2026-06-12",
      "listing_updated_at": "2026-07-18"
    },
    {
      "id": "sr_371978316",
      "price": 34200,
      "lat": 50.0534520378595,
      "lng": 14.4097156630624,
      "sqm": 55,
      "rooms": 2,
      "address": "U Lihovaru, Smíchov, Praha",
      "zone": "Smíchov",
      "url": "https://www.sreality.cz/detail/pronajem/byt/2+kk/praha-smichov-u-lihovaru/371978316",
      "listing_published_at": "2026-06-12",
      "listing_updated_at": "2026-07-18"
    },
    {
      "id": "sr_3801972812",
      "price": 24000,
      "lat": 50.0765830388,
      "lng": 14.4901333505,
      "sqm": 40,
      "rooms": 2,
      "address": "Černokostelecká, Strašnice, Praha",
      "zone": "Strašnice",
      "url": "https://www.sreality.cz/detail/pronajem/byt/2+kk/praha-strasnice-cernokostelecka/3801972812",
      "listing_published_at": "2026-06-02",
      "listing_updated_at": "2026-07-18"
    },
    {
      "id": "sr_2062856268",
      "price": 54500,
      "lat": 50.0534520378595,
      "lng": 14.4097156630624,
      "sqm": 89,
      "rooms": 3,
      "address": "U Lihovaru, Smíchov, Praha",
      "zone": "Smíchov",
      "url": "https://www.sreality.cz/detail/pronajem/byt/3+kk/praha-smichov-u-lihovaru/2062856268",
      "listing_published_at": "2026-04-21",
      "listing_updated_at": "2026-07-18"
    },
    {
      "id": "sr_1869148236",
      "price": 32500,
      "lat": 50.0992821048,
      "lng": 14.4688838805,
      "sqm": 95,
      "rooms": 3,
      "address": "Sokolovská, Libeň, Praha",
      "zone": "Libeň",
      "url": "https://www.sreality.cz/detail/pronajem/byt/3+kk/praha-liben-sokolovska/1869148236",
      "listing_published_at": "2026-06-16",
      "listing_updated_at": "2026-07-18"
    },
    {
      "id": "sr_2930045004",
      "price": 28990,
      "lat": 50.0998201682,
      "lng": 14.4243173357,
      "sqm": 62,
      "rooms": 2,
      "address": "Ovenecká, Holešovice, Praha",
      "zone": "Holešovice",
      "url": "https://www.sreality.cz/detail/pronajem/byt/2+kk/praha-holesovice-ovenecka/2930045004",
      "listing_published_at": "2026-07-01",
      "listing_updated_at": "2026-07-18"
    },
    {
      "id": "sr_2460803148",
      "price": 17500,
      "lat": 50.1010219855836,
      "lng": 14.4182384442955,
      "sqm": 25,
      "rooms": 1,
      "address": "Korunovační, Bubeneč, Praha",
      "zone": "Bubeneč",
      "url": "https://www.sreality.cz/detail/pronajem/byt/1+kk/praha-bubenec-korunovacni/2460803148",
      "listing_published_at": "2026-07-13",
      "listing_updated_at": "2026-07-18"
    },
    {
      "id": "sr_2601771084",
      "price": 35000,
      "lat": 50.101951877538916,
      "lng": 14.425227337109911,
      "sqm": 75,
      "rooms": 3,
      "address": "Malířská, Bubeneč, Praha",
      "zone": "Bubeneč",
      "url": "https://www.sreality.cz/detail/pronajem/byt/3+kk/praha-bubenec-malirska/2601771084",
      "listing_published_at": "2026-07-13",
      "listing_updated_at": "2026-07-18"
    },
    {
      "id": "sr_3326054476",
      "price": 26500,
      "lat": 50.017110054394,
      "lng": 14.4013081688738,
      "sqm": 58,
      "rooms": 2,
      "address": "Mezi Vodami, Modřany, Praha",
      "zone": "Modřany",
      "url": "https://www.sreality.cz/detail/pronajem/byt/2+kk/praha-modrany-mezi-vodami/3326054476",
      "listing_published_at": "2026-05-13",
      "listing_updated_at": "2026-07-18"
    },
    {
      "id": "sr_2995249228",
      "price": 32500,
      "lat": 50.0069180351,
      "lng": 14.3823642814,
      "sqm": 70,
      "rooms": 3,
      "address": "Mrkosova, Velká Chuchle, Praha",
      "zone": "Velká Chuchle",
      "url": "https://www.sreality.cz/detail/pronajem/byt/3+kk/praha-velka-chuchle-mrkosova/2995249228",
      "listing_published_at": "2026-07-18",
      "listing_updated_at": "2026-07-18"
    },
    {
      "id": "sr_109482060",
      "price": 58000,
      "lat": 50.0715623663675,
      "lng": 14.4147396251249,
      "sqm": 108,
      "rooms": 3,
      "address": "Dřevná, Nové Město, Praha",
      "zone": "Nové Město",
      "url": "https://www.sreality.cz/detail/pronajem/byt/3+1/praha-nove-mesto-drevna/109482060",
      "listing_published_at": "2026-05-23",
      "listing_updated_at": "2026-07-18"
    },
    {
      "id": "sr_2949022540",
      "price": 130000,
      "lat": 50.0715623663675,
      "lng": 14.4147396251249,
      "sqm": 250,
      "rooms": 5,
      "address": "Dřevná, Nové Město, Praha",
      "zone": "Nové Město",
      "url": "https://www.sreality.cz/detail/pronajem/byt/5+kk/praha-nove-mesto-drevna/2949022540",
      "listing_published_at": "2025-08-07",
      "listing_updated_at": "2026-07-18"
    },
    {
      "id": "sr_2189942860",
      "price": 32500,
      "lat": 50.0087517959035,
      "lng": 14.3818625370998,
      "sqm": 70,
      "rooms": 3,
      "address": "Velká Chuchle, Praha",
      "zone": "Velká Chuchle",
      "url": "https://www.sreality.cz/detail/pronajem/byt/3+kk/praha-velka-chuchle/2189942860",
      "listing_published_at": "2026-07-18",
      "listing_updated_at": "2026-07-18"
    },
    {
      "id": "sr_2786193484",
      "price": 31900,
      "lat": 50.0534520378595,
      "lng": 14.4097156630624,
      "sqm": 53,
      "rooms": 2,
      "address": "U Lihovaru, Smíchov, Praha",
      "zone": "Smíchov",
      "url": "https://www.sreality.cz/detail/pronajem/byt/2+kk/praha-smichov-u-lihovaru/2786193484",
      "listing_published_at": "2026-06-24",
      "listing_updated_at": "2026-07-18"
    },
    {
      "id": "sr_516943948",
      "price": 18500,
      "lat": 50.0990396943576,
      "lng": 14.3551134421452,
      "sqm": 34,
      "rooms": 1,
      "address": "Tibetská, Vokovice, Praha",
      "zone": "Vokovice",
      "url": "https://www.sreality.cz/detail/pronajem/byt/1+kk/praha-vokovice-tibetska/516943948",
      "listing_published_at": "2026-06-17",
      "listing_updated_at": "2026-07-18"
    },
    {
      "id": "sr_3735679052",
      "price": 20000,
      "lat": 50.0691218458423,
      "lng": 14.5102321600493,
      "sqm": 39,
      "rooms": 2,
      "address": "Dürerova, Strašnice, Praha",
      "zone": "Strašnice",
      "url": "https://www.sreality.cz/detail/pronajem/byt/2+kk/praha-strasnice-durerova/3735679052",
      "listing_published_at": "2026-06-15",
      "listing_updated_at": "2026-07-18"
    },
    {
      "id": "sr_2400354380",
      "price": 21000,
      "lat": 49.9997281520148,
      "lng": 14.4081048625552,
      "sqm": 50,
      "rooms": 2,
      "address": "K Vystrkovu, Modřany, Praha",
      "zone": "Modřany",
      "url": "https://www.sreality.cz/detail/pronajem/byt/2+kk/praha-modrany-k-vystrkovu/2400354380",
      "listing_published_at": "2026-06-04",
      "listing_updated_at": "2026-07-18"
    },
    {
      "id": "sr_3182420044",
      "price": 115000,
      "lat": 50.1015779308,
      "lng": 14.3958798905,
      "sqm": 129,
      "rooms": 3,
      "address": "Vítězné náměstí, Bubeneč, Praha",
      "zone": "Bubeneč",
      "url": "https://www.sreality.cz/detail/pronajem/byt/3+kk/praha-bubenec-vitezne-namesti/3182420044",
      "listing_published_at": "2026-07-08",
      "listing_updated_at": "2026-07-18"
    },
    {
      "id": "sr_542105676",
      "price": 45000,
      "lat": 50.0942752732349,
      "lng": 14.4529983656834,
      "sqm": 110,
      "rooms": 3,
      "address": "Sokolovská, Karlín, Praha",
      "zone": "Karlín",
      "url": "https://www.sreality.cz/detail/pronajem/byt/3+kk/praha-karlin-sokolovska/542105676",
      "listing_published_at": "2026-07-07",
      "listing_updated_at": "2026-07-18"
    },
    {
      "id": "sr_2843992140",
      "price": 14500,
      "lat": 50.02541,
      "lng": 14.438305,
      "sqm": 28,
      "rooms": 1,
      "address": "Nad lesním divadlem, Braník, Praha",
      "zone": "Braník",
      "url": "https://www.sreality.cz/detail/pronajem/byt/1+kk/praha-branik-nad-lesnim-divadlem/2843992140",
      "listing_published_at": "2026-07-13",
      "listing_updated_at": "2026-07-18"
    },
    {
      "id": "sr_140308556",
      "price": 33000,
      "lat": 50.07449823769508,
      "lng": 14.55126386197722,
      "sqm": 139,
      "rooms": 3,
      "address": "Laudonova, Štěrboholy, Praha",
      "zone": "Štěrboholy",
      "url": "https://www.sreality.cz/detail/pronajem/byt/3+kk/praha-sterboholy-laudonova/140308556",
      "listing_published_at": "2026-06-21",
      "listing_updated_at": "2026-07-18"
    },
    {
      "id": "sr_1121165388",
      "price": 43000,
      "lat": 50.09259121932234,
      "lng": 14.455654745143185,
      "sqm": 91,
      "rooms": 3,
      "address": "Šaldova, Karlín, Praha",
      "zone": "Karlín",
      "url": "https://www.sreality.cz/detail/pronajem/byt/3+kk/praha-karlin-saldova/1121165388",
      "listing_published_at": "2026-04-30",
      "listing_updated_at": "2026-07-18"
    },
    {
      "id": "sr_2886357836",
      "price": 28000,
      "lat": 50.08634919870685,
      "lng": 14.404060198196582,
      "sqm": 51,
      "rooms": 2,
      "address": "Karmelitská, Malá Strana, Praha",
      "zone": "Malá Strana",
      "url": "https://www.sreality.cz/detail/pronajem/byt/2+kk/praha-mala-strana-karmelitska/2886357836",
      "listing_published_at": "2026-03-03",
      "listing_updated_at": "2026-07-18"
    },
    {
      "id": "sr_4035436620",
      "price": 23500,
      "lat": 50.0280774310101,
      "lng": 14.364201711098,
      "sqm": 53,
      "rooms": 2,
      "address": "Benešova, Hlubočepy, Praha",
      "zone": "Hlubočepy",
      "url": "https://www.sreality.cz/detail/pronajem/byt/2+kk/praha-hlubocepy-benesova/4035436620",
      "listing_published_at": "2026-07-18",
      "listing_updated_at": "2026-07-18"
    },
    {
      "id": "sr_2375050060",
      "price": 19000,
      "lat": 50.06491942538304,
      "lng": 14.428226440125215,
      "sqm": 33,
      "rooms": 1,
      "address": "Jaromírova, Nusle, Praha",
      "zone": "Nusle",
      "url": "https://www.sreality.cz/detail/pronajem/byt/1+kk/praha-nusle-jaromirova/2375050060",
      "listing_published_at": "2026-02-24",
      "listing_updated_at": "2026-07-17"
    },
    {
      "id": "sr_3439149900",
      "price": 22000,
      "lat": 50.08602288986637,
      "lng": 14.450561243538786,
      "sqm": 34,
      "rooms": 1,
      "address": "Cimburkova, Žižkov, Praha",
      "zone": "Žižkov",
      "url": "https://www.sreality.cz/detail/pronajem/byt/1+kk/praha-zizkov-cimburkova/3439149900",
      "listing_published_at": "2026-03-24",
      "listing_updated_at": "2026-07-17"
    },
    {
      "id": "sr_4186828876",
      "price": 21000,
      "lat": 50.08602288986637,
      "lng": 14.450561243538786,
      "sqm": 29,
      "rooms": 1,
      "address": "Cimburkova, Žižkov, Praha",
      "zone": "Žižkov",
      "url": "https://www.sreality.cz/detail/pronajem/byt/1+kk/praha-zizkov-cimburkova/4186828876",
      "listing_published_at": "2026-06-20",
      "listing_updated_at": "2026-07-17"
    },
    {
      "id": "sr_2844651596",
      "price": 24500,
      "lat": 50.07278546529155,
      "lng": 14.393012557895005,
      "sqm": 46,
      "rooms": 2,
      "address": "Grafická, Smíchov, Praha",
      "zone": "Smíchov",
      "url": "https://www.sreality.cz/detail/pronajem/byt/2+kk/praha-smichov-graficka/2844651596",
      "listing_published_at": "2026-06-20",
      "listing_updated_at": "2026-07-17"
    },
    {
      "id": "sr_1502474316",
      "price": 19000,
      "lat": 50.06491942538304,
      "lng": 14.428226440125215,
      "sqm": 29,
      "rooms": 1,
      "address": "Jaromírova, Nusle, Praha",
      "zone": "Nusle",
      "url": "https://www.sreality.cz/detail/pronajem/byt/1+kk/praha-nusle-jaromirova/1502474316",
      "listing_published_at": "2026-06-20",
      "listing_updated_at": "2026-07-17"
    },
    {
      "id": "sr_965603404",
      "price": 20000,
      "lat": 50.06491942538304,
      "lng": 14.428226440125215,
      "sqm": 26,
      "rooms": 1,
      "address": "Jaromírova, Nusle, Praha",
      "zone": "Nusle",
      "url": "https://www.sreality.cz/detail/pronajem/byt/1+kk/praha-nusle-jaromirova/965603404",
      "listing_published_at": "2026-06-20",
      "listing_updated_at": "2026-07-17"
    },
    {
      "id": "sr_2559438924",
      "price": 25000,
      "lat": 50.06491942538304,
      "lng": 14.428226440125215,
      "sqm": 43,
      "rooms": 2,
      "address": "Jaromírova, Nusle, Praha",
      "zone": "Nusle",
      "url": "https://www.sreality.cz/detail/pronajem/byt/2+kk/praha-nusle-jaromirova/2559438924",
      "listing_published_at": "2026-06-20",
      "listing_updated_at": "2026-07-17"
    },
    {
      "id": "sr_3155837772",
      "price": 60500,
      "lat": 50.1048473946334,
      "lng": 14.4881546620466,
      "sqm": 107,
      "rooms": 4,
      "address": "Kurta Konráda, Libeň, Praha",
      "zone": "Libeň",
      "url": "https://www.sreality.cz/detail/pronajem/byt/4+kk/praha-liben-kurta-konrada/3155837772",
      "listing_published_at": "2026-03-19",
      "listing_updated_at": "2026-07-17"
    },
    {
      "id": "sr_1570148428",
      "price": 21000,
      "lat": 50.0523391131208,
      "lng": 14.3642866434671,
      "sqm": 43,
      "rooms": 2,
      "address": "K rovinám, Jinonice, Praha",
      "zone": "Jinonice",
      "url": "https://www.sreality.cz/detail/pronajem/byt/2+kk/praha-jinonice-k-rovinam/1570148428",
      "listing_published_at": "2026-05-23",
      "listing_updated_at": "2026-07-17"
    },
    {
      "id": "sr_1863442508",
      "price": 30000,
      "lat": 50.086019,
      "lng": 14.453526,
      "sqm": 72,
      "rooms": 2,
      "address": "Prokopova, Žižkov, Praha",
      "zone": "Žižkov",
      "url": "https://www.sreality.cz/detail/pronajem/byt/2+kk/praha-zizkov-prokopova/1863442508",
      "listing_published_at": "2026-07-15",
      "listing_updated_at": "2026-07-17"
    },
    {
      "id": "sr_421584972",
      "price": 25000,
      "lat": 49.999447,
      "lng": 14.406604,
      "sqm": 63,
      "rooms": 2,
      "address": "Komořanská, Modřany, Praha",
      "zone": "Modřany",
      "url": "https://www.sreality.cz/detail/pronajem/byt/2+kk/praha-modrany-komoranska/421584972",
      "listing_published_at": "2026-07-16",
      "listing_updated_at": "2026-07-17"
    },
    {
      "id": "sr_374571084",
      "price": 21500,
      "lat": 50.0467338889,
      "lng": 14.4154202778,
      "sqm": 40,
      "rooms": 2,
      "address": "Dvorecké náměstí, Podolí, Praha",
      "zone": "Podolí",
      "url": "https://www.sreality.cz/detail/pronajem/byt/2+kk/praha-podoli-dvorecke-namesti/374571084",
      "listing_published_at": "2026-06-03",
      "listing_updated_at": "2026-07-17"
    },
    {
      "id": "sr_2578747468",
      "price": 20000,
      "lat": 50.0210494460877,
      "lng": 14.4109135683779,
      "sqm": 41,
      "rooms": 2,
      "address": "Pod Lysinami, Hodkovičky, Praha",
      "zone": "Hodkovičky",
      "url": "https://www.sreality.cz/detail/pronajem/byt/2+kk/praha-hodkovicky-pod-lysinami/2578747468",
      "listing_published_at": "2026-05-26",
      "listing_updated_at": "2026-07-17"
    },
    {
      "id": "sr_515366988",
      "price": 16500,
      "lat": 50.142651,
      "lng": 14.523547,
      "sqm": 30,
      "rooms": 1,
      "address": "Hlučkova, Letňany, Praha",
      "zone": "Letňany",
      "url": "https://www.sreality.cz/detail/pronajem/byt/1+kk/praha-letnany-hluckova/515366988",
      "listing_published_at": "2026-07-17",
      "listing_updated_at": "2026-07-17"
    },
    {
      "id": "sr_4021805132",
      "price": 30000,
      "lat": 50.077172,
      "lng": 14.407058,
      "sqm": 76,
      "rooms": 3,
      "address": "Zborovská, Smíchov, Praha",
      "zone": "Smíchov",
      "url": "https://www.sreality.cz/detail/pronajem/byt/3+kk/praha-smichov-zborovska/4021805132",
      "listing_published_at": "2026-07-17",
      "listing_updated_at": "2026-07-18"
    },
    {
      "id": "sr_733868108",
      "price": 40000,
      "lat": 50.0894577187,
      "lng": 14.4033478765866,
      "sqm": 85,
      "rooms": 3,
      "address": "Sněmovní, Malá Strana, Praha",
      "zone": "Malá Strana",
      "url": "https://www.sreality.cz/detail/pronajem/byt/3+1/praha-mala-strana-snemovni/733868108",
      "listing_published_at": "2026-06-19",
      "listing_updated_at": "2026-07-17"
    },
    {
      "id": "sr_3570856012",
      "price": 33000,
      "lat": 50.0754954304,
      "lng": 14.4501650365,
      "sqm": 56,
      "rooms": 2,
      "address": "Korunní, Vinohrady, Praha",
      "zone": "Vinohrady",
      "url": "https://www.sreality.cz/detail/pronajem/byt/2+kk/praha-vinohrady-korunni/3570856012",
      "listing_published_at": "2026-06-29",
      "listing_updated_at": "2026-07-17"
    },
    {
      "id": "sr_2819522636",
      "price": 42000,
      "lat": 50.079406,
      "lng": 14.40794,
      "sqm": 83,
      "rooms": 3,
      "address": "Janáčkovo nábřeží, Smíchov, Praha",
      "zone": "Smíchov",
      "url": "https://www.sreality.cz/detail/pronajem/byt/3+kk/praha-smichov-janackovo-nabrezi/2819522636",
      "listing_published_at": "2026-06-01",
      "listing_updated_at": "2026-07-17"
    },
    {
      "id": "sr_2685837388",
      "price": 41000,
      "lat": 50.077522,
      "lng": 14.418634,
      "sqm": 81,
      "rooms": 3,
      "address": "Odborů, Nové Město, Praha",
      "zone": "Nové Město",
      "url": "https://www.sreality.cz/detail/pronajem/byt/3+1/praha-nove-mesto-odboru/2685837388",
      "listing_published_at": "2026-05-05",
      "listing_updated_at": "2026-07-17"
    },
    {
      "id": "sr_4280344652",
      "price": 45000,
      "lat": 50.0638890298362,
      "lng": 14.3828982523542,
      "sqm": 93,
      "rooms": 3,
      "address": "Česká, Košíře, Praha",
      "zone": "Košíře",
      "url": "https://www.sreality.cz/detail/pronajem/byt/3+kk/praha-kosire-ceska/4280344652",
      "listing_published_at": "2026-07-16",
      "listing_updated_at": "2026-07-17"
    },
    {
      "id": "sr_2670915660",
      "price": 28000,
      "lat": 50.089747,
      "lng": 14.433444,
      "sqm": 69,
      "rooms": 2,
      "address": "Na Poříčí, Nové Město, Praha",
      "zone": "Nové Město",
      "url": "https://www.sreality.cz/detail/pronajem/byt/2+kk/praha-nove-mesto-na-porici/2670915660",
      "listing_published_at": "2026-06-23",
      "listing_updated_at": "2026-07-17"
    },
    {
      "id": "sr_1333981260",
      "price": 33693.36,
      "lat": 50.0789804670077,
      "lng": 14.4499923205764,
      "sqm": 50,
      "rooms": 2,
      "address": "Laubova, Vinohrady, Praha",
      "zone": "Vinohrady",
      "url": "https://www.sreality.cz/detail/pronajem/byt/2+kk/praha-vinohrady-laubova/1333981260",
      "listing_published_at": "2026-06-24",
      "listing_updated_at": "2026-07-17"
    },
    {
      "id": "sr_112914508",
      "price": 40000,
      "lat": 50.1136246239976,
      "lng": 14.4662408979871,
      "sqm": 73,
      "rooms": 3,
      "address": "Krejčího, Libeň, Praha",
      "zone": "Libeň",
      "url": "https://www.sreality.cz/detail/pronajem/byt/3+kk/praha-liben-krejciho/112914508",
      "listing_published_at": "2026-06-15",
      "listing_updated_at": "2026-07-17"
    },
    {
      "id": "sr_1743515724",
      "price": 28000,
      "lat": 50.0616787610938,
      "lng": 14.4513356021327,
      "sqm": 57,
      "rooms": 2,
      "address": "Maroldova, Nusle, Praha",
      "zone": "Nusle",
      "url": "https://www.sreality.cz/detail/pronajem/byt/2+kk/praha-nusle-maroldova/1743515724",
      "listing_published_at": "2026-06-12",
      "listing_updated_at": "2026-07-17"
    },
    {
      "id": "sr_2925719628",
      "price": 34000,
      "lat": 50.0762876968393,
      "lng": 14.4519508356482,
      "sqm": 78,
      "rooms": 2,
      "address": "Slezská, Vinohrady, Praha",
      "zone": "Vinohrady",
      "url": "https://www.sreality.cz/detail/pronajem/byt/2+1/praha-vinohrady-slezska/2925719628",
      "listing_published_at": "2026-06-23",
      "listing_updated_at": "2026-07-17"
    },
    {
      "id": "sr_2622025804",
      "price": 32000,
      "lat": 50.0778351337029,
      "lng": 14.4414656435474,
      "sqm": 43,
      "rooms": 2,
      "address": "Mánesova, Vinohrady, Praha",
      "zone": "Vinohrady",
      "url": "https://www.sreality.cz/detail/pronajem/byt/2+kk/praha-vinohrady-manesova/2622025804",
      "listing_published_at": "2026-06-16",
      "listing_updated_at": "2026-07-17"
    },
    {
      "id": "sr_701534284",
      "price": 32500,
      "lat": 50.0830707070062,
      "lng": 14.4435002631361,
      "sqm": 59,
      "rooms": 2,
      "address": "U Rajské zahrady, Žižkov, Praha",
      "zone": "Žižkov",
      "url": "https://www.sreality.cz/detail/pronajem/byt/2+kk/praha-zizkov-u-rajske-zahrady/701534284",
      "listing_published_at": "2026-05-20",
      "listing_updated_at": "2026-07-17"
    },
    {
      "id": "sr_1410764876",
      "price": 42000,
      "lat": 50.0422205985843,
      "lng": 14.4313009999085,
      "sqm": 120,
      "rooms": 3,
      "address": "U družstva Práce, Braník, Praha",
      "zone": "Braník",
      "url": "https://www.sreality.cz/detail/pronajem/byt/3+1/praha-branik-u-druzstva-prace/1410764876",
      "listing_published_at": "2026-05-22",
      "listing_updated_at": "2026-07-17"
    },
    {
      "id": "sr_2243006540",
      "price": 31000,
      "lat": 50.0740522904377,
      "lng": 14.3568072808109,
      "sqm": 85,
      "rooms": 3,
      "address": "Lékařská, Motol, Praha",
      "zone": "Motol",
      "url": "https://www.sreality.cz/detail/pronajem/byt/3+kk/praha-motol-lekarska/2243006540",
      "listing_published_at": "2026-05-20",
      "listing_updated_at": "2026-07-17"
    },
    {
      "id": "sr_2613620812",
      "price": 41500,
      "lat": 50.0321095235223,
      "lng": 14.496846291875,
      "sqm": 129,
      "rooms": 4,
      "address": "Medkova, Chodov, Praha",
      "zone": "Chodov",
      "url": "https://www.sreality.cz/detail/pronajem/byt/4+1/praha-chodov-medkova/2613620812",
      "listing_published_at": "2026-04-09",
      "listing_updated_at": "2026-07-17"
    },
    {
      "id": "sr_1555972940",
      "price": 21000,
      "lat": 50.0422462806271,
      "lng": 14.3099193915402,
      "sqm": 41,
      "rooms": 1,
      "address": "Ujgurská, Stodůlky, Praha",
      "zone": "Stodůlky",
      "url": "https://www.sreality.cz/detail/pronajem/byt/1+kk/praha-stodulky-ujgurska/1555972940",
      "listing_published_at": "2026-03-24",
      "listing_updated_at": "2026-07-17"
    },
    {
      "id": "sr_2378056524",
      "price": 38000,
      "lat": 50.0422462806271,
      "lng": 14.3099193915402,
      "sqm": 68,
      "rooms": 3,
      "address": "Ujgurská, Stodůlky, Praha",
      "zone": "Stodůlky",
      "url": "https://www.sreality.cz/detail/pronajem/byt/3+kk/praha-stodulky-ujgurska/2378056524",
      "listing_published_at": "2026-03-24",
      "listing_updated_at": "2026-07-17"
    },
    {
      "id": "sr_3737485388",
      "price": 40000,
      "lat": 50.101592376373,
      "lng": 14.423476270767,
      "sqm": 109,
      "rooms": 3,
      "address": "Ovenecká, Bubeneč, Praha",
      "zone": "Bubeneč",
      "url": "https://www.sreality.cz/detail/pronajem/byt/3+kk/praha-bubenec-ovenecka/3737485388",
      "listing_published_at": "2026-06-10",
      "listing_updated_at": "2026-07-17"
    },
    {
      "id": "sr_2730549324",
      "price": 75000,
      "lat": 50.0767887692429,
      "lng": 14.4072660313115,
      "sqm": 154,
      "rooms": 4,
      "address": "Zborovská, Malá Strana, Praha",
      "zone": "Malá Strana",
      "url": "https://www.sreality.cz/detail/pronajem/byt/4+1/praha-mala-strana-zborovska/2730549324",
      "listing_published_at": "2026-07-16",
      "listing_updated_at": "2026-07-17"
    },
    {
      "id": "sr_438170444",
      "price": 27000,
      "lat": 50.0592319400701,
      "lng": 14.4256011054108,
      "sqm": 27,
      "rooms": 1,
      "address": "Na Topolce, Nusle, Praha",
      "zone": "Nusle",
      "url": "https://www.sreality.cz/detail/pronajem/byt/1+kk/praha-nusle-na-topolce/438170444",
      "listing_published_at": "2025-08-19",
      "listing_updated_at": "2026-07-17"
    },
    {
      "id": "sr_2262618956",
      "price": 50000,
      "lat": 50.0860624120387,
      "lng": 14.4325943463367,
      "sqm": 135,
      "rooms": 4,
      "address": "Senovážné náměstí, Nové Město, Praha",
      "zone": "Nové Město",
      "url": "https://www.sreality.cz/detail/pronajem/byt/4+kk/praha-nove-mesto-senovazne-namesti/2262618956",
      "listing_published_at": "2025-09-26",
      "listing_updated_at": "2026-07-17"
    },
    {
      "id": "sr_303539020",
      "price": 98000,
      "lat": 50.0966613560566,
      "lng": 14.386849512559,
      "sqm": 246,
      "rooms": null,
      "address": "Slunná, Střešovice, Praha",
      "zone": "Střešovice",
      "url": "https://www.sreality.cz/detail/pronajem/byt/6%20a%20v%C3%ADce/praha-stresovice-slunna/303539020",
      "listing_published_at": "2025-06-25",
      "listing_updated_at": "2026-07-17"
    },
    {
      "id": "sr_991777356",
      "price": 85000,
      "lat": 50.0810584476935,
      "lng": 14.4224205032109,
      "sqm": 117,
      "rooms": 3,
      "address": "Jungmannova, Nové Město, Praha",
      "zone": "Nové Město",
      "url": "https://www.sreality.cz/detail/pronajem/byt/3+1/praha-nove-mesto-jungmannova/991777356",
      "listing_published_at": "2025-04-25",
      "listing_updated_at": "2026-07-17"
    },
    {
      "id": "sr_634749004",
      "price": 35000,
      "lat": 50.1059640146062,
      "lng": 14.3893001699092,
      "sqm": 62,
      "rooms": 2,
      "address": "Bechyňova, Dejvice, Praha",
      "zone": "Dejvice",
      "url": "https://www.sreality.cz/detail/pronajem/byt/2+kk/praha-dejvice-bechynova/634749004",
      "listing_published_at": "2026-06-10",
      "listing_updated_at": "2026-07-17"
    },
    {
      "id": "sr_2116939852",
      "price": 40000,
      "lat": 50.0901137715244,
      "lng": 14.4042982594899,
      "sqm": 85,
      "rooms": 3,
      "address": "Sněmovní, Malá Strana, Praha",
      "zone": "Malá Strana",
      "url": "https://www.sreality.cz/detail/pronajem/byt/3+1/praha-mala-strana-snemovni/2116939852",
      "listing_published_at": "2026-06-19",
      "listing_updated_at": "2026-07-17"
    },
    {
      "id": "sr_672170060",
      "price": 45000,
      "lat": 50.0823157879241,
      "lng": 14.4504628424578,
      "sqm": 102,
      "rooms": 4,
      "address": "Kubelíkova, Žižkov, Praha",
      "zone": "Žižkov",
      "url": "https://www.sreality.cz/detail/pronajem/byt/4+kk/praha-zizkov-kubelikova/672170060",
      "listing_published_at": "2026-06-08",
      "listing_updated_at": "2026-07-17"
    },
    {
      "id": "sr_3302908748",
      "price": 60000,
      "lat": 50.0715324995159,
      "lng": 14.4141494350454,
      "sqm": 105,
      "rooms": 3,
      "address": "Rašínovo nábřeží, Nové Město, Praha",
      "zone": "Nové Město",
      "url": "https://www.sreality.cz/detail/pronajem/byt/3+1/praha-nove-mesto-rasinovo-nabrezi/3302908748",
      "listing_published_at": "2026-02-17",
      "listing_updated_at": "2026-07-17"
    },
    {
      "id": "sr_1040982860",
      "price": 49208.765,
      "lat": 50.0784970034736,
      "lng": 14.4501973953258,
      "sqm": 60,
      "rooms": 2,
      "address": "náměstí Jiřího z Poděbrad, Vinohrady, Praha",
      "zone": "Vinohrady",
      "url": "https://www.sreality.cz/detail/pronajem/byt/2+kk/praha-vinohrady-namesti-jiriho-z-podebrad/1040982860",
      "listing_published_at": "2025-11-20",
      "listing_updated_at": "2026-07-17"
    },
    {
      "id": "sr_3535577164",
      "price": 29385,
      "lat": 50.0787329973142,
      "lng": 14.4253690800295,
      "sqm": 71,
      "rooms": 2,
      "address": "Štěpánská, Nové Město, Praha",
      "zone": "Nové Město",
      "url": "https://www.sreality.cz/detail/pronajem/byt/2+kk/praha-nove-mesto-stepanska/3535577164",
      "listing_published_at": "2026-04-29",
      "listing_updated_at": "2026-07-17"
    },
    {
      "id": "sr_367296588",
      "price": 69000,
      "lat": 50.0784445033561,
      "lng": 14.4433796928131,
      "sqm": 117,
      "rooms": 3,
      "address": "Polská, Vinohrady, Praha",
      "zone": "Vinohrady",
      "url": "https://www.sreality.cz/detail/pronajem/byt/3+kk/praha-vinohrady-polska/367296588",
      "listing_published_at": "2026-06-11",
      "listing_updated_at": "2026-07-17"
    },
    {
      "id": "sr_1919856716",
      "price": 100000,
      "lat": 50.0764397344058,
      "lng": 14.4367531860047,
      "sqm": 255,
      "rooms": null,
      "address": "Ibsenova, Vinohrady, Praha",
      "zone": "Vinohrady",
      "url": "https://www.sreality.cz/detail/pronajem/byt/6%20a%20v%C3%ADce/praha-vinohrady-ibsenova/1919856716",
      "listing_published_at": "2026-04-10",
      "listing_updated_at": "2026-07-17"
    },
    {
      "id": "sr_2393342028",
      "price": 55000,
      "lat": 50.07352089993,
      "lng": 14.4544675041548,
      "sqm": 120,
      "rooms": 4,
      "address": "Hradešínská, Vinohrady, Praha",
      "zone": "Vinohrady",
      "url": "https://www.sreality.cz/detail/pronajem/byt/4+1/praha-vinohrady-hradesinska/2393342028",
      "listing_published_at": "2026-06-09",
      "listing_updated_at": "2026-07-17"
    },
    {
      "id": "sr_1843020620",
      "price": 101467.35999999999,
      "lat": 50.0789804670077,
      "lng": 14.4499923205764,
      "sqm": 137,
      "rooms": 4,
      "address": "Laubova, Vinohrady, Praha",
      "zone": "Vinohrady",
      "url": "https://www.sreality.cz/detail/pronajem/byt/4+kk/praha-vinohrady-laubova/1843020620",
      "listing_published_at": "2026-03-19",
      "listing_updated_at": "2026-07-17"
    },
    {
      "id": "sr_2222101068",
      "price": 41148.5,
      "lat": 50.0904784407198,
      "lng": 14.4299666314187,
      "sqm": 79,
      "rooms": 3,
      "address": "Truhlářská, Nové Město, Praha",
      "zone": "Nové Město",
      "url": "https://www.sreality.cz/detail/pronajem/byt/3+kk/praha-nove-mesto-truhlarska/2222101068",
      "listing_published_at": "2024-08-27",
      "listing_updated_at": "2026-07-17"
    },
    {
      "id": "sr_2072375372",
      "price": 85000,
      "lat": 50.0784445033561,
      "lng": 14.4433796928131,
      "sqm": 138,
      "rooms": 3,
      "address": "Polská, Vinohrady, Praha",
      "zone": "Vinohrady",
      "url": "https://www.sreality.cz/detail/pronajem/byt/3+kk/praha-vinohrady-polska/2072375372",
      "listing_published_at": "2026-06-30",
      "listing_updated_at": "2026-07-17"
    },
    {
      "id": "sr_4091167564",
      "price": 103548.98999999999,
      "lat": 50.0784970034736,
      "lng": 14.4501973953258,
      "sqm": 118,
      "rooms": 4,
      "address": "náměstí Jiřího z Poděbrad, Vinohrady, Praha",
      "zone": "Vinohrady",
      "url": "https://www.sreality.cz/detail/pronajem/byt/4+kk/praha-vinohrady-namesti-jiriho-z-podebrad/4091167564",
      "listing_published_at": "2026-03-19",
      "listing_updated_at": "2026-07-17"
    },
    {
      "id": "sr_3431097164",
      "price": 50000,
      "lat": 50.089747,
      "lng": 14.433444,
      "sqm": 144,
      "rooms": 4,
      "address": "Na Poříčí, Nové Město, Praha",
      "zone": "Nové Město",
      "url": "https://www.sreality.cz/detail/pronajem/byt/4+kk/praha-nove-mesto-na-porici/3431097164",
      "listing_published_at": "2026-02-23",
      "listing_updated_at": "2026-07-17"
    },
    {
      "id": "sr_437448780",
      "price": 49000,
      "lat": 50.0782011629084,
      "lng": 14.4347524025003,
      "sqm": 134,
      "rooms": 3,
      "address": "Balbínova, Vinohrady, Praha",
      "zone": "Vinohrady",
      "url": "https://www.sreality.cz/detail/pronajem/byt/3+1/praha-vinohrady-balbinova/437448780",
      "listing_published_at": "2026-06-23",
      "listing_updated_at": "2026-07-17"
    },
    {
      "id": "sr_161869900",
      "price": 38728,
      "lat": 50.0904784407198,
      "lng": 14.4299666314187,
      "sqm": 76,
      "rooms": 3,
      "address": "Truhlářská, Nové Město, Praha",
      "zone": "Nové Město",
      "url": "https://www.sreality.cz/detail/pronajem/byt/3+kk/praha-nove-mesto-truhlarska/161869900",
      "listing_published_at": "2026-06-30",
      "listing_updated_at": "2026-07-17"
    },
    {
      "id": "sr_2435253580",
      "price": 35000,
      "lat": 50.0701252465555,
      "lng": 14.4569655139407,
      "sqm": 43,
      "rooms": 2,
      "address": "Žitomírská, Vršovice, Praha",
      "zone": "Vršovice",
      "url": "https://www.sreality.cz/detail/pronajem/byt/2+kk/praha-vrsovice-zitomirska/2435253580",
      "listing_published_at": "2024-04-16",
      "listing_updated_at": "2026-07-17"
    },
    {
      "id": "sr_946724940",
      "price": 41000,
      "lat": 50.0775996487556,
      "lng": 14.418645679859,
      "sqm": 81,
      "rooms": 3,
      "address": "Odborů, Nové Město, Praha",
      "zone": "Nové Město",
      "url": "https://www.sreality.cz/detail/pronajem/byt/3+1/praha-nove-mesto-odboru/946724940",
      "listing_published_at": "2026-07-09",
      "listing_updated_at": "2026-07-17"
    },
    {
      "id": "sr_246768460",
      "price": 18700,
      "lat": 50.0716261135368,
      "lng": 14.4360938490476,
      "sqm": 28,
      "rooms": 1,
      "address": "Záhřebská, Vinohrady, Praha",
      "zone": "Vinohrady",
      "url": "https://www.sreality.cz/detail/pronajem/byt/1+kk/praha-vinohrady-zahrebska/246768460",
      "listing_published_at": "2026-02-27",
      "listing_updated_at": "2026-07-17"
    },
    {
      "id": "sr_3767312460",
      "price": 17900,
      "lat": 50.0691966241,
      "lng": 14.343893927,
      "sqm": 46,
      "rooms": 1,
      "address": "Zahradníčkova, Košíře, Praha",
      "zone": "Košíře",
      "url": "https://www.sreality.cz/detail/pronajem/byt/1+kk/praha-kosire-zahradnickova/3767312460",
      "listing_published_at": "2026-04-29",
      "listing_updated_at": "2026-07-17"
    },
    {
      "id": "sr_2429321292",
      "price": 19900,
      "lat": 50.0582650142018,
      "lng": 14.5419863987282,
      "sqm": 42,
      "rooms": 2,
      "address": "Arnošta Staňka, Hostivař, Praha",
      "zone": "Hostivař",
      "url": "https://www.sreality.cz/detail/pronajem/byt/2+kk/praha-hostivar-arnosta-stanka/2429321292",
      "listing_published_at": "2026-06-03",
      "listing_updated_at": "2026-07-17"
    },
    {
      "id": "sr_97558604",
      "price": 29900,
      "lat": 49.9997281520148,
      "lng": 14.4081048625552,
      "sqm": 71,
      "rooms": 2,
      "address": "K Vystrkovu, Modřany, Praha",
      "zone": "Modřany",
      "url": "https://www.sreality.cz/detail/pronajem/byt/2+kk/praha-modrany-k-vystrkovu/97558604",
      "listing_published_at": "2026-05-04",
      "listing_updated_at": "2026-07-17"
    },
    {
      "id": "sr_2230317132",
      "price": 20900,
      "lat": 50.037949,
      "lng": 14.410943,
      "sqm": 52,
      "rooms": 2,
      "address": "Nad přívozem, Braník, Praha",
      "zone": "Braník",
      "url": "https://www.sreality.cz/detail/pronajem/byt/2+1/praha-branik-nad-privozem/2230317132",
      "listing_published_at": "2026-06-17",
      "listing_updated_at": "2026-07-17"
    },
    {
      "id": "sr_1322643532",
      "price": 34900,
      "lat": 50.0327447907599,
      "lng": 14.5400101382091,
      "sqm": 77,
      "rooms": 3,
      "address": "Sochorcova, Háje, Praha",
      "zone": "Háje",
      "url": "https://www.sreality.cz/detail/pronajem/byt/3+kk/praha-haje-sochorcova/1322643532",
      "listing_published_at": "2026-06-30",
      "listing_updated_at": "2026-07-17"
    },
    {
      "id": "sr_1608773708",
      "price": 19900,
      "lat": 50.0449624879667,
      "lng": 14.4903805296874,
      "sqm": 55,
      "rooms": 2,
      "address": "Struhařovská, Záběhlice, Praha",
      "zone": "Záběhlice",
      "url": "https://www.sreality.cz/detail/pronajem/byt/2+1/praha-zabehlice-struharovska/1608773708",
      "listing_published_at": "2026-06-22",
      "listing_updated_at": "2026-07-17"
    },
    {
      "id": "sr_1328345164",
      "price": 20400,
      "lat": 50.0443845002344,
      "lng": 14.4243552766765,
      "sqm": 57,
      "rooms": 2,
      "address": "Dvorecká, Podolí, Praha",
      "zone": "Podolí",
      "url": "https://www.sreality.cz/detail/pronajem/byt/2+1/praha-podoli-dvorecka/1328345164",
      "listing_published_at": "2026-06-21",
      "listing_updated_at": "2026-07-17"
    },
    {
      "id": "sr_539615308",
      "price": 22900,
      "lat": 50.0138867657406,
      "lng": 14.4419895940572,
      "sqm": 53,
      "rooms": 2,
      "address": "Cihlářova, Kamýk, Praha",
      "zone": "Kamýk",
      "url": "https://www.sreality.cz/detail/pronajem/byt/2+1/praha-kamyk-cihlarova/539615308",
      "listing_published_at": "2026-07-04",
      "listing_updated_at": "2026-07-17"
    },
    {
      "id": "sr_1815797836",
      "price": 39900,
      "lat": 50.006672816361,
      "lng": 14.4533104275833,
      "sqm": 90,
      "rooms": 4,
      "address": "Zimova, Kamýk, Praha",
      "zone": "Kamýk",
      "url": "https://www.sreality.cz/detail/pronajem/byt/4+kk/praha-kamyk-zimova/1815797836",
      "listing_published_at": "2026-07-03",
      "listing_updated_at": "2026-07-17"
    },
    {
      "id": "sr_903077964",
      "price": 21400,
      "lat": 50.0678687616138,
      "lng": 14.3390862604035,
      "sqm": 29,
      "rooms": 1,
      "address": "Plzeňská, Smíchov, Praha",
      "zone": "Smíchov",
      "url": "https://www.sreality.cz/detail/pronajem/byt/1+kk/praha-smichov-plzenska/903077964",
      "listing_published_at": "2026-07-13",
      "listing_updated_at": "2026-07-17"
    },
    {
      "id": "sr_1816784972",
      "price": 28900,
      "lat": 49.9725327999679,
      "lng": 14.3856097743263,
      "sqm": 78,
      "rooms": 3,
      "address": "Romana Blahníka, Zbraslav, Praha",
      "zone": "Zbraslav",
      "url": "https://www.sreality.cz/detail/pronajem/byt/3+kk/praha-zbraslav-romana-blahnika/1816784972",
      "listing_published_at": "2026-06-15",
      "listing_updated_at": "2026-07-17"
    },
    {
      "id": "sr_2144198732",
      "price": 35000,
      "lat": 50.0730031636,
      "lng": 14.4097919773,
      "sqm": 83,
      "rooms": 3,
      "address": "Janáčkovo nábřeží, Smíchov, Praha",
      "zone": "Smíchov",
      "url": "https://www.sreality.cz/detail/pronajem/byt/3+kk/praha-smichov-janackovo-nabrezi/2144198732",
      "listing_published_at": "2026-07-10",
      "listing_updated_at": "2026-07-17"
    },
    {
      "id": "sr_544071756",
      "price": 21000,
      "lat": 50.0773221339,
      "lng": 14.4029252462,
      "sqm": 38,
      "rooms": 1,
      "address": "Kroftova, Smíchov, Praha",
      "zone": "Smíchov",
      "url": "https://www.sreality.cz/detail/pronajem/byt/1+kk/praha-smichov-kroftova/544071756",
      "listing_published_at": "2026-07-09",
      "listing_updated_at": "2026-07-17"
    },
    {
      "id": "sr_127131724",
      "price": 15800,
      "lat": 50.05416,
      "lng": 14.437584,
      "sqm": 35,
      "rooms": 1,
      "address": "Na Veselí, Nusle, Praha",
      "zone": "Nusle",
      "url": "https://www.sreality.cz/detail/pronajem/byt/1+1/praha-nusle-na-veseli/127131724",
      "listing_published_at": "2026-07-14",
      "listing_updated_at": "2026-07-17"
    },
    {
      "id": "sr_2951254092",
      "price": 75000,
      "lat": 50.092273,
      "lng": 14.372081,
      "sqm": 108,
      "rooms": 3,
      "address": "Pod bateriemi, Střešovice, Praha",
      "zone": "Střešovice",
      "url": "https://www.sreality.cz/detail/pronajem/byt/3+kk/praha-stresovice-pod-bateriemi/2951254092",
      "listing_published_at": "2026-05-12",
      "listing_updated_at": "2026-07-17"
    },
    {
      "id": "sr_1558966348",
      "price": 70000,
      "lat": 50.0788365731,
      "lng": 14.4466252414,
      "sqm": 99,
      "rooms": 4,
      "address": "Polská, Vinohrady, Praha",
      "zone": "Vinohrady",
      "url": "https://www.sreality.cz/detail/pronajem/byt/4+kk/praha-vinohrady-polska/1558966348",
      "listing_published_at": "2026-06-12",
      "listing_updated_at": "2026-07-17"
    },
    {
      "id": "sr_95936588",
      "price": 23000,
      "lat": 50.023215,
      "lng": 14.4930577,
      "sqm": 84,
      "rooms": 3,
      "address": "Láskova, Chodov, Praha",
      "zone": "Chodov",
      "url": "https://www.sreality.cz/detail/pronajem/byt/3+1/praha-chodov-laskova/95936588",
      "listing_published_at": "2026-07-17",
      "listing_updated_at": "2026-07-17"
    },
    {
      "id": "sr_2259480652",
      "price": 29000,
      "lat": 50.101137668343114,
      "lng": 14.433239689617618,
      "sqm": 70,
      "rooms": 2,
      "address": "Dukelských hrdinů, Holešovice, Praha",
      "zone": "Holešovice",
      "url": "https://www.sreality.cz/detail/pronajem/byt/2+1/praha-holesovice-dukelskych-hrdinu/2259480652",
      "listing_published_at": "2026-06-22",
      "listing_updated_at": "2026-07-17"
    },
    {
      "id": "sr_1227387724",
      "price": 45000,
      "lat": 50.0738601,
      "lng": 14.3942731,
      "sqm": 71,
      "rooms": 2,
      "address": "Holečkova, Praha 5, Praha",
      "zone": "Praha 5",
      "url": "https://www.sreality.cz/detail/pronajem/byt/2+kk/praha-praha-5-holeckova/1227387724",
      "listing_published_at": "2026-01-27",
      "listing_updated_at": "2026-07-17"
    },
    {
      "id": "sr_1017180236",
      "price": 26000,
      "lat": 50.1416399592,
      "lng": 14.4315450439,
      "sqm": 80,
      "rooms": 3,
      "address": "Křivenická, Čimice, Praha",
      "zone": "Čimice",
      "url": "https://www.sreality.cz/detail/pronajem/byt/3+kk/praha-cimice-krivenicka/1017180236",
      "listing_published_at": "2026-06-25",
      "listing_updated_at": "2026-07-17"
    },
    {
      "id": "sr_4139294796",
      "price": 23000,
      "lat": 50.0556262141553,
      "lng": 14.3827696619867,
      "sqm": 45,
      "rooms": 2,
      "address": "U Komína, Radlice, Praha",
      "zone": "Radlice",
      "url": "https://www.sreality.cz/detail/pronajem/byt/2+kk/praha-radlice-u-komina/4139294796",
      "listing_published_at": "2026-04-25",
      "listing_updated_at": "2026-07-17"
    },
    {
      "id": "sr_1789386828",
      "price": 13000,
      "lat": 50.1629455556,
      "lng": 14.4834963889,
      "sqm": 30,
      "rooms": 1,
      "address": "Na hlavní, Březiněves, Praha",
      "zone": "Březiněves",
      "url": "https://www.sreality.cz/detail/pronajem/byt/1+kk/praha-brezineves-na-hlavni/1789386828",
      "listing_published_at": "2026-07-17",
      "listing_updated_at": "2026-07-17"
    },
    {
      "id": "sr_4047663948",
      "price": 175000,
      "lat": 50.068352455,
      "lng": 14.4150254011,
      "sqm": 187,
      "rooms": 4,
      "address": "Rašínovo nábřeží, Nové Město, Praha",
      "zone": "Nové Město",
      "url": "https://www.sreality.cz/detail/pronajem/byt/4+kk/praha-nove-mesto-rasinovo-nabrezi/4047663948",
      "listing_published_at": "2026-02-03",
      "listing_updated_at": "2026-07-17"
    },
    {
      "id": "sr_3451162700",
      "price": 53372,
      "lat": 50.0899915213,
      "lng": 14.4289165618,
      "sqm": 120,
      "rooms": 4,
      "address": "Truhlářská, Nové Město, Praha",
      "zone": "Nové Město",
      "url": "https://www.sreality.cz/detail/pronajem/byt/4+kk/praha-nove-mesto-truhlarska/3451162700",
      "listing_published_at": "2026-05-26",
      "listing_updated_at": "2026-07-17"
    },
    {
      "id": "sr_1857876044",
      "price": 29500,
      "lat": 50.0486413705,
      "lng": 14.4329576328,
      "sqm": 70,
      "rooms": 2,
      "address": "Milevská, Podolí, Praha",
      "zone": "Podolí",
      "url": "https://www.sreality.cz/detail/pronajem/byt/2+kk/praha-podoli-milevska/1857876044",
      "listing_published_at": "2026-06-22",
      "listing_updated_at": "2026-07-17"
    },
    {
      "id": "sr_3367034956",
      "price": 34000,
      "lat": 50.12615787966079,
      "lng": 14.447540931833203,
      "sqm": 90,
      "rooms": 3,
      "address": "Přemyšlenská, Kobylisy, Praha",
      "zone": "Kobylisy",
      "url": "https://www.sreality.cz/detail/pronajem/byt/3+1/praha-kobylisy-premyslenska/3367034956",
      "listing_published_at": "2026-07-16",
      "listing_updated_at": "2026-07-17"
    },
    {
      "id": "sr_3114786892",
      "price": 43000,
      "lat": 50.102978321658824,
      "lng": 14.419219567615004,
      "sqm": 110,
      "rooms": 3,
      "address": "Nad Královskou oborou, Bubeneč, Praha",
      "zone": "Bubeneč",
      "url": "https://www.sreality.cz/detail/pronajem/byt/3+1/praha-bubenec-nad-kralovskou-oborou/3114786892",
      "listing_published_at": "2026-07-17",
      "listing_updated_at": "2026-07-17"
    },
    {
      "id": "sr_249274444",
      "price": 35000,
      "lat": 50.0959516,
      "lng": 14.4525146,
      "sqm": 65,
      "rooms": 2,
      "address": "U Mlýnského kanálu, Karlín, Praha",
      "zone": "Karlín",
      "url": "https://www.sreality.cz/detail/pronajem/byt/2+kk/praha-karlin-u-mlynskeho-kanalu/249274444",
      "listing_published_at": "2026-04-22",
      "listing_updated_at": "2026-07-17"
    },
    {
      "id": "sr_1116659788",
      "price": 40000,
      "lat": 50.0893824622,
      "lng": 14.4034661719,
      "sqm": 85,
      "rooms": 3,
      "address": "Sněmovní, Malá Strana, Praha",
      "zone": "Malá Strana",
      "url": "https://www.sreality.cz/detail/pronajem/byt/3+1/praha-mala-strana-snemovni/1116659788",
      "listing_published_at": "2026-07-09",
      "listing_updated_at": "2026-07-17"
    },
    {
      "id": "sr_509444172",
      "price": 24000,
      "lat": 50.08055679969576,
      "lng": 14.452493161875777,
      "sqm": 50,
      "rooms": 2,
      "address": "Ondříčkova, Praha",
      "zone": "Ondříčkova",
      "url": "https://www.sreality.cz/detail/pronajem/byt/2+kk/praha-ondrickova/509444172",
      "listing_published_at": "2026-06-02",
      "listing_updated_at": "2026-07-17"
    },
    {
      "id": "sr_1319624780",
      "price": 26000,
      "lat": 50.1079421144633,
      "lng": 14.4865583238035,
      "sqm": 76,
      "rooms": 3,
      "address": "Kovanecká, Libeň, Praha",
      "zone": "Libeň",
      "url": "https://www.sreality.cz/detail/pronajem/byt/3+1/praha-liben-kovanecka/1319624780",
      "listing_published_at": "2026-07-17",
      "listing_updated_at": "2026-07-17"
    },
    {
      "id": "sr_2315161676",
      "price": 28000,
      "lat": 50.093838,
      "lng": 14.488695,
      "sqm": 68,
      "rooms": 3,
      "address": "Na vrcholu, Žižkov, Praha",
      "zone": "Žižkov",
      "url": "https://www.sreality.cz/detail/pronajem/byt/3+1/praha-zizkov-na-vrcholu/2315161676",
      "listing_published_at": "2026-05-14",
      "listing_updated_at": "2026-07-17"
    },
    {
      "id": "sr_460779596",
      "price": 21900,
      "lat": 50.0696479682202,
      "lng": 14.3824016257832,
      "sqm": 48,
      "rooms": 2,
      "address": "Vrchlického, Košíře, Praha",
      "zone": "Košíře",
      "url": "https://www.sreality.cz/detail/pronajem/byt/2+kk/praha-kosire-vrchlickeho/460779596",
      "listing_published_at": "2026-06-28",
      "listing_updated_at": "2026-07-17"
    },
    {
      "id": "sr_1786155084",
      "price": 32000,
      "lat": 50.0727723,
      "lng": 14.4379609,
      "sqm": 58,
      "rooms": 2,
      "address": "Americká, Vinohrady, Praha",
      "zone": "Vinohrady",
      "url": "https://www.sreality.cz/detail/pronajem/byt/2+1/praha-vinohrady-americka/1786155084",
      "listing_published_at": "2026-05-22",
      "listing_updated_at": "2026-07-17"
    },
    {
      "id": "sr_199090252",
      "price": 46500,
      "lat": 50.0992821048,
      "lng": 14.4688838805,
      "sqm": 53,
      "rooms": 2,
      "address": "Sokolovská, Karlín, Praha",
      "zone": "Karlín",
      "url": "https://www.sreality.cz/detail/pronajem/byt/2+kk/praha-karlin-sokolovska/199090252",
      "listing_published_at": "2026-07-10",
      "listing_updated_at": "2026-07-17"
    },
    {
      "id": "sr_1956085836",
      "price": 70500,
      "lat": 50.0992821048,
      "lng": 14.4688838805,
      "sqm": 93,
      "rooms": 3,
      "address": "Sokolovská, Karlín, Praha",
      "zone": "Karlín",
      "url": "https://www.sreality.cz/detail/pronajem/byt/3+kk/praha-karlin-sokolovska/1956085836",
      "listing_published_at": "2026-06-09",
      "listing_updated_at": "2026-07-17"
    },
    {
      "id": "sr_2920407116",
      "price": 38500,
      "lat": 50.0992821048,
      "lng": 14.4688838805,
      "sqm": 47,
      "rooms": 2,
      "address": "Sokolovská, Karlín, Praha",
      "zone": "Karlín",
      "url": "https://www.sreality.cz/detail/pronajem/byt/2+kk/praha-karlin-sokolovska/2920407116",
      "listing_published_at": "2026-07-15",
      "listing_updated_at": "2026-07-17"
    },
    {
      "id": "sr_4071088204",
      "price": 19000,
      "lat": 50.1130939237,
      "lng": 14.5611814875,
      "sqm": 58,
      "rooms": 2,
      "address": "Jamská, Kyje, Praha",
      "zone": "Kyje",
      "url": "https://www.sreality.cz/detail/pronajem/byt/2+kk/praha-kyje-jamska/4071088204",
      "listing_published_at": "2026-07-17",
      "listing_updated_at": "2026-07-17"
    },
    {
      "id": "sr_1117294668",
      "price": 24000,
      "lat": 50.0321095235223,
      "lng": 14.496846291875,
      "sqm": 51,
      "rooms": 2,
      "address": "Medkova, Chodov, Praha",
      "zone": "Chodov",
      "url": "https://www.sreality.cz/detail/pronajem/byt/2+kk/praha-chodov-medkova/1117294668",
      "listing_published_at": "2026-05-12",
      "listing_updated_at": "2026-07-17"
    },
    {
      "id": "sr_138953548",
      "price": 104800,
      "lat": 50.0786564092,
      "lng": 14.4509534869,
      "sqm": 118,
      "rooms": 4,
      "address": "náměstí Jiřího z Poděbrad, Vinohrady, Praha",
      "zone": "Vinohrady",
      "url": "https://www.sreality.cz/detail/pronajem/byt/4+kk/praha-vinohrady-namesti-jiriho-z-podebrad/138953548",
      "listing_published_at": "2026-03-20",
      "listing_updated_at": "2026-07-17"
    },
    {
      "id": "sr_1772871756",
      "price": 22500,
      "lat": 50.0892405,
      "lng": 14.4684469,
      "sqm": 38,
      "rooms": 2,
      "address": "Jana Želivského, Žižkov, Praha",
      "zone": "Žižkov",
      "url": "https://www.sreality.cz/detail/pronajem/byt/2+kk/praha-zizkov-jana-zelivskeho/1772871756",
      "listing_published_at": "2026-07-02",
      "listing_updated_at": "2026-07-17"
    },
    {
      "id": "sr_3405099084",
      "price": 25000,
      "lat": 50.1202823591365,
      "lng": 14.4410500536835,
      "sqm": 58,
      "rooms": 2,
      "address": "Trojská, Troja, Praha",
      "zone": "Troja",
      "url": "https://www.sreality.cz/detail/pronajem/byt/2+kk/praha-troja-trojska/3405099084",
      "listing_published_at": "2026-04-20",
      "listing_updated_at": "2026-07-17"
    },
    {
      "id": "sr_218202188",
      "price": 21000,
      "lat": 50.0890874693519,
      "lng": 14.3718489187696,
      "sqm": 55,
      "rooms": 2,
      "address": "Ve Střešovičkách, Střešovice, Praha",
      "zone": "Střešovice",
      "url": "https://www.sreality.cz/detail/pronajem/byt/2+1/praha-stresovice-ve-stresovickach/218202188",
      "listing_published_at": "2026-06-05",
      "listing_updated_at": "2026-07-17"
    },
    {
      "id": "sr_259096652",
      "price": 51500,
      "lat": 50.0845148,
      "lng": 14.4207572,
      "sqm": 169,
      "rooms": null,
      "address": "Havelská, Staré Město, Praha",
      "zone": "Staré Město",
      "url": "https://www.sreality.cz/detail/pronajem/byt/Atypick%C3%BD/praha-stare-mesto-havelska/259096652",
      "listing_published_at": "2026-06-05",
      "listing_updated_at": "2026-07-17"
    },
    {
      "id": "sr_2708664396",
      "price": 29000,
      "lat": 50.0849382,
      "lng": 14.4844222,
      "sqm": 60,
      "rooms": 2,
      "address": "Zvěřinova, Strašnice, Praha",
      "zone": "Strašnice",
      "url": "https://www.sreality.cz/detail/pronajem/byt/2+kk/praha-strasnice-zverinova/2708664396",
      "listing_published_at": "2026-06-23",
      "listing_updated_at": "2026-07-17"
    },
    {
      "id": "sr_3333218380",
      "price": 27400,
      "lat": 50.1157484778126,
      "lng": 14.4684447971825,
      "sqm": 53,
      "rooms": 2,
      "address": "Zenklova, Libeň, Praha",
      "zone": "Libeň",
      "url": "https://www.sreality.cz/detail/pronajem/byt/2+kk/praha-liben-zenklova/3333218380",
      "listing_published_at": "2026-07-13",
      "listing_updated_at": "2026-07-17"
    },
    {
      "id": "sr_2110058572",
      "price": 29000,
      "lat": 50.0479425810541,
      "lng": 14.4816968724219,
      "sqm": 66,
      "rooms": 3,
      "address": "Severní I, Záběhlice, Praha",
      "zone": "Záběhlice",
      "url": "https://www.sreality.cz/detail/pronajem/byt/3+1/praha-zabehlice-severni-i/2110058572",
      "listing_published_at": "2026-07-01",
      "listing_updated_at": "2026-07-17"
    },
    {
      "id": "sr_4145909836",
      "price": 21900,
      "lat": 50.1245384262358,
      "lng": 14.376881753279,
      "sqm": 49,
      "rooms": 2,
      "address": "Lysolajské údolí, Lysolaje, Praha",
      "zone": "Lysolaje",
      "url": "https://www.sreality.cz/detail/pronajem/byt/2+kk/praha-lysolaje-lysolajske-udoli/4145909836",
      "listing_published_at": "2026-05-15",
      "listing_updated_at": "2026-07-17"
    },
    {
      "id": "sr_3195314252",
      "price": 19000,
      "lat": 50.047515362003,
      "lng": 14.44262000886,
      "sqm": 39,
      "rooms": 2,
      "address": "Krchlebská, Krč, Praha",
      "zone": "Krč",
      "url": "https://www.sreality.cz/detail/pronajem/byt/2+kk/praha-krc-krchlebska/3195314252",
      "listing_published_at": "2026-05-07",
      "listing_updated_at": "2026-07-17"
    },
    {
      "id": "sr_3236077644",
      "price": 23300,
      "lat": 50.0583616667,
      "lng": 14.4426122222,
      "sqm": 47,
      "rooms": 2,
      "address": "Pod lázní, Nusle, Praha",
      "zone": "Nusle",
      "url": "https://www.sreality.cz/detail/pronajem/byt/2+kk/praha-nusle-pod-lazni/3236077644",
      "listing_published_at": "2026-04-30",
      "listing_updated_at": "2026-07-17"
    },
    {
      "id": "sr_1696051276",
      "price": 26000,
      "lat": 50.0708179778057,
      "lng": 14.4588507132907,
      "sqm": 58,
      "rooms": 2,
      "address": "Kodaňská, Vršovice, Praha",
      "zone": "Vršovice",
      "url": "https://www.sreality.cz/detail/pronajem/byt/2+kk/praha-vrsovice-kodanska/1696051276",
      "listing_published_at": "2026-04-17",
      "listing_updated_at": "2026-07-17"
    },
    {
      "id": "sr_4034741068",
      "price": 19900,
      "lat": 50.0709417862111,
      "lng": 14.4481966926959,
      "sqm": 43,
      "rooms": 1,
      "address": "Sevastopolská, Vršovice, Praha",
      "zone": "Vršovice",
      "url": "https://www.sreality.cz/detail/pronajem/byt/1+1/praha-vrsovice-sevastopolska/4034741068",
      "listing_published_at": "2026-03-24",
      "listing_updated_at": "2026-07-17"
    },
    {
      "id": "sr_2901177164",
      "price": 27500,
      "lat": 50.0844998403337,
      "lng": 14.4854803227137,
      "sqm": 68,
      "rooms": 2,
      "address": "Zvěřinova, Strašnice, Praha",
      "zone": "Strašnice",
      "url": "https://www.sreality.cz/detail/pronajem/byt/2+kk/praha-strasnice-zverinova/2901177164",
      "listing_published_at": "2026-02-01",
      "listing_updated_at": "2026-07-17"
    }
  ]
}