{
  "fetched_at": "2026-07-23T22:30:31.968Z",
  "active_count": 593,
  "listings": [
    {
      "id": "sr_2801770572",
      "price": 12500,
      "lat": 49.8250538203791,
      "lng": 18.2585465062712,
      "sqm": 37,
      "rooms": 2,
      "property_type": "flat",
      "address": "Cottonové, Mariánské Hory, Ostrava",
      "zone": "Mariánské Hory",
      "url": "https://www.sreality.cz/detail/pronajem/byt/2+kk/ostrava-marianske-hory-cottonove/2801770572",
      "listing_published_at": "2026-04-27",
      "listing_updated_at": "2026-07-23"
    },
    {
      "id": "sr_3133853772",
      "price": 11500,
      "lat": 49.791882234947,
      "lng": 18.2511665664658,
      "sqm": 56,
      "rooms": 2,
      "property_type": "flat",
      "address": "Horní, Hrabůvka, Ostrava",
      "zone": "Hrabůvka",
      "url": "https://www.sreality.cz/detail/pronajem/byt/2+1/ostrava-hrabuvka-horni/3133853772",
      "listing_published_at": "2026-07-23",
      "listing_updated_at": "2026-07-23"
    },
    {
      "id": "sr_1607127116",
      "price": 17000,
      "lat": 49.840527983465044,
      "lng": 18.29795939162218,
      "sqm": 50,
      "rooms": 2,
      "property_type": "flat",
      "address": "U Staré elektrárny, Slezská Ostrava, Ostrava",
      "zone": "Slezská Ostrava",
      "url": "https://www.sreality.cz/detail/pronajem/byt/2+kk/ostrava-slezska-ostrava-u-stare-elektrarny/1607127116",
      "listing_published_at": "2026-07-23",
      "listing_updated_at": "2026-07-23"
    },
    {
      "id": "sr_2110845004",
      "price": 7000,
      "lat": 49.8278877885723,
      "lng": 18.278670450467008,
      "sqm": 13,
      "rooms": 1,
      "property_type": "room",
      "address": "Vítkovická, Ostrava",
      "zone": "Vítkovická",
      "url": "https://www.sreality.cz/detail/pronajem/byt/Pokoj/ostrava-vitkovicka/2110845004",
      "listing_published_at": "2026-06-25",
      "listing_updated_at": "2026-07-23"
    },
    {
      "id": "sr_2463101004",
      "price": 16500,
      "lat": 49.839884,
      "lng": 18.28718,
      "sqm": 63,
      "rooms": 2,
      "property_type": "flat",
      "address": "Veleslavínova, Moravská Ostrava, Ostrava",
      "zone": "Moravská Ostrava",
      "url": "https://www.sreality.cz/detail/pronajem/byt/2+1/ostrava-moravska-ostrava-veleslavinova/2463101004",
      "listing_published_at": "2026-06-17",
      "listing_updated_at": "2026-07-23"
    },
    {
      "id": "sr_56225868",
      "price": 16500,
      "lat": 49.7874485818322,
      "lng": 18.2250254966146,
      "sqm": 70,
      "rooms": 3,
      "property_type": "flat",
      "address": "Volgogradská, Zábřeh, Ostrava",
      "zone": "Zábřeh",
      "url": "https://www.sreality.cz/detail/pronajem/byt/3+1/ostrava-zabreh-volgogradska/56225868",
      "listing_published_at": "2026-06-15",
      "listing_updated_at": "2026-07-23"
    },
    {
      "id": "sr_2355880012",
      "price": 11000,
      "lat": 49.7819914,
      "lng": 18.2486082,
      "sqm": 43,
      "rooms": 2,
      "property_type": "flat",
      "address": "Bedřicha Václavka, Bělský Les, Ostrava",
      "zone": "Bělský Les",
      "url": "https://www.sreality.cz/detail/pronajem/byt/2+1/ostrava-belsky-les-bedricha-vaclavka/2355880012",
      "listing_published_at": "2026-07-01",
      "listing_updated_at": "2026-07-23"
    },
    {
      "id": "sr_1694425164",
      "price": 18490,
      "lat": 49.8342295,
      "lng": 18.18181,
      "sqm": 63,
      "rooms": 3,
      "property_type": "flat",
      "address": "Gen. Sochora, Poruba, Ostrava",
      "zone": "Poruba",
      "url": "https://www.sreality.cz/detail/pronajem/byt/3+kk/ostrava-poruba-gen-sochora/1694425164",
      "listing_published_at": "2026-07-09",
      "listing_updated_at": "2026-07-23"
    },
    {
      "id": "sr_2697977932",
      "price": 11500,
      "lat": 49.8087625,
      "lng": 18.23585,
      "sqm": 44,
      "rooms": 2,
      "property_type": "flat",
      "address": "Tarnavova, Zábřeh, Ostrava",
      "zone": "Zábřeh",
      "url": "https://www.sreality.cz/detail/pronajem/byt/2+1/ostrava-zabreh-tarnavova/2697977932",
      "listing_published_at": "2026-07-08",
      "listing_updated_at": "2026-07-23"
    },
    {
      "id": "sr_307486796",
      "price": 9800,
      "lat": 49.7927768,
      "lng": 18.2707548,
      "sqm": 38,
      "rooms": 1,
      "property_type": "flat",
      "address": "U Haldy, Hrabůvka, Ostrava",
      "zone": "Hrabůvka",
      "url": "https://www.sreality.cz/detail/pronajem/byt/1+1/ostrava-hrabuvka-u-haldy/307486796",
      "listing_published_at": "2026-07-13",
      "listing_updated_at": "2026-07-23"
    },
    {
      "id": "sr_4277002316",
      "price": 9600,
      "lat": 49.7886792,
      "lng": 18.2330117,
      "sqm": 35,
      "rooms": 1,
      "property_type": "flat",
      "address": "Krasnoarmejců, Zábřeh, Ostrava",
      "zone": "Zábřeh",
      "url": "https://www.sreality.cz/detail/pronajem/byt/1+1/ostrava-zabreh-krasnoarmejcu/4277002316",
      "listing_published_at": "2026-07-10",
      "listing_updated_at": "2026-07-23"
    },
    {
      "id": "sr_3857269580",
      "price": 9300,
      "lat": 49.8058485,
      "lng": 18.2320006,
      "sqm": 33,
      "rooms": 1,
      "property_type": "flat",
      "address": "Horymírova, Zábřeh, Ostrava",
      "zone": "Zábřeh",
      "url": "https://www.sreality.cz/detail/pronajem/byt/1+1/ostrava-zabreh-horymirova/3857269580",
      "listing_published_at": "2026-03-20",
      "listing_updated_at": "2026-07-23"
    },
    {
      "id": "sr_3801579596",
      "price": 13600,
      "lat": 49.8658584671839,
      "lng": 18.2891415409906,
      "sqm": 54,
      "rooms": 2,
      "property_type": "flat",
      "address": "Bohumínská, Slezská Ostrava, Ostrava",
      "zone": "Slezská Ostrava",
      "url": "https://www.sreality.cz/detail/pronajem/byt/2+1/ostrava-slezska-ostrava-bohuminska/3801579596",
      "listing_published_at": "2026-06-09",
      "listing_updated_at": "2026-07-23"
    },
    {
      "id": "sr_1853784140",
      "price": 9300,
      "lat": 49.8009411,
      "lng": 18.2376902,
      "sqm": 41,
      "rooms": 1,
      "property_type": "flat",
      "address": "Jugoslávská, Zábřeh, Ostrava",
      "zone": "Zábřeh",
      "url": "https://www.sreality.cz/detail/pronajem/byt/1+1/ostrava-zabreh-jugoslavska/1853784140",
      "listing_published_at": "2026-06-01",
      "listing_updated_at": "2026-07-23"
    },
    {
      "id": "sr_2438692940",
      "price": 9100,
      "lat": 49.8084372,
      "lng": 18.229903,
      "sqm": 32,
      "rooms": 1,
      "property_type": "flat",
      "address": "Písečná, Zábřeh, Ostrava",
      "zone": "Zábřeh",
      "url": "https://www.sreality.cz/detail/pronajem/byt/1+1/ostrava-zabreh-pisecna/2438692940",
      "listing_published_at": "2026-05-26",
      "listing_updated_at": "2026-07-23"
    },
    {
      "id": "sr_1617399884",
      "price": 8600,
      "lat": 49.8472169496919,
      "lng": 18.1748732921902,
      "sqm": 23,
      "rooms": 1,
      "property_type": "flat",
      "address": "Marie Majerové, Poruba, Ostrava",
      "zone": "Poruba",
      "url": "https://www.sreality.cz/detail/pronajem/byt/1+kk/ostrava-poruba-marie-majerove/1617399884",
      "listing_published_at": "2026-05-21",
      "listing_updated_at": "2026-07-23"
    },
    {
      "id": "sr_2116128844",
      "price": 16300,
      "lat": 49.8426565,
      "lng": 18.2880048,
      "sqm": 74,
      "rooms": 3,
      "property_type": "flat",
      "address": "Gregorova, Moravská Ostrava, Ostrava",
      "zone": "Moravská Ostrava",
      "url": "https://www.sreality.cz/detail/pronajem/byt/3+1/ostrava-moravska-ostrava-gregorova/2116128844",
      "listing_published_at": "2026-05-19",
      "listing_updated_at": "2026-07-23"
    },
    {
      "id": "sr_3240923212",
      "price": 8900,
      "lat": 49.796532208703,
      "lng": 18.2585626102049,
      "sqm": 45,
      "rooms": 1,
      "property_type": "flat",
      "address": "Březinova, Zábřeh, Ostrava",
      "zone": "Zábřeh",
      "url": "https://www.sreality.cz/detail/pronajem/byt/1+1/ostrava-zabreh-brezinova/3240923212",
      "listing_published_at": "2026-05-15",
      "listing_updated_at": "2026-07-23"
    },
    {
      "id": "sr_12423244",
      "price": 13900,
      "lat": 49.7828482426742,
      "lng": 18.2560856893159,
      "sqm": 54,
      "rooms": 2,
      "property_type": "flat",
      "address": "Josefa Kotase, Hrabůvka, Ostrava",
      "zone": "Hrabůvka",
      "url": "https://www.sreality.cz/detail/pronajem/byt/2+1/ostrava-hrabuvka-josefa-kotase/12423244",
      "listing_published_at": "2026-05-15",
      "listing_updated_at": "2026-07-23"
    },
    {
      "id": "sr_488026188",
      "price": 9900,
      "lat": 49.8511336161518,
      "lng": 18.2987427285393,
      "sqm": 39,
      "rooms": 1,
      "property_type": "flat",
      "address": "Křížkovského, Muglinov, Ostrava",
      "zone": "Muglinov",
      "url": "https://www.sreality.cz/detail/pronajem/byt/1+1/ostrava-muglinov-krizkovskeho/488026188",
      "listing_published_at": "2026-04-19",
      "listing_updated_at": "2026-07-23"
    },
    {
      "id": "sr_3279007820",
      "price": 23900,
      "lat": 49.8405138066076,
      "lng": 18.2899370259902,
      "sqm": 86,
      "rooms": 3,
      "property_type": "flat",
      "address": "Herodova, Moravská Ostrava, Ostrava",
      "zone": "Moravská Ostrava",
      "url": "https://www.sreality.cz/detail/pronajem/byt/3+1/ostrava-moravska-ostrava-herodova/3279007820",
      "listing_published_at": "2026-04-15",
      "listing_updated_at": "2026-07-23"
    },
    {
      "id": "sr_3353953100",
      "price": 9600,
      "lat": 49.7736056,
      "lng": 18.2105437,
      "sqm": 40,
      "rooms": 1,
      "property_type": "flat",
      "address": "Proskovická, Výškovice, Ostrava",
      "zone": "Výškovice",
      "url": "https://www.sreality.cz/detail/pronajem/byt/1+1/ostrava-vyskovice-proskovicka/3353953100",
      "listing_published_at": "2026-03-20",
      "listing_updated_at": "2026-07-23"
    },
    {
      "id": "sr_3060224844",
      "price": 9500,
      "lat": 49.8414144772281,
      "lng": 18.1751305123952,
      "sqm": 25,
      "rooms": 1,
      "property_type": "flat",
      "address": "Svojsíkova, Poruba, Ostrava",
      "zone": "Poruba",
      "url": "https://www.sreality.cz/detail/pronajem/byt/1+1/ostrava-poruba-svojsikova/3060224844",
      "listing_published_at": "2026-03-13",
      "listing_updated_at": "2026-07-23"
    },
    {
      "id": "sr_4131410764",
      "price": 12900,
      "lat": 49.8540689531583,
      "lng": 18.27788573445,
      "sqm": 50,
      "rooms": 1,
      "property_type": "flat",
      "address": "Hájkova, Přívoz, Ostrava",
      "zone": "Přívoz",
      "url": "https://www.sreality.cz/detail/pronajem/byt/1+1/ostrava-privoz-hajkova/4131410764",
      "listing_published_at": "2026-03-12",
      "listing_updated_at": "2026-07-23"
    },
    {
      "id": "sr_20730700",
      "price": 15300,
      "lat": 49.7931886175971,
      "lng": 18.2557316184183,
      "sqm": 69,
      "rooms": 2,
      "property_type": "flat",
      "address": "Jubilejní, Hrabůvka, Ostrava",
      "zone": "Hrabůvka",
      "url": "https://www.sreality.cz/detail/pronajem/byt/2+1/ostrava-hrabuvka-jubilejni/20730700",
      "listing_published_at": "2026-03-09",
      "listing_updated_at": "2026-07-23"
    },
    {
      "id": "sr_1084052300",
      "price": 13900,
      "lat": 49.7874897894211,
      "lng": 18.2309370905367,
      "sqm": 67,
      "rooms": 3,
      "property_type": "flat",
      "address": "Kosmonautů, Zábřeh, Ostrava",
      "zone": "Zábřeh",
      "url": "https://www.sreality.cz/detail/pronajem/byt/3+1/ostrava-zabreh-kosmonautu/1084052300",
      "listing_published_at": "2026-03-09",
      "listing_updated_at": "2026-07-23"
    },
    {
      "id": "sr_2380976204",
      "price": 11900,
      "lat": 49.7877851517743,
      "lng": 18.2530366914519,
      "sqm": 60,
      "rooms": 3,
      "property_type": "flat",
      "address": "Mitušova, Hrabůvka, Ostrava",
      "zone": "Hrabůvka",
      "url": "https://www.sreality.cz/detail/pronajem/byt/3+1/ostrava-hrabuvka-mitusova/2380976204",
      "listing_published_at": "2026-07-23",
      "listing_updated_at": "2026-07-23"
    },
    {
      "id": "sr_1384243276",
      "price": 12900,
      "lat": 49.7822327612777,
      "lng": 18.221466048406,
      "sqm": 61,
      "rooms": 2,
      "property_type": "flat",
      "address": "Břustkova, Výškovice, Ostrava",
      "zone": "Výškovice",
      "url": "https://www.sreality.cz/detail/pronajem/byt/2+1/ostrava-vyskovice-brustkova/1384243276",
      "listing_published_at": "2026-07-15",
      "listing_updated_at": "2026-07-23"
    },
    {
      "id": "sr_227909708",
      "price": 19900,
      "lat": 49.7876314126448,
      "lng": 18.2357699550265,
      "sqm": 68,
      "rooms": 3,
      "property_type": "flat",
      "address": "Svazácká, Zábřeh, Ostrava",
      "zone": "Zábřeh",
      "url": "https://www.sreality.cz/detail/pronajem/byt/3+1/ostrava-zabreh-svazacka/227909708",
      "listing_published_at": "2026-05-07",
      "listing_updated_at": "2026-07-23"
    },
    {
      "id": "sr_3915022412",
      "price": 11900,
      "lat": 49.8093387798138,
      "lng": 18.2353357283783,
      "sqm": 45,
      "rooms": 2,
      "property_type": "flat",
      "address": "Zimmlerova, Zábřeh, Ostrava",
      "zone": "Zábřeh",
      "url": "https://www.sreality.cz/detail/pronajem/byt/2+1/ostrava-zabreh-zimmlerova/3915022412",
      "listing_published_at": "2026-05-27",
      "listing_updated_at": "2026-07-23"
    },
    {
      "id": "sr_824889420",
      "price": 17300,
      "lat": 49.8469363442361,
      "lng": 18.2869853791154,
      "sqm": 65,
      "rooms": 2,
      "property_type": "flat",
      "address": "Preslova, Moravská Ostrava, Ostrava",
      "zone": "Moravská Ostrava",
      "url": "https://www.sreality.cz/detail/pronajem/byt/2+kk/ostrava-moravska-ostrava-preslova/824889420",
      "listing_published_at": "2026-07-23",
      "listing_updated_at": "2026-07-23"
    },
    {
      "id": "sr_3210399820",
      "price": 9000,
      "lat": 49.7828482426742,
      "lng": 18.2560856893159,
      "sqm": 37,
      "rooms": 1,
      "property_type": "flat",
      "address": "Josefa Kotase, Hrabůvka, Ostrava",
      "zone": "Hrabůvka",
      "url": "https://www.sreality.cz/detail/pronajem/byt/1+1/ostrava-hrabuvka-josefa-kotase/3210399820",
      "listing_published_at": "2026-07-23",
      "listing_updated_at": "2026-07-23"
    },
    {
      "id": "sr_1348128844",
      "price": 16000,
      "lat": 49.8359642,
      "lng": 18.2934208,
      "sqm": 81,
      "rooms": 2,
      "property_type": "flat",
      "address": "28. října, Moravská Ostrava, Ostrava",
      "zone": "Moravská Ostrava",
      "url": "https://www.sreality.cz/detail/pronajem/byt/2+1/ostrava-moravska-ostrava-28-rijna/1348128844",
      "listing_published_at": "2026-07-23",
      "listing_updated_at": "2026-07-23"
    },
    {
      "id": "sr_3344617548",
      "price": 12441,
      "lat": 49.831569495163,
      "lng": 18.2505519464544,
      "sqm": 54,
      "rooms": 2,
      "property_type": "flat",
      "address": "Václavská, Mariánské Hory, Ostrava",
      "zone": "Mariánské Hory",
      "url": "https://www.sreality.cz/detail/pronajem/byt/2+1/ostrava-marianske-hory-vaclavska/3344617548",
      "listing_published_at": "2026-07-23",
      "listing_updated_at": "2026-07-23"
    },
    {
      "id": "sr_92332108",
      "price": 15000,
      "lat": 49.8063734664564,
      "lng": 18.2309998238973,
      "sqm": 67,
      "rooms": 3,
      "property_type": "flat",
      "address": "Horymírova, Zábřeh, Ostrava",
      "zone": "Zábřeh",
      "url": "https://www.sreality.cz/detail/pronajem/byt/3+1/ostrava-zabreh-horymirova/92332108",
      "listing_published_at": "2026-07-16",
      "listing_updated_at": "2026-07-23"
    },
    {
      "id": "sr_3830108236",
      "price": 9000,
      "lat": 49.79121120194049,
      "lng": 18.247732981421656,
      "sqm": 48,
      "rooms": 2,
      "property_type": "flat",
      "address": "Plzeňská, Hrabůvka, Ostrava",
      "zone": "Hrabůvka",
      "url": "https://www.sreality.cz/detail/pronajem/byt/2+kk/ostrava-hrabuvka-plzenska/3830108236",
      "listing_published_at": "2026-07-23",
      "listing_updated_at": "2026-07-23"
    },
    {
      "id": "sr_729469004",
      "price": 11000,
      "lat": 49.7788726080753,
      "lng": 18.2578149216215,
      "sqm": 44,
      "rooms": 2,
      "property_type": "flat",
      "address": "Jana Maluchy, Dubina, Ostrava",
      "zone": "Dubina",
      "url": "https://www.sreality.cz/detail/pronajem/byt/2+1/ostrava-dubina-jana-maluchy/729469004",
      "listing_published_at": "2026-07-23",
      "listing_updated_at": "2026-07-23"
    },
    {
      "id": "sr_1266339916",
      "price": 12500,
      "lat": 49.8256265756592,
      "lng": 18.2584049676003,
      "sqm": 37,
      "rooms": 2,
      "property_type": "flat",
      "address": "Bílá, Mariánské Hory, Ostrava",
      "zone": "Mariánské Hory",
      "url": "https://www.sreality.cz/detail/pronajem/byt/2+kk/ostrava-marianske-hory-bila/1266339916",
      "listing_published_at": "2026-07-23",
      "listing_updated_at": "2026-07-23"
    },
    {
      "id": "sr_4218081356",
      "price": 13800,
      "lat": 49.7826032377971,
      "lng": 18.253324262061,
      "sqm": 70,
      "rooms": 3,
      "property_type": "flat",
      "address": "Jiřího Herolda, Bělský Les, Ostrava",
      "zone": "Bělský Les",
      "url": "https://www.sreality.cz/detail/pronajem/byt/3+1/ostrava-belsky-les-jiriho-herolda/4218081356",
      "listing_published_at": "2026-07-23",
      "listing_updated_at": "2026-07-23"
    },
    {
      "id": "sr_124440652",
      "price": 14000,
      "lat": 49.8232694161608,
      "lng": 18.1866973085888,
      "sqm": 67,
      "rooms": 3,
      "property_type": "flat",
      "address": "Kubánská, Poruba, Ostrava",
      "zone": "Poruba",
      "url": "https://www.sreality.cz/detail/pronajem/byt/3+1/ostrava-poruba-kubanska/124440652",
      "listing_published_at": "2026-07-23",
      "listing_updated_at": "2026-07-23"
    },
    {
      "id": "sr_1366925388",
      "price": 20000,
      "lat": 49.8332078153548,
      "lng": 18.2869913490187,
      "sqm": 117,
      "rooms": 3,
      "property_type": "flat",
      "address": "Denisova, Moravská Ostrava, Ostrava",
      "zone": "Moravská Ostrava",
      "url": "https://www.sreality.cz/detail/pronajem/byt/3+1/ostrava-moravska-ostrava-denisova/1366925388",
      "listing_published_at": "2026-04-23",
      "listing_updated_at": "2026-07-23"
    },
    {
      "id": "sr_1704374348",
      "price": 11500,
      "lat": 49.7886770984112,
      "lng": 18.2284959007896,
      "sqm": 56,
      "rooms": 2,
      "property_type": "flat",
      "address": "Kosmonautů, Zábřeh, Ostrava",
      "zone": "Zábřeh",
      "url": "https://www.sreality.cz/detail/pronajem/byt/2+1/ostrava-zabreh-kosmonautu/1704374348",
      "listing_published_at": "2026-04-20",
      "listing_updated_at": "2026-07-23"
    },
    {
      "id": "sr_1016844364",
      "price": 11000,
      "lat": 49.8359642,
      "lng": 18.2934208,
      "sqm": 46,
      "rooms": 2,
      "property_type": "flat",
      "address": "28. října, Moravská Ostrava, Ostrava",
      "zone": "Moravská Ostrava",
      "url": "https://www.sreality.cz/detail/pronajem/byt/2+kk/ostrava-moravska-ostrava-28-rijna/1016844364",
      "listing_published_at": "2026-07-23",
      "listing_updated_at": "2026-07-23"
    },
    {
      "id": "sr_4238861132",
      "price": 11500,
      "lat": 49.801261704804084,
      "lng": 18.26376539764344,
      "sqm": 64,
      "rooms": 3,
      "property_type": "flat",
      "address": "U Nádraží, Vítkovice, Ostrava",
      "zone": "Vítkovice",
      "url": "https://www.sreality.cz/detail/pronajem/byt/3+1/ostrava-vitkovice-u-nadrazi/4238861132",
      "listing_published_at": "2025-09-15",
      "listing_updated_at": "2026-07-23"
    },
    {
      "id": "sr_1453051980",
      "price": 12500,
      "lat": 49.8455213350515,
      "lng": 18.282362901381,
      "sqm": 82,
      "rooms": 3,
      "property_type": "flat",
      "address": "Živičná, Moravská Ostrava, Ostrava",
      "zone": "Moravská Ostrava",
      "url": "https://www.sreality.cz/detail/pronajem/byt/3+1/ostrava-moravska-ostrava-zivicna/1453051980",
      "listing_published_at": "2026-07-23",
      "listing_updated_at": "2026-07-23"
    },
    {
      "id": "sr_3531399244",
      "price": 17500,
      "lat": 49.8366980947883,
      "lng": 18.303491502478526,
      "sqm": 59,
      "rooms": 2,
      "property_type": "flat",
      "address": "Na Baranovci, Slezská Ostrava, Ostrava",
      "zone": "Slezská Ostrava",
      "url": "https://www.sreality.cz/detail/pronajem/byt/2+kk/ostrava-slezska-ostrava-na-baranovci/3531399244",
      "listing_published_at": "2026-07-10",
      "listing_updated_at": "2026-07-23"
    },
    {
      "id": "sr_2098909260",
      "price": 11000,
      "lat": 49.8540882815,
      "lng": 18.2616377712,
      "sqm": 46,
      "rooms": 2,
      "property_type": "flat",
      "address": "Palackého, Přívoz, Ostrava",
      "zone": "Přívoz",
      "url": "https://www.sreality.cz/detail/pronajem/byt/2+kk/ostrava-privoz-palackeho/2098909260",
      "listing_published_at": "2026-07-23",
      "listing_updated_at": "2026-07-23"
    },
    {
      "id": "sr_2364858444",
      "price": 17000,
      "lat": 49.85459830505471,
      "lng": 18.293545282316174,
      "sqm": 63,
      "rooms": 2,
      "property_type": "flat",
      "address": "Bohumínská, Muglinov, Ostrava",
      "zone": "Muglinov",
      "url": "https://www.sreality.cz/detail/pronajem/byt/2+kk/ostrava-muglinov-bohuminska/2364858444",
      "listing_published_at": "2026-07-21",
      "listing_updated_at": "2026-07-22"
    },
    {
      "id": "sr_2348535884",
      "price": 13400,
      "lat": 49.8371860236157,
      "lng": 18.29135632253,
      "sqm": 64,
      "rooms": 2,
      "property_type": "flat",
      "address": "Na Hradbách, Moravská Ostrava, Ostrava",
      "zone": "Moravská Ostrava",
      "url": "https://www.sreality.cz/detail/pronajem/byt/2+1/ostrava-moravska-ostrava-na-hradbach/2348535884",
      "listing_published_at": "2026-07-22",
      "listing_updated_at": "2026-07-23"
    },
    {
      "id": "sr_3204173900",
      "price": 11900,
      "lat": 49.839868193,
      "lng": 18.28211944,
      "sqm": 28,
      "rooms": 1,
      "property_type": "flat",
      "address": "30. dubna, Moravská Ostrava, Ostrava",
      "zone": "Moravská Ostrava",
      "url": "https://www.sreality.cz/detail/pronajem/byt/1+kk/ostrava-moravska-ostrava-30-dubna/3204173900",
      "listing_published_at": "2026-07-22",
      "listing_updated_at": "2026-07-23"
    },
    {
      "id": "sr_3735642956",
      "price": 6500,
      "lat": 49.85001847029776,
      "lng": 18.27523529135617,
      "sqm": 15,
      "rooms": 1,
      "property_type": "room",
      "address": "Nádražní, Ostrava",
      "zone": "Nádražní",
      "url": "https://www.sreality.cz/detail/pronajem/byt/Pokoj/ostrava-nadrazni/3735642956",
      "listing_published_at": "2026-02-13",
      "listing_updated_at": "2026-07-22"
    },
    {
      "id": "sr_589025356",
      "price": 14000,
      "lat": 49.8369364027768,
      "lng": 18.2906044621728,
      "sqm": 60,
      "rooms": 2,
      "property_type": "flat",
      "address": "Přívozská, Moravská Ostrava, Ostrava",
      "zone": "Moravská Ostrava",
      "url": "https://www.sreality.cz/detail/pronajem/byt/2+1/ostrava-moravska-ostrava-privozska/589025356",
      "listing_published_at": "2026-07-22",
      "listing_updated_at": "2026-07-22"
    },
    {
      "id": "sr_168546380",
      "price": 13000,
      "lat": 49.8441267064,
      "lng": 18.2720873224,
      "sqm": 70,
      "rooms": 3,
      "property_type": "flat",
      "address": "Cihelní, Moravská Ostrava, Ostrava",
      "zone": "Moravská Ostrava",
      "url": "https://www.sreality.cz/detail/pronajem/byt/3+1/ostrava-moravska-ostrava-cihelni/168546380",
      "listing_published_at": "2026-07-22",
      "listing_updated_at": "2026-07-22"
    },
    {
      "id": "sr_1047064652",
      "price": 13900,
      "lat": 49.83497666326,
      "lng": 18.3280997219407,
      "sqm": 44,
      "rooms": 2,
      "property_type": "flat",
      "address": "Kovařovicova, Slezská Ostrava, Ostrava",
      "zone": "Slezská Ostrava",
      "url": "https://www.sreality.cz/detail/pronajem/byt/2+kk/ostrava-slezska-ostrava-kovarovicova/1047064652",
      "listing_published_at": "2026-06-16",
      "listing_updated_at": "2026-07-22"
    },
    {
      "id": "sr_2662375500",
      "price": 13200,
      "lat": 49.7893221137284,
      "lng": 18.2645256116976,
      "sqm": 71,
      "rooms": 3,
      "property_type": "flat",
      "address": "U Prodejny, Hrabůvka, Ostrava",
      "zone": "Hrabůvka",
      "url": "https://www.sreality.cz/detail/pronajem/byt/3+1/ostrava-hrabuvka-u-prodejny/2662375500",
      "listing_published_at": "2026-05-04",
      "listing_updated_at": "2026-07-22"
    },
    {
      "id": "sr_140546124",
      "price": 13000,
      "lat": 49.826931,
      "lng": 18.249396,
      "sqm": 56,
      "rooms": 1,
      "property_type": "flat",
      "address": "U Vodojemu, Mariánské Hory, Ostrava",
      "zone": "Mariánské Hory",
      "url": "https://www.sreality.cz/detail/pronajem/byt/1+1/ostrava-marianske-hory-u-vodojemu/140546124",
      "listing_published_at": "2026-05-20",
      "listing_updated_at": "2026-07-22"
    },
    {
      "id": "sr_157012044",
      "price": 9900,
      "lat": 49.8364002872657,
      "lng": 18.2886421735712,
      "sqm": 50,
      "rooms": 1,
      "property_type": "flat",
      "address": "Čs. legií, Moravská Ostrava, Ostrava",
      "zone": "Moravská Ostrava",
      "url": "https://www.sreality.cz/detail/pronajem/byt/1+1/ostrava-moravska-ostrava-cs-legii/157012044",
      "listing_published_at": "2026-07-22",
      "listing_updated_at": "2026-07-22"
    },
    {
      "id": "sr_2557202508",
      "price": 18000,
      "lat": 49.8194057905442,
      "lng": 18.3282982265361,
      "sqm": 106,
      "rooms": 3,
      "property_type": "flat",
      "address": "Čechovova, Radvanice, Ostrava",
      "zone": "Radvanice",
      "url": "https://www.sreality.cz/detail/pronajem/byt/3+1/ostrava-radvanice-cechovova/2557202508",
      "listing_published_at": "2026-07-22",
      "listing_updated_at": "2026-07-22"
    },
    {
      "id": "sr_3774935116",
      "price": 11350,
      "lat": 49.829089184114856,
      "lng": 18.25269076790921,
      "sqm": 55,
      "rooms": 2,
      "property_type": "flat",
      "address": "Mojmírovců, Mariánské Hory, Ostrava",
      "zone": "Mariánské Hory",
      "url": "https://www.sreality.cz/detail/pronajem/byt/2+1/ostrava-marianske-hory-mojmirovcu/3774935116",
      "listing_published_at": "2026-06-25",
      "listing_updated_at": "2026-07-22"
    },
    {
      "id": "sr_1574428748",
      "price": 9500,
      "lat": 49.7927877073103,
      "lng": 18.2262953879059,
      "sqm": 37,
      "rooms": 1,
      "property_type": "flat",
      "address": "Volgogradská, Zábřeh, Ostrava",
      "zone": "Zábřeh",
      "url": "https://www.sreality.cz/detail/pronajem/byt/1+1/ostrava-zabreh-volgogradska/1574428748",
      "listing_published_at": "2026-07-17",
      "listing_updated_at": "2026-07-22"
    },
    {
      "id": "sr_3482116172",
      "price": 12800,
      "lat": 49.7874407019956,
      "lng": 18.2526202591091,
      "sqm": 60,
      "rooms": 2,
      "property_type": "flat",
      "address": "Hrabůvka, Ostrava",
      "zone": "Hrabůvka",
      "url": "https://www.sreality.cz/detail/pronajem/byt/2+1/ostrava-hrabuvka/3482116172",
      "listing_published_at": "2026-07-13",
      "listing_updated_at": "2026-07-23"
    },
    {
      "id": "sr_1366618188",
      "price": 7400,
      "lat": 49.8294156134559,
      "lng": 18.3012479587534,
      "sqm": 38,
      "rooms": 1,
      "property_type": "flat",
      "address": "Podzámčí, Slezská Ostrava, Ostrava",
      "zone": "Slezská Ostrava",
      "url": "https://www.sreality.cz/detail/pronajem/byt/1+1/ostrava-slezska-ostrava-podzamci/1366618188",
      "listing_published_at": "2026-06-30",
      "listing_updated_at": "2026-07-22"
    },
    {
      "id": "sr_2175624012",
      "price": 19000,
      "lat": 49.8500184702978,
      "lng": 18.2752352913562,
      "sqm": 47,
      "rooms": 2,
      "property_type": "flat",
      "address": "Nádražní, Moravská Ostrava a Přívoz, Ostrava",
      "zone": "Moravská Ostrava a Přívoz",
      "url": "https://www.sreality.cz/detail/pronajem/byt/2+kk/ostrava-moravska-ostrava-a-privoz-nadrazni/2175624012",
      "listing_published_at": "2026-02-18",
      "listing_updated_at": "2026-07-22"
    },
    {
      "id": "sr_2814636108",
      "price": 10500,
      "lat": 49.8353069798749,
      "lng": 18.2880866111953,
      "sqm": 40,
      "rooms": 1,
      "property_type": "flat",
      "address": "Tyršova, Moravská Ostrava, Ostrava",
      "zone": "Moravská Ostrava",
      "url": "https://www.sreality.cz/detail/pronajem/byt/1+1/ostrava-moravska-ostrava-tyrsova/2814636108",
      "listing_published_at": "2026-06-22",
      "listing_updated_at": "2026-07-22"
    },
    {
      "id": "sr_79618124",
      "price": 25000,
      "lat": 49.8474758087215,
      "lng": 18.2858145155474,
      "sqm": 124,
      "rooms": 3,
      "property_type": "flat",
      "address": "Partyzánské náměstí, Moravská Ostrava, Ostrava",
      "zone": "Moravská Ostrava",
      "url": "https://www.sreality.cz/detail/pronajem/byt/3+1/ostrava-moravska-ostrava-partyzanske-namesti/79618124",
      "listing_published_at": "2026-07-09",
      "listing_updated_at": "2026-07-22"
    },
    {
      "id": "sr_1575280716",
      "price": 10700,
      "lat": 49.8251484627634,
      "lng": 18.2580091486671,
      "sqm": 37,
      "rooms": 2,
      "property_type": "flat",
      "address": "Cottonové, Mariánské Hory, Ostrava",
      "zone": "Mariánské Hory",
      "url": "https://www.sreality.cz/detail/pronajem/byt/2+kk/ostrava-marianske-hory-cottonove/1575280716",
      "listing_published_at": "2026-07-21",
      "listing_updated_at": "2026-07-22"
    },
    {
      "id": "sr_890560588",
      "price": 13500,
      "lat": 49.83248106563254,
      "lng": 18.28434043353715,
      "sqm": 30,
      "rooms": 1,
      "property_type": "flat",
      "address": "28. října, Moravská Ostrava, Ostrava",
      "zone": "Moravská Ostrava",
      "url": "https://www.sreality.cz/detail/pronajem/byt/1+kk/ostrava-moravska-ostrava-28-rijna/890560588",
      "listing_published_at": "2026-07-21",
      "listing_updated_at": "2026-07-21"
    },
    {
      "id": "sr_4001472588",
      "price": 17000,
      "lat": 49.8293426386,
      "lng": 18.2659317673,
      "sqm": 118,
      "rooms": 3,
      "property_type": "flat",
      "address": "28. října, Mariánské Hory, Ostrava",
      "zone": "Mariánské Hory",
      "url": "https://www.sreality.cz/detail/pronajem/byt/3+kk/ostrava-marianske-hory-28-rijna/4001472588",
      "listing_published_at": "2026-05-04",
      "listing_updated_at": "2026-07-21"
    },
    {
      "id": "sr_772071500",
      "price": 22500,
      "lat": 49.829631183607056,
      "lng": 18.28775372156302,
      "sqm": 58,
      "rooms": 2,
      "property_type": "flat",
      "address": "náměstí Biskupa Bruna, Moravská Ostrava, Ostrava",
      "zone": "Moravská Ostrava",
      "url": "https://www.sreality.cz/detail/pronajem/byt/2+kk/ostrava-moravska-ostrava-namesti-biskupa-bruna/772071500",
      "listing_published_at": "2026-07-21",
      "listing_updated_at": "2026-07-23"
    },
    {
      "id": "sr_2683957324",
      "price": 20000,
      "lat": 49.8443137477,
      "lng": 18.2939693293,
      "sqm": 65,
      "rooms": 3,
      "property_type": "flat",
      "address": "Bohumínská, Slezská Ostrava, Ostrava",
      "zone": "Slezská Ostrava",
      "url": "https://www.sreality.cz/detail/pronajem/byt/3+1/ostrava-slezska-ostrava-bohuminska/2683957324",
      "listing_published_at": "2026-06-15",
      "listing_updated_at": "2026-07-21"
    },
    {
      "id": "sr_980108108",
      "price": 25000,
      "lat": 49.7956172782465,
      "lng": 18.240232199175,
      "sqm": 100,
      "rooms": 4,
      "property_type": "flat",
      "address": "Pavlovova, Zábřeh, Ostrava",
      "zone": "Zábřeh",
      "url": "https://www.sreality.cz/detail/pronajem/byt/4+kk/ostrava-zabreh-pavlovova/980108108",
      "listing_published_at": "2026-03-18",
      "listing_updated_at": "2026-07-21"
    },
    {
      "id": "sr_454378316",
      "price": 10700,
      "lat": 49.7866950106795,
      "lng": 18.2688537719721,
      "sqm": 38,
      "rooms": 1,
      "property_type": "flat",
      "address": "Dr. Martínka, Hrabůvka, Ostrava",
      "zone": "Hrabůvka",
      "url": "https://www.sreality.cz/detail/pronajem/byt/1+1/ostrava-hrabuvka-dr-martinka/454378316",
      "listing_published_at": "2026-04-02",
      "listing_updated_at": "2026-07-21"
    },
    {
      "id": "sr_2199683148",
      "price": 12900,
      "lat": 49.8496250832714,
      "lng": 18.3043945210206,
      "sqm": 39,
      "rooms": 2,
      "property_type": "flat",
      "address": "Fojtská, Muglinov, Ostrava",
      "zone": "Muglinov",
      "url": "https://www.sreality.cz/detail/pronajem/byt/2+kk/ostrava-muglinov-fojtska/2199683148",
      "listing_published_at": "2026-06-03",
      "listing_updated_at": "2026-07-21"
    },
    {
      "id": "sr_1228202060",
      "price": 34990,
      "lat": 49.83083602450958,
      "lng": 18.286824990101184,
      "sqm": 89,
      "rooms": 3,
      "property_type": "flat",
      "address": "Jantarová, Moravská Ostrava, Ostrava",
      "zone": "Moravská Ostrava",
      "url": "https://www.sreality.cz/detail/pronajem/byt/3+kk/ostrava-moravska-ostrava-jantarova/1228202060",
      "listing_published_at": "2026-07-21",
      "listing_updated_at": "2026-07-21"
    },
    {
      "id": "sr_1391296588",
      "price": 27000,
      "lat": 49.7861468,
      "lng": 18.2494361,
      "sqm": 63,
      "rooms": 3,
      "property_type": "flat",
      "address": "U Lesa, Hrabůvka, Ostrava",
      "zone": "Hrabůvka",
      "url": "https://www.sreality.cz/detail/pronajem/byt/3+kk/ostrava-hrabuvka-u-lesa/1391296588",
      "listing_published_at": "2026-06-02",
      "listing_updated_at": "2026-07-21"
    },
    {
      "id": "sr_3270344780",
      "price": 28000,
      "lat": 49.7861468,
      "lng": 18.2494361,
      "sqm": 73,
      "rooms": 3,
      "property_type": "flat",
      "address": "U Lesa, Hrabůvka, Ostrava",
      "zone": "Hrabůvka",
      "url": "https://www.sreality.cz/detail/pronajem/byt/3+kk/ostrava-hrabuvka-u-lesa/3270344780",
      "listing_published_at": "2026-06-02",
      "listing_updated_at": "2026-07-21"
    },
    {
      "id": "sr_858054732",
      "price": 10500,
      "lat": 49.8253213411323,
      "lng": 18.180238614308,
      "sqm": 18,
      "rooms": 1,
      "property_type": "flat",
      "address": "Větrná, Poruba, Ostrava",
      "zone": "Poruba",
      "url": "https://www.sreality.cz/detail/pronajem/byt/1+kk/ostrava-poruba-vetrna/858054732",
      "listing_published_at": "2026-07-21",
      "listing_updated_at": "2026-07-21"
    },
    {
      "id": "sr_1749344332",
      "price": 12000,
      "lat": 49.7904362117472,
      "lng": 18.2643370001046,
      "sqm": 30,
      "rooms": 1,
      "property_type": "flat",
      "address": "Provaznická, Hrabůvka, Ostrava",
      "zone": "Hrabůvka",
      "url": "https://www.sreality.cz/detail/pronajem/byt/1+kk/ostrava-hrabuvka-provaznicka/1749344332",
      "listing_published_at": "2026-07-21",
      "listing_updated_at": "2026-07-22"
    },
    {
      "id": "sr_1438113868",
      "price": 9500,
      "lat": 49.7756150627466,
      "lng": 18.2523277002515,
      "sqm": 44,
      "rooms": 2,
      "property_type": "flat",
      "address": "Emanuela Podgorného, Dubina, Ostrava",
      "zone": "Dubina",
      "url": "https://www.sreality.cz/detail/pronajem/byt/2+1/ostrava-dubina-emanuela-podgorneho/1438113868",
      "listing_published_at": "2026-07-17",
      "listing_updated_at": "2026-07-21"
    },
    {
      "id": "sr_3146113100",
      "price": 13500,
      "lat": 49.7871373321,
      "lng": 18.236626255,
      "sqm": 54,
      "rooms": 2,
      "property_type": "flat",
      "address": "Svazácká, Zábřeh, Ostrava",
      "zone": "Zábřeh",
      "url": "https://www.sreality.cz/detail/pronajem/byt/2+1/ostrava-zabreh-svazacka/3146113100",
      "listing_published_at": "2026-07-21",
      "listing_updated_at": "2026-07-21"
    },
    {
      "id": "sr_3901087820",
      "price": 10000,
      "lat": 49.844892,
      "lng": 18.293799,
      "sqm": 39,
      "rooms": 2,
      "property_type": "flat",
      "address": "Bohumínská, Slezská Ostrava, Ostrava",
      "zone": "Slezská Ostrava",
      "url": "https://www.sreality.cz/detail/pronajem/byt/2+kk/ostrava-slezska-ostrava-bohuminska/3901087820",
      "listing_published_at": "2026-07-21",
      "listing_updated_at": "2026-07-21"
    },
    {
      "id": "sr_1536204876",
      "price": 21800,
      "lat": 49.8439877123805,
      "lng": 18.2843346519364,
      "sqm": 78,
      "rooms": 3,
      "property_type": "flat",
      "address": "Zborovská, Moravská Ostrava, Ostrava",
      "zone": "Moravská Ostrava",
      "url": "https://www.sreality.cz/detail/pronajem/byt/3+kk/ostrava-moravska-ostrava-zborovska/1536204876",
      "listing_published_at": "2026-05-04",
      "listing_updated_at": "2026-07-21"
    },
    {
      "id": "sr_141287500",
      "price": 23900,
      "lat": 49.8308679630845,
      "lng": 18.2480012428908,
      "sqm": 115,
      "rooms": 3,
      "property_type": "flat",
      "address": "Vršovců, Mariánské Hory, Ostrava",
      "zone": "Mariánské Hory",
      "url": "https://www.sreality.cz/detail/pronajem/byt/3+kk/ostrava-marianske-hory-vrsovcu/141287500",
      "listing_published_at": "2026-07-01",
      "listing_updated_at": "2026-07-21"
    },
    {
      "id": "sr_1588965452",
      "price": 10400,
      "lat": 49.8346452,
      "lng": 18.2820440792,
      "sqm": 39,
      "rooms": 1,
      "property_type": "flat",
      "address": "Ostrava",
      "zone": "Ostrava",
      "url": "https://www.sreality.cz/detail/pronajem/byt/1+1/ostrava/1588965452",
      "listing_published_at": "2026-04-20",
      "listing_updated_at": "2026-07-21"
    },
    {
      "id": "sr_1317384268",
      "price": 9400,
      "lat": 49.8346452,
      "lng": 18.2820440792,
      "sqm": 26,
      "rooms": 1,
      "property_type": "flat",
      "address": "Ostrava",
      "zone": "Ostrava",
      "url": "https://www.sreality.cz/detail/pronajem/byt/1+kk/ostrava/1317384268",
      "listing_published_at": "2026-04-20",
      "listing_updated_at": "2026-07-21"
    },
    {
      "id": "sr_1571151948",
      "price": 9700,
      "lat": 49.792119184,
      "lng": 18.2572793053,
      "sqm": 41,
      "rooms": 1,
      "property_type": "flat",
      "address": "Dvouletky, Hrabůvka, Ostrava",
      "zone": "Hrabůvka",
      "url": "https://www.sreality.cz/detail/pronajem/byt/1+1/ostrava-hrabuvka-dvouletky/1571151948",
      "listing_published_at": "2026-07-21",
      "listing_updated_at": "2026-07-21"
    },
    {
      "id": "sr_312860748",
      "price": 14000,
      "lat": 49.7901144936333,
      "lng": 18.2560784203356,
      "sqm": 53,
      "rooms": 2,
      "property_type": "flat",
      "address": "U Nové školy, Hrabůvka, Ostrava",
      "zone": "Hrabůvka",
      "url": "https://www.sreality.cz/detail/pronajem/byt/2+1/ostrava-hrabuvka-u-nove-skoly/312860748",
      "listing_published_at": "2026-07-21",
      "listing_updated_at": "2026-07-21"
    },
    {
      "id": "sr_86483020",
      "price": 10000,
      "lat": 49.80506081747424,
      "lng": 18.242751468295097,
      "sqm": 37,
      "rooms": 2,
      "property_type": "flat",
      "address": "Výškovická, Ostrava",
      "zone": "Výškovická",
      "url": "https://www.sreality.cz/detail/pronajem/byt/2+kk/ostrava-vyskovicka/86483020",
      "listing_published_at": "2026-05-05",
      "listing_updated_at": "2026-07-21"
    },
    {
      "id": "sr_18722892",
      "price": 13500,
      "lat": 49.8402363508422,
      "lng": 18.2858845001193,
      "sqm": 43,
      "rooms": 2,
      "property_type": "flat",
      "address": "30. dubna, Moravská Ostrava, Ostrava",
      "zone": "Moravská Ostrava",
      "url": "https://www.sreality.cz/detail/pronajem/byt/2+kk/ostrava-moravska-ostrava-30-dubna/18722892",
      "listing_published_at": "2026-04-12",
      "listing_updated_at": "2026-07-21"
    },
    {
      "id": "sr_2618142796",
      "price": 14000,
      "lat": 49.8402363508422,
      "lng": 18.2858845001193,
      "sqm": 47,
      "rooms": 2,
      "property_type": "flat",
      "address": "30. dubna, Moravská Ostrava, Ostrava",
      "zone": "Moravská Ostrava",
      "url": "https://www.sreality.cz/detail/pronajem/byt/2+kk/ostrava-moravska-ostrava-30-dubna/2618142796",
      "listing_published_at": "2026-04-12",
      "listing_updated_at": "2026-07-21"
    },
    {
      "id": "sr_3085807692",
      "price": 14500,
      "lat": 49.8402363508422,
      "lng": 18.2858845001193,
      "sqm": 50,
      "rooms": 2,
      "property_type": "flat",
      "address": "30. dubna, Moravská Ostrava, Ostrava",
      "zone": "Moravská Ostrava",
      "url": "https://www.sreality.cz/detail/pronajem/byt/2+kk/ostrava-moravska-ostrava-30-dubna/3085807692",
      "listing_published_at": "2026-04-12",
      "listing_updated_at": "2026-07-21"
    },
    {
      "id": "sr_733278284",
      "price": 13000,
      "lat": 49.8402363508422,
      "lng": 18.2858845001193,
      "sqm": 39,
      "rooms": 2,
      "property_type": "flat",
      "address": "30. dubna, Moravská Ostrava, Ostrava",
      "zone": "Moravská Ostrava",
      "url": "https://www.sreality.cz/detail/pronajem/byt/2+kk/ostrava-moravska-ostrava-30-dubna/733278284",
      "listing_published_at": "2026-07-01",
      "listing_updated_at": "2026-07-21"
    },
    {
      "id": "sr_3084820556",
      "price": 19000,
      "lat": 49.8760902252301,
      "lng": 18.2754023185476,
      "sqm": 88,
      "rooms": 3,
      "property_type": "flat",
      "address": "Koblovská, Ostrava",
      "zone": "Koblovská",
      "url": "https://www.sreality.cz/detail/pronajem/byt/3+kk/ostrava-koblovska/3084820556",
      "listing_published_at": "2026-04-27",
      "listing_updated_at": "2026-07-21"
    },
    {
      "id": "sr_3809771596",
      "price": 8541,
      "lat": 49.80637613964333,
      "lng": 18.24103512069663,
      "sqm": 37,
      "rooms": 2,
      "property_type": "flat",
      "address": "Zábřeh, Ostrava",
      "zone": "Zábřeh",
      "url": "https://www.sreality.cz/detail/pronajem/byt/2+kk/ostrava-zabreh/3809771596",
      "listing_published_at": "2026-06-11",
      "listing_updated_at": "2026-07-21"
    },
    {
      "id": "sr_1576394828",
      "price": 15500,
      "lat": 49.851953584,
      "lng": 18.30236383,
      "sqm": 63,
      "rooms": 2,
      "property_type": "flat",
      "address": "Vdovská, Muglinov, Ostrava",
      "zone": "Muglinov",
      "url": "https://www.sreality.cz/detail/pronajem/byt/2+1/ostrava-muglinov-vdovska/1576394828",
      "listing_published_at": "2026-07-20",
      "listing_updated_at": "2026-07-21"
    },
    {
      "id": "sr_16113740",
      "price": 16900,
      "lat": 49.793762206431154,
      "lng": 18.241799946017387,
      "sqm": 52,
      "rooms": 2,
      "property_type": "flat",
      "address": "Belikovova, Zábřeh, Ostrava",
      "zone": "Zábřeh",
      "url": "https://www.sreality.cz/detail/pronajem/byt/2+1/ostrava-zabreh-belikovova/16113740",
      "listing_published_at": "2026-07-20",
      "listing_updated_at": "2026-07-21"
    },
    {
      "id": "sr_3689275468",
      "price": 23500,
      "lat": 49.757857011654146,
      "lng": 18.242759826161816,
      "sqm": 90,
      "rooms": 3,
      "property_type": "flat",
      "address": "Mitrovická, Stará Bělá, Ostrava",
      "zone": "Stará Bělá",
      "url": "https://www.sreality.cz/detail/pronajem/byt/3+1/ostrava-stara-bela-mitrovicka/3689275468",
      "listing_published_at": "2026-07-20",
      "listing_updated_at": "2026-07-21"
    },
    {
      "id": "sr_386491212",
      "price": 10500,
      "lat": 49.7795056165077,
      "lng": 18.2494958652556,
      "sqm": 38,
      "rooms": 1,
      "property_type": "flat",
      "address": "Bělský Les, Ostrava",
      "zone": "Bělský Les",
      "url": "https://www.sreality.cz/detail/pronajem/byt/1+kk/ostrava-belsky-les/386491212",
      "listing_published_at": "2026-02-13",
      "listing_updated_at": "2026-07-22"
    },
    {
      "id": "sr_1075175500",
      "price": 11500,
      "lat": 49.8414144772281,
      "lng": 18.1751305123952,
      "sqm": 40,
      "rooms": 2,
      "property_type": "flat",
      "address": "Svojsíkova, Poruba, Ostrava",
      "zone": "Poruba",
      "url": "https://www.sreality.cz/detail/pronajem/byt/2+1/ostrava-poruba-svojsikova/1075175500",
      "listing_published_at": "2026-07-20",
      "listing_updated_at": "2026-07-21"
    },
    {
      "id": "sr_1410719820",
      "price": 12900,
      "lat": 49.86036646101004,
      "lng": 18.26447037570953,
      "sqm": 46,
      "rooms": 2,
      "property_type": "flat",
      "address": "Hlučínská, Petřkovice, Ostrava",
      "zone": "Petřkovice",
      "url": "https://www.sreality.cz/detail/pronajem/byt/2+kk/ostrava-petrkovice-hlucinska/1410719820",
      "listing_published_at": "2026-07-20",
      "listing_updated_at": "2026-07-21"
    },
    {
      "id": "sr_3574980684",
      "price": 16900,
      "lat": 49.7904362117472,
      "lng": 18.2643370001046,
      "sqm": 54,
      "rooms": 3,
      "property_type": "flat",
      "address": "Provaznická, Hrabůvka, Ostrava",
      "zone": "Hrabůvka",
      "url": "https://www.sreality.cz/detail/pronajem/byt/3+kk/ostrava-hrabuvka-provaznicka/3574980684",
      "listing_published_at": "2026-07-20",
      "listing_updated_at": "2026-07-20"
    },
    {
      "id": "sr_1745215564",
      "price": 8500,
      "lat": 49.7791672,
      "lng": 18.220006,
      "sqm": 28,
      "rooms": 1,
      "property_type": "flat",
      "address": "Lumírova, Výškovice, Ostrava",
      "zone": "Výškovice",
      "url": "https://www.sreality.cz/detail/pronajem/byt/1+kk/ostrava-vyskovice-lumirova/1745215564",
      "listing_published_at": "2026-07-20",
      "listing_updated_at": "2026-07-20"
    },
    {
      "id": "sr_1010163788",
      "price": 45000,
      "lat": 49.83137105884027,
      "lng": 18.287344436187592,
      "sqm": 119,
      "rooms": 4,
      "property_type": "flat",
      "address": "Na Prádle, Moravská Ostrava, Ostrava",
      "zone": "Moravská Ostrava",
      "url": "https://www.sreality.cz/detail/pronajem/byt/4+kk/ostrava-moravska-ostrava-na-pradle/1010163788",
      "listing_published_at": "2026-07-20",
      "listing_updated_at": "2026-07-20"
    },
    {
      "id": "sr_2908086348",
      "price": 13900,
      "lat": 49.7800685490848,
      "lng": 18.226684062817267,
      "sqm": 80,
      "rooms": 3,
      "property_type": "flat",
      "address": "29. dubna, Výškovice, Ostrava",
      "zone": "Výškovice",
      "url": "https://www.sreality.cz/detail/pronajem/byt/3+1/ostrava-vyskovice-29-dubna/2908086348",
      "listing_published_at": "2026-07-20",
      "listing_updated_at": "2026-07-20"
    },
    {
      "id": "sr_4119629900",
      "price": 23550,
      "lat": 49.8385137371,
      "lng": 18.2850163485,
      "sqm": 122,
      "rooms": 4,
      "property_type": "flat",
      "address": "Českobratrská, Moravská Ostrava, Ostrava",
      "zone": "Moravská Ostrava",
      "url": "https://www.sreality.cz/detail/pronajem/byt/4+1/ostrava-moravska-ostrava-ceskobratrska/4119629900",
      "listing_published_at": "2026-05-17",
      "listing_updated_at": "2026-07-20"
    },
    {
      "id": "sr_3438055500",
      "price": 7750,
      "lat": 49.780526156116,
      "lng": 18.2255256671006,
      "sqm": 31,
      "rooms": 1,
      "property_type": "flat",
      "address": "29. dubna, Výškovice, Ostrava",
      "zone": "Výškovice",
      "url": "https://www.sreality.cz/detail/pronajem/byt/1+1/ostrava-vyskovice-29-dubna/3438055500",
      "listing_published_at": "2026-05-16",
      "listing_updated_at": "2026-07-20"
    },
    {
      "id": "sr_1519837260",
      "price": 19990,
      "lat": 49.834561437,
      "lng": 18.289453147,
      "sqm": 114,
      "rooms": 3,
      "property_type": "flat",
      "address": "Tyršova, Moravská Ostrava, Ostrava",
      "zone": "Moravská Ostrava",
      "url": "https://www.sreality.cz/detail/pronajem/byt/3+1/ostrava-moravska-ostrava-tyrsova/1519837260",
      "listing_published_at": "2026-07-20",
      "listing_updated_at": "2026-07-20"
    },
    {
      "id": "sr_2251784268",
      "price": 6500,
      "lat": 49.8540904865809,
      "lng": 18.261637380994,
      "sqm": 27,
      "rooms": 1,
      "property_type": "flat",
      "address": "Palackého, Přívoz, Ostrava",
      "zone": "Přívoz",
      "url": "https://www.sreality.cz/detail/pronajem/byt/1+kk/ostrava-privoz-palackeho/2251784268",
      "listing_published_at": "2026-06-08",
      "listing_updated_at": "2026-07-20"
    },
    {
      "id": "sr_566091852",
      "price": 14000,
      "lat": 49.8238422612682,
      "lng": 18.1682781899436,
      "sqm": 56,
      "rooms": 2,
      "property_type": "flat",
      "address": "nábřeží Svazu protifašistických bojovníků, Poruba, Ostrava",
      "zone": "Poruba",
      "url": "https://www.sreality.cz/detail/pronajem/byt/2+1/ostrava-poruba-nabrezi-svazu-protifasistickych-bojovniku/566091852",
      "listing_published_at": "2026-07-10",
      "listing_updated_at": "2026-07-20"
    },
    {
      "id": "sr_414638156",
      "price": 16000,
      "lat": 49.806183593175454,
      "lng": 18.236836235950133,
      "sqm": 74,
      "rooms": 3,
      "property_type": "flat",
      "address": "Horymírova, Zábřeh, Ostrava",
      "zone": "Zábřeh",
      "url": "https://www.sreality.cz/detail/pronajem/byt/3+1/ostrava-zabreh-horymirova/414638156",
      "listing_published_at": "2026-07-20",
      "listing_updated_at": "2026-07-20"
    },
    {
      "id": "sr_563307340",
      "price": 14900,
      "lat": 49.7887323958,
      "lng": 18.2588359803,
      "sqm": 54,
      "rooms": 3,
      "property_type": "flat",
      "address": "Provaznická, Hrabůvka, Ostrava",
      "zone": "Hrabůvka",
      "url": "https://www.sreality.cz/detail/pronajem/byt/3+1/ostrava-hrabuvka-provaznicka/563307340",
      "listing_published_at": "2026-02-20",
      "listing_updated_at": "2026-07-20"
    },
    {
      "id": "sr_2287919180",
      "price": 13800,
      "lat": 49.8293426386,
      "lng": 18.2659317673,
      "sqm": 52,
      "rooms": 2,
      "property_type": "flat",
      "address": "28. října, Moravská Ostrava, Ostrava",
      "zone": "Moravská Ostrava",
      "url": "https://www.sreality.cz/detail/pronajem/byt/2+1/ostrava-moravska-ostrava-28-rijna/2287919180",
      "listing_published_at": "2026-07-08",
      "listing_updated_at": "2026-07-20"
    },
    {
      "id": "sr_267096140",
      "price": 12100,
      "lat": 49.8658584671839,
      "lng": 18.2891415409906,
      "sqm": 56,
      "rooms": 2,
      "property_type": "flat",
      "address": "Bohumínská, Slezská Ostrava, Ostrava",
      "zone": "Slezská Ostrava",
      "url": "https://www.sreality.cz/detail/pronajem/byt/2+1/ostrava-slezska-ostrava-bohuminska/267096140",
      "listing_published_at": "2026-05-09",
      "listing_updated_at": "2026-07-23"
    },
    {
      "id": "sr_3015807052",
      "price": 12500,
      "lat": 49.7931520466285,
      "lng": 18.2330908059091,
      "sqm": 50,
      "rooms": 2,
      "property_type": "flat",
      "address": "Averinova, Zábřeh, Ostrava",
      "zone": "Zábřeh",
      "url": "https://www.sreality.cz/detail/pronajem/byt/2+1/ostrava-zabreh-averinova/3015807052",
      "listing_published_at": "2026-05-19",
      "listing_updated_at": "2026-07-20"
    },
    {
      "id": "sr_1839038540",
      "price": 11900,
      "lat": 49.8293426386,
      "lng": 18.2659317673,
      "sqm": 69,
      "rooms": 2,
      "property_type": "flat",
      "address": "28. října, Ostrava",
      "zone": "28. října",
      "url": "https://www.sreality.cz/detail/pronajem/byt/2+1/ostrava-28-rijna/1839038540",
      "listing_published_at": "2026-06-02",
      "listing_updated_at": "2026-07-20"
    },
    {
      "id": "sr_3603689548",
      "price": 15000,
      "lat": 49.827555972146364,
      "lng": 18.252823041607908,
      "sqm": 70,
      "rooms": 3,
      "property_type": "flat",
      "address": "Oblá, Mariánské Hory, Ostrava",
      "zone": "Mariánské Hory",
      "url": "https://www.sreality.cz/detail/pronajem/byt/3+1/ostrava-marianske-hory-obla/3603689548",
      "listing_published_at": "2026-06-12",
      "listing_updated_at": "2026-07-20"
    },
    {
      "id": "sr_1205264460",
      "price": 13000,
      "lat": 49.7909862527,
      "lng": 18.2438570586,
      "sqm": 50,
      "rooms": 2,
      "property_type": "flat",
      "address": "Bolotova, Zábřeh, Ostrava",
      "zone": "Zábřeh",
      "url": "https://www.sreality.cz/detail/pronajem/byt/2+1/ostrava-zabreh-bolotova/1205264460",
      "listing_published_at": "2026-07-20",
      "listing_updated_at": "2026-07-20"
    },
    {
      "id": "sr_2881937484",
      "price": 9400,
      "lat": 49.8353037699429,
      "lng": 18.1814300980273,
      "sqm": 24,
      "rooms": 1,
      "property_type": "flat",
      "address": "náměstí Družby, Poruba, Ostrava",
      "zone": "Poruba",
      "url": "https://www.sreality.cz/detail/pronajem/byt/1+kk/ostrava-poruba-namesti-druzby/2881937484",
      "listing_published_at": "2026-07-20",
      "listing_updated_at": "2026-07-23"
    },
    {
      "id": "sr_1942413388",
      "price": 13850,
      "lat": 49.8247263889,
      "lng": 18.1834161111,
      "sqm": 53,
      "rooms": 2,
      "property_type": "flat",
      "address": "Francouzská, Poruba, Ostrava",
      "zone": "Poruba",
      "url": "https://www.sreality.cz/detail/pronajem/byt/2+kk/ostrava-poruba-francouzska/1942413388",
      "listing_published_at": "2026-07-20",
      "listing_updated_at": "2026-07-20"
    },
    {
      "id": "sr_3821461580",
      "price": 11300,
      "lat": 49.8328677778,
      "lng": 18.1704102778,
      "sqm": 54,
      "rooms": 2,
      "property_type": "flat",
      "address": "Opletalova, Poruba, Ostrava",
      "zone": "Poruba",
      "url": "https://www.sreality.cz/detail/pronajem/byt/2+1/ostrava-poruba-opletalova/3821461580",
      "listing_published_at": "2026-07-20",
      "listing_updated_at": "2026-07-20"
    },
    {
      "id": "sr_818339916",
      "price": 11300,
      "lat": 49.8332783333,
      "lng": 18.1706713889,
      "sqm": 60,
      "rooms": 2,
      "property_type": "flat",
      "address": "Opletalova, Poruba, Ostrava",
      "zone": "Poruba",
      "url": "https://www.sreality.cz/detail/pronajem/byt/2+1/ostrava-poruba-opletalova/818339916",
      "listing_published_at": "2026-07-20",
      "listing_updated_at": "2026-07-20"
    },
    {
      "id": "sr_13033548",
      "price": 14100,
      "lat": 49.8333486111,
      "lng": 18.1713297222,
      "sqm": 62,
      "rooms": 2,
      "property_type": "flat",
      "address": "Opletalova, Poruba, Ostrava",
      "zone": "Poruba",
      "url": "https://www.sreality.cz/detail/pronajem/byt/2+1/ostrava-poruba-opletalova/13033548",
      "listing_published_at": "2026-07-20",
      "listing_updated_at": "2026-07-20"
    },
    {
      "id": "sr_2697388108",
      "price": 12300,
      "lat": 49.8307258333,
      "lng": 18.1677222222,
      "sqm": 59,
      "rooms": 2,
      "property_type": "flat",
      "address": "Havanská, Poruba, Ostrava",
      "zone": "Poruba",
      "url": "https://www.sreality.cz/detail/pronajem/byt/2+1/ostrava-poruba-havanska/2697388108",
      "listing_published_at": "2026-07-20",
      "listing_updated_at": "2026-07-20"
    },
    {
      "id": "sr_4039565388",
      "price": 12450,
      "lat": 49.8313133333,
      "lng": 18.1680727778,
      "sqm": 64,
      "rooms": 2,
      "property_type": "flat",
      "address": "Havlíčkovo náměstí, Poruba, Ostrava",
      "zone": "Poruba",
      "url": "https://www.sreality.cz/detail/pronajem/byt/2+1/ostrava-poruba-havlickovo-namesti/4039565388",
      "listing_published_at": "2026-07-20",
      "listing_updated_at": "2026-07-21"
    },
    {
      "id": "sr_3234259020",
      "price": 14950,
      "lat": 49.8312625,
      "lng": 18.1683911111,
      "sqm": 68,
      "rooms": 2,
      "property_type": "flat",
      "address": "Havlíčkovo náměstí, Poruba, Ostrava",
      "zone": "Poruba",
      "url": "https://www.sreality.cz/detail/pronajem/byt/2+kk/ostrava-poruba-havlickovo-namesti/3234259020",
      "listing_published_at": "2026-07-20",
      "listing_updated_at": "2026-07-21"
    },
    {
      "id": "sr_1012039756",
      "price": 16500,
      "lat": 49.8050496712046,
      "lng": 18.2296013290384,
      "sqm": 45,
      "rooms": 2,
      "property_type": "flat",
      "address": "Markova, Zábřeh, Ostrava",
      "zone": "Zábřeh",
      "url": "https://www.sreality.cz/detail/pronajem/byt/2+1/ostrava-zabreh-markova/1012039756",
      "listing_published_at": "2026-06-04",
      "listing_updated_at": "2026-07-20"
    },
    {
      "id": "sr_1640423500",
      "price": 10600,
      "lat": 49.8291977778,
      "lng": 18.1636238889,
      "sqm": 38,
      "rooms": 2,
      "property_type": "flat",
      "address": "17. listopadu, Poruba, Ostrava",
      "zone": "Poruba",
      "url": "https://www.sreality.cz/detail/pronajem/byt/2+kk/ostrava-poruba-17-listopadu/1640423500",
      "listing_published_at": "2026-07-20",
      "listing_updated_at": "2026-07-20"
    },
    {
      "id": "sr_2982600780",
      "price": 13050,
      "lat": 49.8280963889,
      "lng": 18.1661375,
      "sqm": 56,
      "rooms": 2,
      "property_type": "flat",
      "address": "Komenského, Poruba, Ostrava",
      "zone": "Poruba",
      "url": "https://www.sreality.cz/detail/pronajem/byt/2+1/ostrava-poruba-komenskeho/2982600780",
      "listing_published_at": "2026-07-20",
      "listing_updated_at": "2026-07-21"
    },
    {
      "id": "sr_2177294412",
      "price": 15950,
      "lat": 49.8273166667,
      "lng": 18.1637430556,
      "sqm": 80,
      "rooms": 3,
      "property_type": "flat",
      "address": "náměstí Boženy Němcové, Poruba, Ostrava",
      "zone": "Poruba",
      "url": "https://www.sreality.cz/detail/pronajem/byt/3+1/ostrava-poruba-namesti-bozeny-nemcove/2177294412",
      "listing_published_at": "2026-07-20",
      "listing_updated_at": "2026-07-21"
    },
    {
      "id": "sr_650567756",
      "price": 13950,
      "lat": 49.8280625,
      "lng": 18.1634338889,
      "sqm": 78,
      "rooms": 3,
      "property_type": "flat",
      "address": "Matěje Kopeckého, Poruba, Ostrava",
      "zone": "Poruba",
      "url": "https://www.sreality.cz/detail/pronajem/byt/3+1/ostrava-poruba-mateje-kopeckeho/650567756",
      "listing_published_at": "2026-07-20",
      "listing_updated_at": "2026-07-20"
    },
    {
      "id": "sr_2529615948",
      "price": 14300,
      "lat": 49.8438783333,
      "lng": 18.3162858333,
      "sqm": 72,
      "rooms": 3,
      "property_type": "flat",
      "address": "Michálkovická, Slezská Ostrava, Ostrava",
      "zone": "Slezská Ostrava",
      "url": "https://www.sreality.cz/detail/pronajem/byt/3+1/ostrava-slezska-ostrava-michalkovicka/2529615948",
      "listing_published_at": "2026-07-20",
      "listing_updated_at": "2026-07-21"
    },
    {
      "id": "sr_935780428",
      "price": 11000,
      "lat": 49.8235186111,
      "lng": 18.2667830556,
      "sqm": 55,
      "rooms": 2,
      "property_type": "flat",
      "address": "Výstavní, Mariánské Hory, Ostrava",
      "zone": "Mariánské Hory",
      "url": "https://www.sreality.cz/detail/pronajem/byt/2+1/ostrava-marianske-hory-vystavni/935780428",
      "listing_published_at": "2026-07-20",
      "listing_updated_at": "2026-07-20"
    },
    {
      "id": "sr_130474060",
      "price": 12000,
      "lat": 49.8252591667,
      "lng": 18.2751736111,
      "sqm": 56,
      "rooms": 2,
      "property_type": "flat",
      "address": "Gajdošova, Moravská Ostrava, Ostrava",
      "zone": "Moravská Ostrava",
      "url": "https://www.sreality.cz/detail/pronajem/byt/2+1/ostrava-moravska-ostrava-gajdosova/130474060",
      "listing_published_at": "2026-07-20",
      "listing_updated_at": "2026-07-20"
    },
    {
      "id": "sr_2814828620",
      "price": 15650,
      "lat": 49.8247377778,
      "lng": 18.2667516667,
      "sqm": 70,
      "rooms": 3,
      "property_type": "flat",
      "address": "Výstavní, Moravská Ostrava, Ostrava",
      "zone": "Moravská Ostrava",
      "url": "https://www.sreality.cz/detail/pronajem/byt/3+1/ostrava-moravska-ostrava-vystavni/2814828620",
      "listing_published_at": "2026-07-20",
      "listing_updated_at": "2026-07-20"
    },
    {
      "id": "sr_4157005900",
      "price": 12650,
      "lat": 49.7895172222,
      "lng": 18.2333744444,
      "sqm": 50,
      "rooms": 2,
      "property_type": "flat",
      "address": "Svazácká, Zábřeh, Ostrava",
      "zone": "Zábřeh",
      "url": "https://www.sreality.cz/detail/pronajem/byt/2+1/ostrava-zabreh-svazacka/4157005900",
      "listing_published_at": "2026-07-20",
      "listing_updated_at": "2026-07-20"
    },
    {
      "id": "sr_348577868",
      "price": 10200,
      "lat": 49.8266180556,
      "lng": 18.2677638889,
      "sqm": 44,
      "rooms": 1,
      "property_type": "flat",
      "address": "Havířská, Moravská Ostrava, Ostrava",
      "zone": "Moravská Ostrava",
      "url": "https://www.sreality.cz/detail/pronajem/byt/1+1/ostrava-moravska-ostrava-havirska/348577868",
      "listing_published_at": "2026-07-20",
      "listing_updated_at": "2026-07-20"
    },
    {
      "id": "sr_1690755148",
      "price": 14200,
      "lat": 49.8401488889,
      "lng": 18.2879652778,
      "sqm": 56,
      "rooms": 2,
      "property_type": "flat",
      "address": "Veleslavínova, Moravská Ostrava, Ostrava",
      "zone": "Moravská Ostrava",
      "url": "https://www.sreality.cz/detail/pronajem/byt/2+kk/ostrava-moravska-ostrava-veleslavinova/1690755148",
      "listing_published_at": "2026-07-20",
      "listing_updated_at": "2026-07-20"
    },
    {
      "id": "sr_2227626060",
      "price": 11650,
      "lat": 49.8438094444,
      "lng": 18.28184,
      "sqm": 39,
      "rooms": 1,
      "property_type": "flat",
      "address": "Nádražní, Moravská Ostrava, Ostrava",
      "zone": "Moravská Ostrava",
      "url": "https://www.sreality.cz/detail/pronajem/byt/1+1/ostrava-moravska-ostrava-nadrazni/2227626060",
      "listing_published_at": "2026-07-20",
      "listing_updated_at": "2026-07-20"
    },
    {
      "id": "sr_3569803340",
      "price": 12200,
      "lat": 49.8489913889,
      "lng": 18.2848325,
      "sqm": 57,
      "rooms": 2,
      "property_type": "flat",
      "address": "Hrušovská, Moravská Ostrava, Ostrava",
      "zone": "Moravská Ostrava",
      "url": "https://www.sreality.cz/detail/pronajem/byt/2+1/ostrava-moravska-ostrava-hrusovska/3569803340",
      "listing_published_at": "2026-07-20",
      "listing_updated_at": "2026-07-20"
    },
    {
      "id": "sr_633790540",
      "price": 12100,
      "lat": 49.8400588889,
      "lng": 18.2876705556,
      "sqm": 37,
      "rooms": 1,
      "property_type": "flat",
      "address": "Veleslavínova, Moravská Ostrava, Ostrava",
      "zone": "Moravská Ostrava",
      "url": "https://www.sreality.cz/detail/pronajem/byt/1+kk/ostrava-moravska-ostrava-veleslavinova/633790540",
      "listing_published_at": "2026-07-20",
      "listing_updated_at": "2026-07-20"
    },
    {
      "id": "sr_1975967820",
      "price": 14550,
      "lat": 49.7938955556,
      "lng": 18.2240480556,
      "sqm": 65,
      "rooms": 3,
      "property_type": "flat",
      "address": "Petruškova, Zábřeh, Ostrava",
      "zone": "Zábřeh",
      "url": "https://www.sreality.cz/detail/pronajem/byt/3+1/ostrava-zabreh-petruskova/1975967820",
      "listing_published_at": "2026-07-20",
      "listing_updated_at": "2026-07-20"
    },
    {
      "id": "sr_1170661452",
      "price": 13100,
      "lat": 49.7760941667,
      "lng": 18.2235933333,
      "sqm": 56,
      "rooms": 2,
      "property_type": "flat",
      "address": "Srbská, Výškovice, Ostrava",
      "zone": "Výškovice",
      "url": "https://www.sreality.cz/detail/pronajem/byt/2+1/ostrava-vyskovice-srbska/1170661452",
      "listing_published_at": "2026-07-20",
      "listing_updated_at": "2026-07-20"
    },
    {
      "id": "sr_989257804",
      "price": 13550,
      "lat": 49.8436811111,
      "lng": 18.2870466667,
      "sqm": 56,
      "rooms": 2,
      "property_type": "flat",
      "address": "Gregorova, Moravská Ostrava, Ostrava",
      "zone": "Moravská Ostrava",
      "url": "https://www.sreality.cz/detail/pronajem/byt/2+1/ostrava-moravska-ostrava-gregorova/989257804",
      "listing_published_at": "2026-07-20",
      "listing_updated_at": "2026-07-20"
    },
    {
      "id": "sr_183951436",
      "price": 15850,
      "lat": 49.8411438889,
      "lng": 18.2873086111,
      "sqm": 83,
      "rooms": 3,
      "property_type": "flat",
      "address": "Na Desátém, Moravská Ostrava, Ostrava",
      "zone": "Moravská Ostrava",
      "url": "https://www.sreality.cz/detail/pronajem/byt/3+kk/ostrava-moravska-ostrava-na-desatem/183951436",
      "listing_published_at": "2026-07-20",
      "listing_updated_at": "2026-07-20"
    },
    {
      "id": "sr_1526128716",
      "price": 15400,
      "lat": 49.8436444444,
      "lng": 18.2835838889,
      "sqm": 70,
      "rooms": 3,
      "property_type": "flat",
      "address": "Zborovská, Moravská Ostrava, Ostrava",
      "zone": "Moravská Ostrava",
      "url": "https://www.sreality.cz/detail/pronajem/byt/3+1/ostrava-moravska-ostrava-zborovska/1526128716",
      "listing_published_at": "2026-07-20",
      "listing_updated_at": "2026-07-20"
    },
    {
      "id": "sr_2868305996",
      "price": 10500,
      "lat": 49.7826633691025,
      "lng": 18.2614630762705,
      "sqm": 58,
      "rooms": 2,
      "property_type": "flat",
      "address": "Františka Hajdy, Hrabůvka, Ostrava",
      "zone": "Hrabůvka",
      "url": "https://www.sreality.cz/detail/pronajem/byt/2+1/ostrava-hrabuvka-frantiska-hajdy/2868305996",
      "listing_published_at": "2026-07-20",
      "listing_updated_at": "2026-07-20"
    },
    {
      "id": "sr_4210483276",
      "price": 13400,
      "lat": 49.8411977778,
      "lng": 18.2863055556,
      "sqm": 39,
      "rooms": 1,
      "property_type": "flat",
      "address": "Na Desátém, Moravská Ostrava, Ostrava",
      "zone": "Moravská Ostrava",
      "url": "https://www.sreality.cz/detail/pronajem/byt/1+1/ostrava-moravska-ostrava-na-desatem/4210483276",
      "listing_published_at": "2026-07-20",
      "listing_updated_at": "2026-07-20"
    },
    {
      "id": "sr_469164108",
      "price": 13500,
      "lat": 49.8311883333,
      "lng": 18.2559083333,
      "sqm": 56,
      "rooms": 2,
      "property_type": "flat",
      "address": "Korunní, Mariánské Hory, Ostrava",
      "zone": "Mariánské Hory",
      "url": "https://www.sreality.cz/detail/pronajem/byt/2+1/ostrava-marianske-hory-korunni/469164108",
      "listing_published_at": "2026-07-20",
      "listing_updated_at": "2026-07-20"
    },
    {
      "id": "sr_2348212300",
      "price": 12900,
      "lat": 49.8388952778,
      "lng": 18.2894105556,
      "sqm": 40,
      "rooms": 1,
      "property_type": "flat",
      "address": "Přívozská, Moravská Ostrava, Ostrava",
      "zone": "Moravská Ostrava",
      "url": "https://www.sreality.cz/detail/pronajem/byt/1+kk/ostrava-moravska-ostrava-privozska/2348212300",
      "listing_published_at": "2026-07-20",
      "listing_updated_at": "2026-07-20"
    },
    {
      "id": "sr_2784419916",
      "price": 14000,
      "lat": 49.785818392,
      "lng": 18.229100251,
      "sqm": 54,
      "rooms": 2,
      "property_type": "flat",
      "address": "Svornosti, Zábřeh, Ostrava",
      "zone": "Zábřeh",
      "url": "https://www.sreality.cz/detail/pronajem/byt/2+1/ostrava-zabreh-svornosti/2784419916",
      "listing_published_at": "2026-07-20",
      "listing_updated_at": "2026-07-22"
    },
    {
      "id": "sr_3801976908",
      "price": 45000,
      "lat": 49.82979611577351,
      "lng": 18.287715961213124,
      "sqm": 124,
      "rooms": 4,
      "property_type": "flat",
      "address": "náměstí Biskupa Bruna, Moravská Ostrava, Ostrava",
      "zone": "Moravská Ostrava",
      "url": "https://www.sreality.cz/detail/pronajem/byt/4+kk/ostrava-moravska-ostrava-namesti-biskupa-bruna/3801976908",
      "listing_published_at": "2026-05-15",
      "listing_updated_at": "2026-07-20"
    },
    {
      "id": "sr_3524714572",
      "price": 22000,
      "lat": 49.78606012874937,
      "lng": 18.13324048971866,
      "sqm": 66,
      "rooms": 2,
      "property_type": "flat",
      "address": "Hradilova, Klimkovice, Klimkovice",
      "zone": "Klimkovice",
      "url": "https://www.sreality.cz/detail/pronajem/byt/2+kk/klimkovice-klimkovice-hradilova/3524714572",
      "listing_published_at": "2026-07-19",
      "listing_updated_at": "2026-07-19"
    },
    {
      "id": "sr_3222724684",
      "price": 27000,
      "lat": 49.78592394959473,
      "lng": 18.133214041421464,
      "sqm": 89,
      "rooms": 2,
      "property_type": "flat",
      "address": "Hradilova, Klimkovice, Klimkovice",
      "zone": "Klimkovice",
      "url": "https://www.sreality.cz/detail/pronajem/byt/2+kk/klimkovice-klimkovice-hradilova/3222724684",
      "listing_published_at": "2026-07-19",
      "listing_updated_at": "2026-07-19"
    },
    {
      "id": "sr_3879133260",
      "price": 10000,
      "lat": 49.8413816791299,
      "lng": 18.2673812494594,
      "sqm": 36,
      "rooms": 1,
      "property_type": "flat",
      "address": "Josefa Brabce, Moravská Ostrava, Ostrava",
      "zone": "Moravská Ostrava",
      "url": "https://www.sreality.cz/detail/pronajem/byt/1+1/ostrava-moravska-ostrava-josefa-brabce/3879133260",
      "listing_published_at": "2026-07-19",
      "listing_updated_at": "2026-07-19"
    },
    {
      "id": "sr_328659020",
      "price": 14000,
      "lat": 49.8270096345244,
      "lng": 18.1787284045712,
      "sqm": 81,
      "rooms": 3,
      "property_type": "flat",
      "address": "Hlavní třída, Poruba, Ostrava",
      "zone": "Poruba",
      "url": "https://www.sreality.cz/detail/pronajem/byt/3+1/ostrava-poruba-hlavni-trida/328659020",
      "listing_published_at": "2026-06-29",
      "listing_updated_at": "2026-07-19"
    },
    {
      "id": "sr_131260492",
      "price": 32000,
      "lat": 49.8380168342189,
      "lng": 18.3070529050986,
      "sqm": 163,
      "rooms": 3,
      "property_type": "flat",
      "address": "Prokopská, Slezská Ostrava, Ostrava",
      "zone": "Slezská Ostrava",
      "url": "https://www.sreality.cz/detail/pronajem/byt/3+1/ostrava-slezska-ostrava-prokopska/131260492",
      "listing_published_at": "2026-07-14",
      "listing_updated_at": "2026-07-19"
    },
    {
      "id": "sr_2819621708",
      "price": 35000,
      "lat": 49.8291641164823,
      "lng": 18.2661750008016,
      "sqm": 105,
      "rooms": 4,
      "property_type": "flat",
      "address": "28. října, Moravská Ostrava, Ostrava",
      "zone": "Moravská Ostrava",
      "url": "https://www.sreality.cz/detail/pronajem/byt/4+kk/ostrava-moravska-ostrava-28-rijna/2819621708",
      "listing_published_at": "2026-01-17",
      "listing_updated_at": "2026-07-19"
    },
    {
      "id": "sr_281830220",
      "price": 15900,
      "lat": 49.828647055843,
      "lng": 18.2548510221099,
      "sqm": 42,
      "rooms": 2,
      "property_type": "flat",
      "address": "Slavníkovců, Mariánské Hory, Ostrava",
      "zone": "Mariánské Hory",
      "url": "https://www.sreality.cz/detail/pronajem/byt/2+kk/ostrava-marianske-hory-slavnikovcu/281830220",
      "listing_published_at": "2026-02-19",
      "listing_updated_at": "2026-07-19"
    },
    {
      "id": "sr_3155595340",
      "price": 17000,
      "lat": 49.8267939053962,
      "lng": 18.2733993308959,
      "sqm": 50,
      "rooms": 2,
      "property_type": "flat",
      "address": "Na Jízdárně, Moravská Ostrava, Ostrava",
      "zone": "Moravská Ostrava",
      "url": "https://www.sreality.cz/detail/pronajem/byt/2+1/ostrava-moravska-ostrava-na-jizdarne/3155595340",
      "listing_published_at": "2026-05-22",
      "listing_updated_at": "2026-07-19"
    },
    {
      "id": "sr_3837517900",
      "price": 10000,
      "lat": 49.7924329138,
      "lng": 18.2651488278,
      "sqm": 40,
      "rooms": 1,
      "property_type": "flat",
      "address": "Hasičská, Hrabůvka, Ostrava",
      "zone": "Hrabůvka",
      "url": "https://www.sreality.cz/detail/pronajem/byt/1+kk/ostrava-hrabuvka-hasicska/3837517900",
      "listing_published_at": "2026-07-02",
      "listing_updated_at": "2026-07-19"
    },
    {
      "id": "sr_2712133708",
      "price": 18900,
      "lat": 49.8263554359422,
      "lng": 18.1802906944141,
      "sqm": 55,
      "rooms": 2,
      "property_type": "flat",
      "address": "Hlavní třída, Poruba, Ostrava",
      "zone": "Poruba",
      "url": "https://www.sreality.cz/detail/pronajem/byt/2+1/ostrava-poruba-hlavni-trida/2712133708",
      "listing_published_at": "2026-07-17",
      "listing_updated_at": "2026-07-19"
    },
    {
      "id": "sr_411557964",
      "price": 18900,
      "lat": 49.7889656244478,
      "lng": 18.2532793085445,
      "sqm": 62,
      "rooms": 3,
      "property_type": "flat",
      "address": "Mitušova, Hrabůvka, Ostrava",
      "zone": "Hrabůvka",
      "url": "https://www.sreality.cz/detail/pronajem/byt/3+1/ostrava-hrabuvka-mitusova/411557964",
      "listing_published_at": "2026-07-18",
      "listing_updated_at": "2026-07-20"
    },
    {
      "id": "sr_4116111436",
      "price": 12000,
      "lat": 49.835342986548966,
      "lng": 18.181184007217666,
      "sqm": 56,
      "rooms": 2,
      "property_type": "flat",
      "address": "náměstí Družby, Poruba, Ostrava",
      "zone": "Poruba",
      "url": "https://www.sreality.cz/detail/pronajem/byt/2+1/ostrava-poruba-namesti-druzby/4116111436",
      "listing_published_at": "2026-07-19",
      "listing_updated_at": "2026-07-19"
    },
    {
      "id": "sr_256303180",
      "price": 9000,
      "lat": 49.8479030220269,
      "lng": 18.2779219055811,
      "sqm": 40,
      "rooms": 1,
      "property_type": "flat",
      "address": "Repinova, Moravská Ostrava, Ostrava",
      "zone": "Moravská Ostrava",
      "url": "https://www.sreality.cz/detail/pronajem/byt/1+1/ostrava-moravska-ostrava-repinova/256303180",
      "listing_published_at": "2026-07-19",
      "listing_updated_at": "2026-07-19"
    },
    {
      "id": "sr_862380108",
      "price": 11400,
      "lat": 49.7926541818199,
      "lng": 18.2519109918318,
      "sqm": 56,
      "rooms": 2,
      "property_type": "flat",
      "address": "Jubilejní, Hrabůvka, Ostrava",
      "zone": "Hrabůvka",
      "url": "https://www.sreality.cz/detail/pronajem/byt/2+1/ostrava-hrabuvka-jubilejni/862380108",
      "listing_published_at": "2026-07-18",
      "listing_updated_at": "2026-07-18"
    },
    {
      "id": "sr_1368907852",
      "price": 13800,
      "lat": 49.847486341,
      "lng": 18.27840251,
      "sqm": 67,
      "rooms": 2,
      "property_type": "flat",
      "address": "Repinova, Moravská Ostrava, Ostrava",
      "zone": "Moravská Ostrava",
      "url": "https://www.sreality.cz/detail/pronajem/byt/2+1/ostrava-moravska-ostrava-repinova/1368907852",
      "listing_published_at": "2026-07-18",
      "listing_updated_at": "2026-07-18"
    },
    {
      "id": "sr_1077928012",
      "price": 11000,
      "lat": 49.77995932991591,
      "lng": 18.27565827851664,
      "sqm": 68,
      "rooms": 3,
      "property_type": "flat",
      "address": "Viktora Huga, Hrabová, Ostrava",
      "zone": "Hrabová",
      "url": "https://www.sreality.cz/detail/pronajem/byt/3+1/ostrava-hrabova-viktora-huga/1077928012",
      "listing_published_at": "2026-07-08",
      "listing_updated_at": "2026-07-18"
    },
    {
      "id": "sr_802869324",
      "price": 12600,
      "lat": 49.7879502942211,
      "lng": 18.2332727574017,
      "sqm": 58,
      "rooms": 2,
      "property_type": "flat",
      "address": "Krasnoarmejců, Zábřeh, Ostrava",
      "zone": "Zábřeh",
      "url": "https://www.sreality.cz/detail/pronajem/byt/2+1/ostrava-zabreh-krasnoarmejcu/802869324",
      "listing_published_at": "2026-07-23",
      "listing_updated_at": "2026-07-23"
    },
    {
      "id": "sr_2645024844",
      "price": 15500,
      "lat": 49.8289310249073,
      "lng": 18.185966733479,
      "sqm": 54,
      "rooms": 2,
      "property_type": "flat",
      "address": "Francouzská, Poruba, Ostrava",
      "zone": "Poruba",
      "url": "https://www.sreality.cz/detail/pronajem/byt/2+kk/ostrava-poruba-francouzska/2645024844",
      "listing_published_at": "2026-07-17",
      "listing_updated_at": "2026-07-17"
    },
    {
      "id": "sr_1453887564",
      "price": 30000,
      "lat": 49.8296289383,
      "lng": 18.2877538517,
      "sqm": 67,
      "rooms": 2,
      "property_type": "flat",
      "address": "náměstí Biskupa Bruna, Moravská Ostrava, Ostrava",
      "zone": "Moravská Ostrava",
      "url": "https://www.sreality.cz/detail/pronajem/byt/2+kk/ostrava-moravska-ostrava-namesti-biskupa-bruna/1453887564",
      "listing_published_at": "2026-05-12",
      "listing_updated_at": "2026-07-17"
    },
    {
      "id": "sr_1024192588",
      "price": 14500,
      "lat": 49.7879502942211,
      "lng": 18.2332727574017,
      "sqm": 53,
      "rooms": 2,
      "property_type": "flat",
      "address": "Krasnoarmejců, Zábřeh, Ostrava",
      "zone": "Zábřeh",
      "url": "https://www.sreality.cz/detail/pronajem/byt/2+1/ostrava-zabreh-krasnoarmejcu/1024192588",
      "listing_published_at": "2026-06-12",
      "listing_updated_at": "2026-07-17"
    },
    {
      "id": "sr_3977109580",
      "price": 14000,
      "lat": 49.78744070199565,
      "lng": 18.25262025910906,
      "sqm": 52,
      "rooms": 2,
      "property_type": "flat",
      "address": "Hrabůvka, Ostrava",
      "zone": "Hrabůvka",
      "url": "https://www.sreality.cz/detail/pronajem/byt/2+kk/ostrava-hrabuvka/3977109580",
      "listing_published_at": "2026-07-10",
      "listing_updated_at": "2026-07-17"
    },
    {
      "id": "sr_3544293452",
      "price": 11000,
      "lat": 49.835211,
      "lng": 18.270983,
      "sqm": 44,
      "rooms": 1,
      "property_type": "flat",
      "address": "Varenská, Moravská Ostrava, Ostrava",
      "zone": "Moravská Ostrava",
      "url": "https://www.sreality.cz/detail/pronajem/byt/1+1/ostrava-moravska-ostrava-varenska/3544293452",
      "listing_published_at": "2026-05-02",
      "listing_updated_at": "2026-07-17"
    },
    {
      "id": "sr_3236421708",
      "price": 10000,
      "lat": 49.8369429207706,
      "lng": 18.2712169911595,
      "sqm": 50,
      "rooms": 2,
      "property_type": "flat",
      "address": "Sládkova, Moravská Ostrava, Ostrava",
      "zone": "Moravská Ostrava",
      "url": "https://www.sreality.cz/detail/pronajem/byt/2+kk/ostrava-moravska-ostrava-sladkova/3236421708",
      "listing_published_at": "2026-07-17",
      "listing_updated_at": "2026-07-18"
    },
    {
      "id": "sr_3540508748",
      "price": 19000,
      "lat": 49.83049852139908,
      "lng": 18.288136349949287,
      "sqm": 59,
      "rooms": 1,
      "property_type": "flat",
      "address": "Důlní, Moravská Ostrava, Ostrava",
      "zone": "Moravská Ostrava",
      "url": "https://www.sreality.cz/detail/pronajem/byt/1+kk/ostrava-moravska-ostrava-dulni/3540508748",
      "listing_published_at": "2026-07-17",
      "listing_updated_at": "2026-07-17"
    },
    {
      "id": "sr_3173507148",
      "price": 9500,
      "lat": 49.8293426386,
      "lng": 18.2659317673,
      "sqm": 35,
      "rooms": 2,
      "property_type": "flat",
      "address": "28. října, Ostrava",
      "zone": "28. října",
      "url": "https://www.sreality.cz/detail/pronajem/byt/2+kk/ostrava-28-rijna/3173507148",
      "listing_published_at": "2026-07-17",
      "listing_updated_at": "2026-07-17"
    },
    {
      "id": "sr_2368200780",
      "price": 12000,
      "lat": 49.8275319893502,
      "lng": 18.2551013491262,
      "sqm": 54,
      "rooms": 1,
      "property_type": "flat",
      "address": "28. října, Mariánské Hory, Ostrava",
      "zone": "Mariánské Hory",
      "url": "https://www.sreality.cz/detail/pronajem/byt/1+1/ostrava-marianske-hory-28-rijna/2368200780",
      "listing_published_at": "2026-07-17",
      "listing_updated_at": "2026-07-17"
    },
    {
      "id": "sr_272953420",
      "price": 9900,
      "lat": 49.794157,
      "lng": 18.232824,
      "sqm": 37,
      "rooms": 1,
      "property_type": "flat",
      "address": "Výškovická, Zábřeh, Ostrava",
      "zone": "Zábřeh",
      "url": "https://www.sreality.cz/detail/pronajem/byt/1+1/ostrava-zabreh-vyskovicka/272953420",
      "listing_published_at": "2026-06-30",
      "listing_updated_at": "2026-07-16"
    },
    {
      "id": "sr_2517925964",
      "price": 11000,
      "lat": 49.774465059458,
      "lng": 18.2446710397319,
      "sqm": 54,
      "rooms": 2,
      "property_type": "flat",
      "address": "Plzeňská, Ostrava",
      "zone": "Plzeňská",
      "url": "https://www.sreality.cz/detail/pronajem/byt/2+1/ostrava-plzenska/2517925964",
      "listing_published_at": "2026-06-11",
      "listing_updated_at": "2026-07-16"
    },
    {
      "id": "sr_3838894156",
      "price": 14393,
      "lat": 49.8448946536873,
      "lng": 18.2937987823327,
      "sqm": 54,
      "rooms": 2,
      "property_type": "flat",
      "address": "Bohumínská, Slezská Ostrava, Ostrava",
      "zone": "Slezská Ostrava",
      "url": "https://www.sreality.cz/detail/pronajem/byt/2+1/ostrava-slezska-ostrava-bohuminska/3838894156",
      "listing_published_at": "2026-07-16",
      "listing_updated_at": "2026-07-16"
    },
    {
      "id": "sr_1439752268",
      "price": 10293,
      "lat": 49.8448946536873,
      "lng": 18.2937987823327,
      "sqm": 34,
      "rooms": 1,
      "property_type": "flat",
      "address": "Bohumínská, Slezská Ostrava, Ostrava",
      "zone": "Slezská Ostrava",
      "url": "https://www.sreality.cz/detail/pronajem/byt/1+1/ostrava-slezska-ostrava-bohuminska/1439752268",
      "listing_published_at": "2026-07-16",
      "listing_updated_at": "2026-07-16"
    },
    {
      "id": "sr_549511244",
      "price": 10668,
      "lat": 49.8377069540574,
      "lng": 18.2616962963804,
      "sqm": 35,
      "rooms": 1,
      "property_type": "flat",
      "address": "Ahepjukova, Moravská Ostrava, Ostrava",
      "zone": "Moravská Ostrava",
      "url": "https://www.sreality.cz/detail/pronajem/byt/1+1/ostrava-moravska-ostrava-ahepjukova/549511244",
      "listing_published_at": "2026-07-16",
      "listing_updated_at": "2026-07-16"
    },
    {
      "id": "sr_1910562892",
      "price": 10500,
      "lat": 49.8031051206327,
      "lng": 18.2357667470652,
      "sqm": 52,
      "rooms": 2,
      "property_type": "flat",
      "address": "U Studia, Zábřeh, Ostrava",
      "zone": "Zábřeh",
      "url": "https://www.sreality.cz/detail/pronajem/byt/2+kk/ostrava-zabreh-u-studia/1910562892",
      "listing_published_at": "2026-07-16",
      "listing_updated_at": "2026-07-16"
    },
    {
      "id": "sr_1174462540",
      "price": 13000,
      "lat": 49.776053428608314,
      "lng": 18.256093766193075,
      "sqm": 70,
      "rooms": 3,
      "property_type": "flat",
      "address": "Václava Košaře, Dubina, Ostrava",
      "zone": "Dubina",
      "url": "https://www.sreality.cz/detail/pronajem/byt/3+1/ostrava-dubina-vaclava-kosare/1174462540",
      "listing_published_at": "2026-07-16",
      "listing_updated_at": "2026-07-16"
    },
    {
      "id": "sr_3949518924",
      "price": 9250,
      "lat": 49.80850365146726,
      "lng": 18.234982309185483,
      "sqm": 46,
      "rooms": 2,
      "property_type": "flat",
      "address": "Tarnavova, Zábřeh, Ostrava",
      "zone": "Zábřeh",
      "url": "https://www.sreality.cz/detail/pronajem/byt/2+1/ostrava-zabreh-tarnavova/3949518924",
      "listing_published_at": "2026-07-06",
      "listing_updated_at": "2026-07-16"
    },
    {
      "id": "sr_2435899468",
      "price": 15000,
      "lat": 49.839653443,
      "lng": 18.285446241,
      "sqm": 54,
      "rooms": 2,
      "property_type": "flat",
      "address": "Veleslavínova, Moravská Ostrava, Ostrava",
      "zone": "Moravská Ostrava",
      "url": "https://www.sreality.cz/detail/pronajem/byt/2+kk/ostrava-moravska-ostrava-veleslavinova/2435899468",
      "listing_published_at": "2026-07-16",
      "listing_updated_at": "2026-07-20"
    },
    {
      "id": "sr_757129292",
      "price": 14000,
      "lat": 49.7923582206554,
      "lng": 18.2224847903304,
      "sqm": 53,
      "rooms": 2,
      "property_type": "flat",
      "address": "Volgogradská, Zábřeh, Ostrava",
      "zone": "Zábřeh",
      "url": "https://www.sreality.cz/detail/pronajem/byt/2+1/ostrava-zabreh-volgogradska/757129292",
      "listing_published_at": "2026-07-16",
      "listing_updated_at": "2026-07-16"
    },
    {
      "id": "sr_824238156",
      "price": 17800,
      "lat": 49.8024926409613,
      "lng": 18.2435159829246,
      "sqm": 65,
      "rooms": 3,
      "property_type": "flat",
      "address": "Jugoslávská, Zábřeh, Ostrava",
      "zone": "Zábřeh",
      "url": "https://www.sreality.cz/detail/pronajem/byt/3+1/ostrava-zabreh-jugoslavska/824238156",
      "listing_published_at": "2026-07-16",
      "listing_updated_at": "2026-07-23"
    },
    {
      "id": "sr_1361109068",
      "price": 13800,
      "lat": 49.8446704880334,
      "lng": 18.1618173482062,
      "sqm": 52,
      "rooms": 2,
      "property_type": "flat",
      "address": "Oty Synka, Poruba, Ostrava",
      "zone": "Poruba",
      "url": "https://www.sreality.cz/detail/pronajem/byt/2+1/ostrava-poruba-oty-synka/1361109068",
      "listing_published_at": "2026-07-16",
      "listing_updated_at": "2026-07-19"
    },
    {
      "id": "sr_3290488908",
      "price": 18950,
      "lat": 49.7874407019956,
      "lng": 18.2526202591091,
      "sqm": 71,
      "rooms": 3,
      "property_type": "flat",
      "address": "Hrabůvka, Ostrava",
      "zone": "Hrabůvka",
      "url": "https://www.sreality.cz/detail/pronajem/byt/3+kk/ostrava-hrabuvka/3290488908",
      "listing_published_at": "2026-07-16",
      "listing_updated_at": "2026-07-16"
    },
    {
      "id": "sr_1299243084",
      "price": 13000,
      "lat": 49.8128396750882,
      "lng": 18.337983298002,
      "sqm": 55,
      "rooms": 2,
      "property_type": "flat",
      "address": "Dalimilova, Radvanice, Ostrava",
      "zone": "Radvanice",
      "url": "https://www.sreality.cz/detail/pronajem/byt/2+1/ostrava-radvanice-dalimilova/1299243084",
      "listing_published_at": "2026-07-16",
      "listing_updated_at": "2026-07-16"
    },
    {
      "id": "sr_1121181772",
      "price": 39000,
      "lat": 49.8407050399785,
      "lng": 18.2862420763994,
      "sqm": 120,
      "rooms": 4,
      "property_type": "flat",
      "address": "Balcarova, Moravská Ostrava, Ostrava",
      "zone": "Moravská Ostrava",
      "url": "https://www.sreality.cz/detail/pronajem/byt/4+1/ostrava-moravska-ostrava-balcarova/1121181772",
      "listing_published_at": "2026-07-13",
      "listing_updated_at": "2026-07-15"
    },
    {
      "id": "sr_804380748",
      "price": 12200,
      "lat": 49.7917808179492,
      "lng": 18.2225938743342,
      "sqm": 54,
      "rooms": 2,
      "property_type": "flat",
      "address": "Volgogradská, Zábřeh, Ostrava",
      "zone": "Zábřeh",
      "url": "https://www.sreality.cz/detail/pronajem/byt/2+1/ostrava-zabreh-volgogradska/804380748",
      "listing_published_at": "2026-07-15",
      "listing_updated_at": "2026-07-15"
    },
    {
      "id": "sr_2784137292",
      "price": 12990,
      "lat": 49.7895787785084,
      "lng": 18.249217000246,
      "sqm": 50,
      "rooms": 2,
      "property_type": "flat",
      "address": "Krakovská, Hrabůvka, Ostrava",
      "zone": "Hrabůvka",
      "url": "https://www.sreality.cz/detail/pronajem/byt/2+1/ostrava-hrabuvka-krakovska/2784137292",
      "listing_published_at": "2026-05-18",
      "listing_updated_at": "2026-07-15"
    },
    {
      "id": "sr_2309091404",
      "price": 40000,
      "lat": 49.8134189442664,
      "lng": 18.2268479525715,
      "sqm": 111,
      "rooms": 4,
      "property_type": "flat",
      "address": "U Hrůbků, Ostrava",
      "zone": "U Hrůbků",
      "url": "https://www.sreality.cz/detail/pronajem/byt/4+kk/ostrava-u-hrubku/2309091404",
      "listing_published_at": "2026-06-25",
      "listing_updated_at": "2026-07-15"
    },
    {
      "id": "sr_434233420",
      "price": 10000,
      "lat": 49.7942366380895,
      "lng": 18.2335742066162,
      "sqm": 34,
      "rooms": 1,
      "property_type": "flat",
      "address": "Výškovická, Zábřeh, Ostrava",
      "zone": "Zábřeh",
      "url": "https://www.sreality.cz/detail/pronajem/byt/1+1/ostrava-zabreh-vyskovicka/434233420",
      "listing_published_at": "2026-07-15",
      "listing_updated_at": "2026-07-21"
    },
    {
      "id": "sr_387715916",
      "price": 10900,
      "lat": 49.8540882815,
      "lng": 18.2616377712,
      "sqm": 51,
      "rooms": 2,
      "property_type": "flat",
      "address": "Palackého, Přívoz, Ostrava",
      "zone": "Přívoz",
      "url": "https://www.sreality.cz/detail/pronajem/byt/2+kk/ostrava-privoz-palackeho/387715916",
      "listing_published_at": "2025-12-12",
      "listing_updated_at": "2026-07-15"
    },
    {
      "id": "sr_4028695372",
      "price": 13500,
      "lat": 49.8429495833,
      "lng": 18.3326284519,
      "sqm": 74,
      "rooms": 3,
      "property_type": "flat",
      "address": "Československé armády, Michálkovice, Ostrava",
      "zone": "Michálkovice",
      "url": "https://www.sreality.cz/detail/pronajem/byt/3+kk/ostrava-michalkovice-ceskoslovenske-armady/4028695372",
      "listing_published_at": "2026-01-15",
      "listing_updated_at": "2026-07-15"
    },
    {
      "id": "sr_1225908300",
      "price": 6600,
      "lat": 49.836487948,
      "lng": 18.179437493,
      "sqm": 28,
      "rooms": 1,
      "property_type": "flat",
      "address": "Sokolovská, Poruba, Ostrava",
      "zone": "Poruba",
      "url": "https://www.sreality.cz/detail/pronajem/byt/1+kk/ostrava-poruba-sokolovska/1225908300",
      "listing_published_at": "2026-07-15",
      "listing_updated_at": "2026-07-17"
    },
    {
      "id": "sr_1344397388",
      "price": 12500,
      "lat": 49.7826633691025,
      "lng": 18.261463076270466,
      "sqm": 53,
      "rooms": 2,
      "property_type": "flat",
      "address": "Františka Hajdy, Hrabůvka, Ostrava",
      "zone": "Hrabůvka",
      "url": "https://www.sreality.cz/detail/pronajem/byt/2+1/ostrava-hrabuvka-frantiska-hajdy/1344397388",
      "listing_published_at": "2026-07-15",
      "listing_updated_at": "2026-07-15"
    },
    {
      "id": "sr_2270289996",
      "price": 9500,
      "lat": 49.81985,
      "lng": 18.188311,
      "sqm": 36,
      "rooms": 1,
      "property_type": "flat",
      "address": "Evžena Rošického, Svinov, Ostrava",
      "zone": "Svinov",
      "url": "https://www.sreality.cz/detail/pronajem/byt/1+1/ostrava-svinov-evzena-rosickeho/2270289996",
      "listing_published_at": "2026-07-15",
      "listing_updated_at": "2026-07-15"
    },
    {
      "id": "sr_3094470732",
      "price": 13900,
      "lat": 49.8054161,
      "lng": 18.2347679,
      "sqm": 65,
      "rooms": 3,
      "property_type": "flat",
      "address": "Horymírova, Zábřeh, Ostrava",
      "zone": "Zábřeh",
      "url": "https://www.sreality.cz/detail/pronajem/byt/3+1/ostrava-zabreh-horymirova/3094470732",
      "listing_published_at": "2026-07-15",
      "listing_updated_at": "2026-07-20"
    },
    {
      "id": "sr_3463569484",
      "price": 7100,
      "lat": 49.8342884176539,
      "lng": 18.2607852491809,
      "sqm": 21,
      "rooms": 1,
      "property_type": "flat",
      "address": "Gen. Janka, Mariánské Hory, Ostrava",
      "zone": "Mariánské Hory",
      "url": "https://www.sreality.cz/detail/pronajem/byt/1+kk/ostrava-marianske-hory-gen-janka/3463569484",
      "listing_published_at": "2026-07-15",
      "listing_updated_at": "2026-07-15"
    },
    {
      "id": "sr_949149772",
      "price": 11900,
      "lat": 49.8441596026109,
      "lng": 18.2964628381318,
      "sqm": 50,
      "rooms": 2,
      "property_type": "flat",
      "address": "Bohumínská, Slezská Ostrava, Ostrava",
      "zone": "Slezská Ostrava",
      "url": "https://www.sreality.cz/detail/pronajem/byt/2+1/ostrava-slezska-ostrava-bohuminska/949149772",
      "listing_published_at": "2026-07-15",
      "listing_updated_at": "2026-07-16"
    },
    {
      "id": "sr_344121420",
      "price": 16900,
      "lat": 49.8426141229932,
      "lng": 18.1641944675421,
      "sqm": 68,
      "rooms": 3,
      "property_type": "flat",
      "address": "Plk. Rajmunda Prchaly, Poruba, Ostrava",
      "zone": "Poruba",
      "url": "https://www.sreality.cz/detail/pronajem/byt/3+1/ostrava-poruba-plk-rajmunda-prchaly/344121420",
      "listing_published_at": "2026-07-14",
      "listing_updated_at": "2026-07-20"
    },
    {
      "id": "sr_345022540",
      "price": 14450,
      "lat": 49.8406711019939,
      "lng": 18.297388977055,
      "sqm": 56,
      "rooms": 2,
      "property_type": "flat",
      "address": "U Staré elektrárny, Slezská Ostrava, Ostrava",
      "zone": "Slezská Ostrava",
      "url": "https://www.sreality.cz/detail/pronajem/byt/2+kk/ostrava-slezska-ostrava-u-stare-elektrarny/345022540",
      "listing_published_at": "2026-05-04",
      "listing_updated_at": "2026-07-14"
    },
    {
      "id": "sr_4171423820",
      "price": 9000,
      "lat": 49.835635713415,
      "lng": 18.17974599355907,
      "sqm": 72,
      "rooms": 3,
      "property_type": "flat",
      "address": "Kyjevská, Poruba, Ostrava",
      "zone": "Poruba",
      "url": "https://www.sreality.cz/detail/pronajem/byt/3+1/ostrava-poruba-kyjevska/4171423820",
      "listing_published_at": "2026-07-14",
      "listing_updated_at": "2026-07-20"
    },
    {
      "id": "sr_2344804428",
      "price": 14000,
      "lat": 49.8355545889428,
      "lng": 18.2722210584153,
      "sqm": 55,
      "rooms": 2,
      "property_type": "flat",
      "address": "Varenská, Moravská Ostrava, Ostrava",
      "zone": "Moravská Ostrava",
      "url": "https://www.sreality.cz/detail/pronajem/byt/2+1/ostrava-moravska-ostrava-varenska/2344804428",
      "listing_published_at": "2026-07-14",
      "listing_updated_at": "2026-07-14"
    },
    {
      "id": "sr_2331172940",
      "price": 16800,
      "lat": 49.8261790101,
      "lng": 18.2466718757,
      "sqm": 90,
      "rooms": 3,
      "property_type": "flat",
      "address": "28. října, Hulváky, Ostrava",
      "zone": "Hulváky",
      "url": "https://www.sreality.cz/detail/pronajem/byt/3+1/ostrava-hulvaky-28-rijna/2331172940",
      "listing_published_at": "2026-07-14",
      "listing_updated_at": "2026-07-14"
    },
    {
      "id": "sr_575836236",
      "price": 12000,
      "lat": 49.794213,
      "lng": 18.240419,
      "sqm": 55,
      "rooms": 2,
      "property_type": "flat",
      "address": "Sologubova, Zábřeh, Ostrava",
      "zone": "Zábřeh",
      "url": "https://www.sreality.cz/detail/pronajem/byt/2+1/ostrava-zabreh-sologubova/575836236",
      "listing_published_at": "2026-05-18",
      "listing_updated_at": "2026-07-14"
    },
    {
      "id": "sr_2563174476",
      "price": 14000,
      "lat": 49.794386,
      "lng": 18.238245,
      "sqm": 52,
      "rooms": 2,
      "property_type": "flat",
      "address": "Prošinova, Zábřeh, Ostrava",
      "zone": "Zábřeh",
      "url": "https://www.sreality.cz/detail/pronajem/byt/2+kk/ostrava-zabreh-prosinova/2563174476",
      "listing_published_at": "2026-06-29",
      "listing_updated_at": "2026-07-22"
    },
    {
      "id": "sr_738669132",
      "price": 7900,
      "lat": 49.774465059458,
      "lng": 18.2446710397319,
      "sqm": 23,
      "rooms": 1,
      "property_type": "flat",
      "address": "Plzeňská, Zábřeh, Ostrava",
      "zone": "Zábřeh",
      "url": "https://www.sreality.cz/detail/pronajem/byt/1+kk/ostrava-zabreh-plzenska/738669132",
      "listing_published_at": "2025-01-10",
      "listing_updated_at": "2026-07-14"
    },
    {
      "id": "sr_1176269900",
      "price": 9900,
      "lat": 49.774465059458,
      "lng": 18.2446710397319,
      "sqm": 45,
      "rooms": 1,
      "property_type": "flat",
      "address": "Plzeňská, Zábřeh, Ostrava",
      "zone": "Zábřeh",
      "url": "https://www.sreality.cz/detail/pronajem/byt/1+1/ostrava-zabreh-plzenska/1176269900",
      "listing_published_at": "2023-05-18",
      "listing_updated_at": "2026-07-14"
    },
    {
      "id": "sr_1409278028",
      "price": 17000,
      "lat": 49.840684452706,
      "lng": 18.2860152134116,
      "sqm": 54,
      "rooms": 2,
      "property_type": "flat",
      "address": "Balcarova, Moravská Ostrava, Ostrava",
      "zone": "Moravská Ostrava",
      "url": "https://www.sreality.cz/detail/pronajem/byt/2+1/ostrava-moravska-ostrava-balcarova/1409278028",
      "listing_published_at": "2026-07-08",
      "listing_updated_at": "2026-07-14"
    },
    {
      "id": "sr_2662527052",
      "price": 9400,
      "lat": 49.78695289128534,
      "lng": 18.266613298165325,
      "sqm": 38,
      "rooms": 1,
      "property_type": "flat",
      "address": "Dr. Martínka, Hrabůvka, Ostrava",
      "zone": "Hrabůvka",
      "url": "https://www.sreality.cz/detail/pronajem/byt/1+1/ostrava-hrabuvka-dr-martinka/2662527052",
      "listing_published_at": "2026-06-24",
      "listing_updated_at": "2026-07-14"
    },
    {
      "id": "sr_2102583372",
      "price": 12790,
      "lat": 49.7917772992384,
      "lng": 18.2571541312995,
      "sqm": 54,
      "rooms": 2,
      "property_type": "flat",
      "address": "Dvouletky, Hrabůvka, Ostrava",
      "zone": "Hrabůvka",
      "url": "https://www.sreality.cz/detail/pronajem/byt/2+1/ostrava-hrabuvka-dvouletky/2102583372",
      "listing_published_at": "2026-07-14",
      "listing_updated_at": "2026-07-14"
    },
    {
      "id": "sr_4116545612",
      "price": 14990,
      "lat": 49.7858470238561,
      "lng": 18.1351934836239,
      "sqm": 65,
      "rooms": 2,
      "property_type": "flat",
      "address": "Čs. legií, Klimkovice, Klimkovice",
      "zone": "Klimkovice",
      "url": "https://www.sreality.cz/detail/pronajem/byt/2+1/klimkovice-klimkovice-cs-legii/4116545612",
      "listing_published_at": "2026-06-02",
      "listing_updated_at": "2026-07-14"
    },